"Interval"|"ms"|0|0|1,"Utc"|"ms"|0|0|1,"ElapsedTime"|"Min"|0.0|0.0|10,"Battery"|"Volts"|0.0|20.0|1,"AccelX"|"G"|-3.0|3.0|25,"AccelY"|"G"|-3.0|3.0|25,"AccelZ"|"G"|-3.0|3.0|25,"Yaw"|"Deg/Sec"|-120|120|25,"Pitch"|"Deg/Sec"|-120|120|25,"Roll"|"Deg/Sec"|-120|120|25,"Gsum"|"G"|0.0|3.0|25,"GsumMax"|"G"|0.0|3.0|25,"GsumPct"|"%"|0|100|25,"INV_Command"|""|-3277|3277|10,"VCU_INV_Inv"|""|0|1|10,"VCU_INV_Tor"|""|-3277|3277|10,"INV_Run_Fau"|""|0|65535|10,"INV_Post_Fa"|""|0|65535|10,"INV_Run_Fau"|""|0|65535|10,"INV_Post_Fa"|""|0|65535|10,"INV_Directi"|""|0|1|10,"INV_Inverte"|""|0|1|10,"INV_Relay_2"|""|0|1|10,"INV_Inverte"|""|0|1|10,"INV_Inverte"|""|0|1|10,"INV_Relay_1"|""|0|1|10,"INV_Inverte"|""|0|255|10,"INV_VSM_Sta"|""|0|15|10,"INV_Inverte"|""|0|1|10,"INV_PWM_Fre"|""|0|255|10,"INV_DC_Bus_"|""|-3277|3277|10,"INV_DC_Bus_"|""|-3277|3277|10,"INV_Delta_R"|""|-3277|3277|10,"INV_Motor_S"|""|-32768|32767|10,"INV_Torque_"|""|-3277|3277|10,"INV_Motor_T"|""|-3277|3277|10,"INV_Hot_Spo"|""|-3277|3277|10,"INV_Coolant"|""|-3277|3277|10,"INV_Fast_DC"|""|-3277|3277|10,"APPS1"|""|-32768|32767|10,"APPS2"|""|-32768|32767|10,"c_apps"|""|-32768|32767|10,"Faultcode"|""|0|4|10,"Multiplexor"|""|0|0|10,"BMS_1_1_Vol"|""|0|10|10,"BMS_1_1_Vol"|""|0|10|10,"BMS_1_1_Vol"|""|0|10|10,"BMS_1_1_Tem"|""|0|200|10,"BMS_1_1_Tem"|""|0|200|10,"BMS_1_1_Tem"|""|0|200|10,"Multiplexor"|""|0|0|10,"BMS_1_2_Vol"|""|0|10|10,"BMS_1_2_Vol"|""|0|10|10,"BMS_1_2_Vol"|""|0|10|10,"BMS_1_2_Tem"|""|0|200|10,"BMS_1_2_Tem"|""|0|200|10,"BMS_1_2_Tem"|""|0|200|10,"Multiplexor"|""|0|0|10,"BMS_2_1_Vol"|""|0|10|10,"BMS_2_1_Vol"|""|0|10|10,"BMS_2_1_Vol"|""|0|10|10,"BMS_2_1_Tem"|""|0|200|10,"BMS_2_1_Tem"|""|0|200|10,"BMS_2_1_Tem"|""|0|200|10,"Multiplexor"|""|0|0|10,"BMS_2_2_Vol"|""|0|10|10,"BMS_2_2_Vol"|""|0|10|10,"BMS_2_2_Vol"|""|0|10|10,"BMS_2_2_Tem"|""|0|200|10,"BMS_2_2_Tem"|""|0|200|10,"BMS_2_2_Tem"|""|0|200|10,"Multiplexor"|""|0|0|10,"BMS_3_1_Vol"|""|0|10|10,"BMS_3_1_Vol"|""|0|10|10,"BMS_3_1_Vol"|""|0|10|10,"BMS_3_1_Tem"|""|0|200|10,"BMS_3_1_Tem"|""|0|200|10,"BMS_3_1_Tem"|""|0|200|10,"Multiplexor"|""|0|0|10,"BMS_3_2_Vol"|""|0|10|10,"BMS_3_2_Vol"|""|0|10|10,"BMS_3_2_Vol"|""|0|10|10,"BMS_3_2_Tem"|""|0|200|10,"BMS_3_2_Tem"|""|0|200|10,"BMS_3_2_Tem"|""|0|200|10,"Multiplexor"|""|0|0|10,"BMS_4_1_Vol"|""|0|10|10,"BMS_4_1_Vol"|""|0|10|10,"BMS_4_1_Vol"|""|0|10|10,"BMS_4_1_Tem"|""|0|200|10,"BMS_4_1_Tem"|""|0|200|10,"BMS_4_1_Tem"|""|0|200|10,"Multiplexor"|""|0|0|10,"BMS_4_2_Vol"|""|0|10|10,"BMS_4_2_Vol"|""|0|10|10,"BMS_4_2_Vol"|""|0|10|10,"BMS_4_2_Tem"|""|0|200|10,"BMS_4_2_Tem"|""|0|200|10,"BMS_4_2_Tem"|""|0|200|10,"HS_MaxVolta"|""|0|655|10,"HS_MinVolta"|""|0|655|10,"HS_AverageV"|""|0|655|10,"HS_MaxTemp"|""|0|6553|10,"HS_MinTemp"|""|0|6553|10,"HS_AverageT"|""|0|6553|10,"HS_MaxTemp"|""|0|6553|10,"HS_MinTemp"|""|0|6553|10,"HS_AverageT"|""|0|6553|10,"HS_MaxTemp"|""|0|6553|10,"HS_MinTemp"|""|0|6553|10,"HS_AverageT"|""|0|6553|10,"HS_MaxTemp"|""|0|6553|10,"HS_MinTemp"|""|0|6553|10,"Latitude"|"Degrees"|-180.0|180.0|10,"Longitude"|"Degrees"|-180.0|180.0|10,"Speed"|"mph"|0.0|150.0|10,"Altitude"|"ft"|0.0|4000.0|10,"GPSSats"|""|0|20|10,"GPSQual"|""|0|5|10,"GPSDOP"|""|0.0|20.0|10,"LapCount"|""|0|0|10,"LapTime"|"Min"|0.0|0.0|10,"Sector"|""|0|0|10,"SectorTime"|"Min"|0.0|0.0|10,"PredTime"|"Min"|0.0|0.0|5,"CurrentLap"|""|0|0|10,"Distance"|"mi"|0.0|0.0|10,"SessionTime"|"Min"|0.0|0.0|10
1639,0,0.0273,,-0.0,0.02,-0.03,-0,0,0,0.04,0.04,99,,,,,,,,,,,,,,,,,,,,,,,,,,,,,,,,,,,,,,,,,,,,,,,,,,,,,,,,,,,,,,,,,,,,,,,,,,,,,,,,,,,,,,,,,,,,,,,,,,,,,,,,,,,,,,,,,,,
1679,0,0.028,,-0.0,0.02,-0.03,-0,0,0,0.04,0.04,98,,,,,,,,,,,,,,,,,,,,,,,,,,,,,,,,,,,,,,,,,,,,,,,,,,,,,,,,,,,,,,,,,,,,,,,,,,,,,,,,,,,,,,,,,,,,,,,,,,,,,,,,,,,,,,,,,,,
1699,0,0.0283,,,,,,,,,,,0,0,0,0,0,0,0,1,0,0,0,0,1,9,2,1,12,0,0,-26,0,0,138,3,3,0,35,0,0,0,0,0,0,0,0,0,0,0,0,0,0,0,0,0,0,4,4,4,0,389,389,0,0,0,0,0,0,0,0,0,0,0,0,0,0,0,2,1,0,1,159,82,0,0,0,0,0,0,0,0,0,0,0,0,0,0,0,0,0,0,0,0,0,0,0,0,0,0,0,0,0.0,0.0,0.0,0.0,0,0,0.0,0,0.0,-1,0.0,,0,0.0,0.0283
1719,0,0.0286,,-0.0,0.02,-0.03,-0,0,0,0.04,0.04,99,,,,,,,,,,,,,,,,,,,,,,,,,,,,,,,,,,,,,,,,,,,,,,,,,,,,,,,,,,,,,,,,,,,,,,,,,,,,,,,,,,,,,,,,,,,,,,,,,,,,,,,,,,,,,,,,,,,
1759,0,0.0293,,-0.0,0.02,-0.03,-0,0,0,0.04,0.04,99,,,,,,,,,,,,,,,,,,,,,,,,,,,,,,,,,,,,,,,,,,,,,,,,,,,,,,,,,,,,,,,,,,,,,,,,,,,,,,,,,,,,,,,,,,,,,,,,,,,,,,,,,,,,,,,,,,,
1799,0,0.03,,-0.0,0.02,-0.03,-0,0,0,0.04,0.04,100,0,0,0,0,0,0,0,1,0,0,0,0,1,9,2,1,12,0,0,-26,0,0,138,3,3,0,35,0,0,0,0,0,0,0,0,0,0,0,0,0,0,0,0,0,0,4,4,4,0,389,389,0,0,0,0,0,0,0,0,0,0,0,0,0,0,0,2,1,0,1,159,82,0,0,0,0,0,0,0,0,0,0,0,0,0,0,0,0,0,0,0,0,0,0,0,0,0,0,0,0,0.0,0.0,0.0,0.0,0,0,0.0,0,0.0,-1,0.0,0.0,0,0.0,0.03
1839,0,0.0306,,-0.0,0.02,-0.03,-0,0,0,0.04,0.04,98,,,,,,,,,,,,,,,,,,,,,,,,,,,,,,,,,,,,,,,,,,,,,,,,,,,,,,,,,,,,,,,,,,,,,,,,,,,,,,,,,,,,,,,,,,,,,,,,,,,,,,,,,,,,,,,,,,,
1879,0,0.0313,,-0.0,0.02,-0.03,-0,0,0,0.04,0.04,98,,,,,,,,,,,,,,,,,,,,,,,,,,,,,,,,,,,,,,,,,,,,,,,,,,,,,,,,,,,,,,,,,,,,,,,,,,,,,,,,,,,,,,,,,,,,,,,,,,,,,,,,,,,,,,,,,,,
1899,0,0.0316,,,,,,,,,,,0,0,0,0,0,0,0,1,0,0,0,0,1,9,2,1,12,0,0,-26,0,0,138,4,4,0,35,0,0,0,0,0,0,0,0,0,0,0,0,0,0,0,0,0,0,4,4,4,0,389,389,0,0,0,0,0,0,0,0,0,0,0,0,0,0,0,2,1,0,1,159,82,0,0,0,0,0,0,0,0,0,0,0,0,0,0,0,0,0,0,0,0,0,0,0,0,0,0,0,0,0.0,0.0,0.0,0.0,0,0,0.0,0,0.0,-1,0.0,,0,0.0,0.0316
1919,0,0.032,,-0.0,0.02,-0.03,-0,0,0,0.04,0.04,100,,,,,,,,,,,,,,,,,,,,,,,,,,,,,,,,,,,,,,,,,,,,,,,,,,,,,,,,,,,,,,,,,,,,,,,,,,,,,,,,,,,,,,,,,,,,,,,,,,,,,,,,,,,,,,,,,,,
1959,0,0.0326,,-0.0,0.02,-0.03,-0,0,0,0.04,0.04,99,,,,,,,,,,,,,,,,,,,,,,,,,,,,,,,,,,,,,,,,,,,,,,,,,,,,,,,,,,,,,,,,,,,,,,,,,,,,,,,,,,,,,,,,,,,,,,,,,,,,,,,,,,,,,,,,,,,
1999,0,0.0333,,-0.0,0.02,-0.03,-0,0,0,0.04,0.04,99,0,0,0,0,0,0,0,1,0,0,0,0,1,9,2,1,12,0,0,-26,0,0,138,4,4,0,38,0,0,0,0,0,0,0,0,0,0,0,0,0,0,0,0,0,0,4,4,4,0,389,389,0,0,0,0,0,0,0,0,0,0,0,0,0,0,0,2,1,0,1,159,82,0,0,0,0,0,0,0,0,0,0,0,0,0,0,0,0,0,0,0,0,0,0,0,0,0,0,0,0,0.0,0.0,0.0,0.0,0,0,0.0,0,0.0,-1,0.0,0.0,0,0.0,0.0333
2039,0,0.034,,-0.01,0.02,-0.03,-0,0,0,0.04,0.04,100,,,,,,,,,,,,,,,,,,,,,,,,,,,,,,,,,,,,,,,,,,,,,,,,,,,,,,,,,,,,,,,,,,,,,,,,,,,,,,,,,,,,,,,,,,,,,,,,,,,,,,,,,,,,,,,,,,,
2079,0,0.0347,,-0.0,0.02,-0.03,-0,0,0,0.04,0.04,100,,,,,,,,,,,,,,,,,,,,,,,,,,,,,,,,,,,,,,,,,,,,,,,,,,,,,,,,,,,,,,,,,,,,,,,,,,,,,,,,,,,,,,,,,,,,,,,,,,,,,,,,,,,,,,,,,,,
2099,0,0.035,,,,,,,,,,,0,0,0,0,0,0,0,1,0,0,0,0,1,9,2,1,12,0,0,-26,0,0,138,4,4,0,34,0,0,0,0,0,0,0,0,0,0,0,0,0,0,0,0,0,0,4,4,4,0,389,389,0,0,0,0,0,0,0,0,0,0,0,0,0,0,0,2,1,0,1,159,82,0,0,0,0,0,0,0,0,0,0,0,0,0,0,0,0,0,0,0,0,0,0,0,0,0,0,0,0,0.0,0.0,0.0,0.0,0,0,0.0,0,0.0,-1,0.0,,0,0.0,0.035
2119,0,0.0353,,-0.0,0.02,-0.03,-0,0,0,0.04,0.04,100,,,,,,,,,,,,,,,,,,,,,,,,,,,,,,,,,,,,,,,,,,,,,,,,,,,,,,,,,,,,,,,,,,,,,,,,,,,,,,,,,,,,,,,,,,,,,,,,,,,,,,,,,,,,,,,,,,,
2159,0,0.036,,-0.0,0.02,-0.03,-0,0,0,0.04,0.04,98,,,,,,,,,,,,,,,,,,,,,,,,,,,,,,,,,,,,,,,,,,,,,,,,,,,,,,,,,,,,,,,,,,,,,,,,,,,,,,,,,,,,,,,,,,,,,,,,,,,,,,,,,,,,,,,,,,,
2199,0,0.0366,,-0.0,0.02,-0.03,-0,0,0,0.04,0.04,98,0,0,0,0,0,0,0,1,0,0,0,0,1,9,2,1,12,0,0,-26,0,0,138,4,4,0,37,0,0,0,0,0,0,0,0,0,0,0,0,0,0,0,0,0,0,4,4,4,0,389,389,0,0,0,0,0,0,0,0,0,0,0,0,0,0,0,2,1,0,1,159,82,0,0,0,0,0,0,0,0,0,0,0,0,0,0,0,0,0,0,0,0,0,0,0,0,0,0,0,0,0.0,0.0,0.0,0.0,0,0,0.0,0,0.0,-1,0.0,0.0,0,0.0,0.0366
2239,0,0.0373,,-0.0,0.02,-0.03,-0,0,0,0.04,0.04,98,,,,,,,,,,,,,,,,,,,,,,,,,,,,,,,,,,,,,,,,,,,,,,,,,,,,,,,,,,,,,,,,,,,,,,,,,,,,,,,,,,,,,,,,,,,,,,,,,,,,,,,,,,,,,,,,,,,
2279,0,0.038,,-0.0,0.02,-0.03,-0,0,0,0.04,0.04,98,,,,,,,,,,,,,,,,,,,,,,,,,,,,,,,,,,,,,,,,,,,,,,,,,,,,,,,,,,,,,,,,,,,,,,,,,,,,,,,,,,,,,,,,,,,,,,,,,,,,,,,,,,,,,,,,,,,
2299,0,0.0383,,,,,,,,,,,0,0,0,0,0,0,0,1,0,0,0,0,1,9,2,1,12,0,0,-26,0,0,138,4,4,0,35,0,0,0,0,0,0,0,0,0,0,0,0,0,0,0,0,0,0,4,4,4,0,389,389,0,0,0,0,0,0,0,0,0,0,0,0,0,0,0,2,1,0,1,159,82,0,0,0,0,0,0,0,0,0,0,0,0,0,0,0,0,0,0,0,0,0,0,0,0,0,0,0,0,0.0,0.0,0.0,0.0,0,0,0.0,0,0.0,-1,0.0,,0,0.0,0.0383
2319,0,0.0386,,-0.0,0.02,-0.03,-0,0,0,0.04,0.04,98,,,,,,,,,,,,,,,,,,,,,,,,,,,,,,,,,,,,,,,,,,,,,,,,,,,,,,,,,,,,,,,,,,,,,,,,,,,,,,,,,,,,,,,,,,,,,,,,,,,,,,,,,,,,,,,,,,,
2359,0,0.0393,,-0.0,0.02,-0.03,-0,0,0,0.04,0.04,97,,,,,,,,,,,,,,,,,,,,,,,,,,,,,,,,,,,,,,,,,,,,,,,,,,,,,,,,,,,,,,,,,,,,,,,,,,,,,,,,,,,,,,,,,,,,,,,,,,,,,,,,,,,,,,,,,,,
2399,0,0.04,11.96,-0.0,0.02,-0.03,-0,0,0,0.03,0.04,95,0,0,0,0,0,0,0,1,0,0,0,0,1,9,2,1,12,0,0,-26,0,0,138,5,5,0,38,0,0,0,0,0,0,0,0,0,0,0,0,0,0,0,0,0,0,4,4,4,0,389,389,0,0,0,0,0,0,0,0,0,0,0,0,0,0,0,2,1,0,1,159,82,0,0,0,0,0,0,0,0,0,0,0,0,0,0,0,0,0,0,0,0,0,0,0,0,0,0,0,0,0.0,0.0,0.0,0.0,0,0,0.0,0,0.0,-1,0.0,0.0,0,0.0,0.04
2439,0,0.0406,,-0.0,0.02,-0.03,-0,0,0,0.04,0.04,96,,,,,,,,,,,,,,,,,,,,,,,,,,,,,,,,,,,,,,,,,,,,,,,,,,,,,,,,,,,,,,,,,,,,,,,,,,,,,,,,,,,,,,,,,,,,,,,,,,,,,,,,,,,,,,,,,,,
2479,0,0.0413,,-0.0,0.02,-0.03,-0,0,0,0.04,0.04,96,,,,,,,,,,,,,,,,,,,,,,,,,,,,,,,,,,,,,,,,,,,,,,,,,,,,,,,,,,,,,,,,,,,,,,,,,,,,,,,,,,,,,,,,,,,,,,,,,,,,,,,,,,,,,,,,,,,
2499,0,0.0416,,,,,,,,,,,0,0,0,0,0,0,0,1,0,0,0,0,1,9,2,1,12,0,0,-26,0,0,138,5,5,0,37,0,0,0,0,0,0,0,0,0,0,0,0,0,0,0,0,0,0,4,4,4,0,389,389,0,0,0,0,0,0,0,0,0,0,0,0,0,0,1,1,0,0,51,51,50,0,0,0,0,0,0,0,0,0,0,0,0,0,0,0,0,0,0,0,0,0,0,0,0,0,0,0,0,0.0,0.0,0.0,0.0,0,0,0.0,0,0.0,-1,0.0,,0,0.0,0.0416
2519,0,0.042,,-0.0,0.02,-0.03,-0,0,0,0.03,0.04,94,,,,,,,,,,,,,,,,,,,,,,,,,,,,,,,,,,,,,,,,,,,,,,,,,,,,,,,,,,,,,,,,,,,,,,,,,,,,,,,,,,,,,,,,,,,,,,,,,,,,,,,,,,,,,,,,,,,
2559,0,0.0426,,-0.0,0.02,-0.03,-0,0,0,0.03,0.04,95,,,,,,,,,,,,,,,,,,,,,,,,,,,,,,,,,,,,,,,,,,,,,,,,,,,,,,,,,,,,,,,,,,,,,,,,,,,,,,,,,,,,,,,,,,,,,,,,,,,,,,,,,,,,,,,,,,,
2599,0,0.0433,,-0.0,0.02,-0.03,-0,0,0,0.03,0.04,94,0,0,0,0,0,0,0,1,0,0,0,0,1,9,2,1,12,0,0,-26,0,0,138,5,5,0,37,0,0,0,0,0,0,0,0,0,0,0,0,0,0,0,0,0,0,4,4,4,0,389,389,0,0,0,0,0,0,0,0,0,0,0,0,0,0,1,1,0,0,51,51,50,255,0,0,0,6529,0,0,0,0,0,0,0,0,0,0,0,0,0,0,0,0,0,0,0,0,0,0,0,0.0,0.0,0.0,0.0,0,0,0.0,0,0.0,-1,0.0,0.0,0,0.0,0.0433
2639,0,0.044,,-0.0,0.02,-0.03,-0,0,0,0.04,0.04,97,,,,,,,,,,,,,,,,,,,,,,,,,,,,,,,,,,,,,,,,,,,,,,,,,,,,,,,,,,,,,,,,,,,,,,,,,,,,,,,,,,,,,,,,,,,,,,,,,,,,,,,,,,,,,,,,,,,
2679,0,0.0446,,-0.0,0.02,-0.03,-0,0,0,0.04,0.04,97,,,,,,,,,,,,,,,,,,,,,,,,,,,,,,,,,,,,,,,,,,,,,,,,,,,,,,,,,,,,,,,,,,,,,,,,,,,,,,,,,,,,,,,,,,,,,,,,,,,,,,,,,,,,,,,,,,,
2699,0,0.045,,,,,,,,,,,0,0,0,0,0,0,0,1,0,0,0,0,1,9,2,1,12,0,0,-26,0,0,138,5,5,0,35,0,0,0,0,0,0,0,0,0,0,0,0,0,0,0,0,0,0,4,4,4,0,389,389,0,0,0,0,0,0,0,0,0,0,0,0,0,0,1,1,0,0,51,51,50,255,0,0,0,6529,0,0,0,0,0,0,0,0,0,0,0,0,0,0,0,0,0,0,0,0,0,0,0,0.0,0.0,0.0,0.0,0,0,0.0,0,0.0,-1,0.0,,0,0.0,0.045
2719,0,0.0453,,-0.0,0.02,-0.03,-0,0,0,0.04,0.04,95,,,,,,,,,,,,,,,,,,,,,,,,,,,,,,,,,,,,,,,,,,,,,,,,,,,,,,,,,,,,,,,,,,,,,,,,,,,,,,,,,,,,,,,,,,,,,,,,,,,,,,,,,,,,,,,,,,,
2759,0,0.046,,-0.0,0.02,-0.03,-0,0,0,0.04,0.04,96,,,,,,,,,,,,,,,,,,,,,,,,,,,,,,,,,,,,,,,,,,,,,,,,,,,,,,,,,,,,,,,,,,,,,,,,,,,,,,,,,,,,,,,,,,,,,,,,,,,,,,,,,,,,,,,,,,,
2799,0,0.0466,,-0.0,0.02,-0.03,-0,0,0,0.03,0.04,95,0,0,0,0,0,0,0,1,0,0,0,0,1,9,2,1,12,0,0,-26,0,0,138,5,5,0,34,0,0,0,0,0,0,0,0,0,0,0,0,0,0,0,0,0,0,4,4,4,0,389,389,0,0,0,0,0,0,0,0,0,0,0,0,0,0,1,1,0,0,51,51,50,255,0,0,0,6529,0,0,0,0,0,0,0,0,0,0,0,0,0,0,0,0,0,0,0,0,0,0,0,0.0,0.0,0.0,0.0,0,0,0.0,0,0.0,-1,0.0,0.0,0,0.0,0.0466
2839,0,0.0473,,-0.0,0.02,-0.03,-0,0,0,0.03,0.04,93,,,,,,,,,,,,,,,,,,,,,,,,,,,,,,,,,,,,,,,,,,,,,,,,,,,,,,,,,,,,,,,,,,,,,,,,,,,,,,,,,,,,,,,,,,,,,,,,,,,,,,,,,,,,,,,,,,,
2879,0,0.048,,-0.0,0.02,-0.03,-0,0,0,0.03,0.04,93,,,,,,,,,,,,,,,,,,,,,,,,,,,,,,,,,,,,,,,,,,,,,,,,,,,,,,,,,,,,,,,,,,,,,,,,,,,,,,,,,,,,,,,,,,,,,,,,,,,,,,,,,,,,,,,,,,,
2899,0,0.0483,,,,,,,,,,,0,0,0,0,0,0,0,1,0,0,0,0,1,9,2,1,12,0,0,-26,0,0,138,6,6,0,41,0,0,0,0,0,0,0,0,0,0,0,0,0,0,0,0,0,0,4,4,4,0,389,389,0,0,0,0,0,0,0,0,0,0,0,0,0,0,1,1,0,0,51,51,50,255,0,0,0,6529,0,0,0,0,0,0,0,0,0,0,0,0,4915,0,0,0,0,0,0,0,0,0,0,0.0,0.0,0.0,0.0,0,0,0.0,0,0.0,-1,0.0,,0,0.0,0.0483
2919,0,0.0486,,-0.01,0.02,-0.02,-0,0,0,0.03,0.04,93,,,,,,,,,,,,,,,,,,,,,,,,,,,,,,,,,,,,,,,,,,,,,,,,,,,,,,,,,,,,,,,,,,,,,,,,,,,,,,,,,,,,,,,,,,,,,,,,,,,,,,,,,,,,,,,,,,,
2959,0,0.0493,,-0.01,0.02,-0.03,-0,0,0,0.03,0.04,94,,,,,,,,,,,,,,,,,,,,,,,,,,,,,,,,,,,,,,,,,,,,,,,,,,,,,,,,,,,,,,,,,,,,,,,,,,,,,,,,,,,,,,,,,,,,,,,,,,,,,,,,,,,,,,,,,,,
2999,0,0.05,,-0.0,0.02,-0.03,-0,0,0,0.03,0.04,95,0,0,0,0,0,0,0,1,0,0,0,0,1,9,2,1,12,0,0,-26,0,0,138,6,6,0,34,0,0,0,2,1,1,0,53,52,51,0,0,0,0,0,0,0,0,4,4,4,0,389,389,0,0,0,0,0,0,0,0,0,0,0,0,0,0,1,1,0,0,51,51,50,255,0,0,0,6529,0,0,0,0,0,0,0,0,0,0,0,0,4915,0,0,0,0,0,0,0,0,0,0,0.0,0.0,0.0,0.0,0,0,0.0,0,0.0,-1,0.0,0.0,0,0.0,0.05
3039,0,0.0506,,-0.0,0.02,-0.03,-0,0,0,0.03,0.04,94,,,,,,,,,,,,,,,,,,,,,,,,,,,,,,,,,,,,,,,,,,,,,,,,,,,,,,,,,,,,,,,,,,,,,,,,,,,,,,,,,,,,,,,,,,,,,,,,,,,,,,,,,,,,,,,,,,,
3079,0,0.0513,,-0.0,0.02,-0.03,-0,0,0,0.03,0.04,93,,,,,,,,,,,,,,,,,,,,,,,,,,,,,,,,,,,,,,,,,,,,,,,,,,,,,,,,,,,,,,,,,,,,,,,,,,,,,,,,,,,,,,,,,,,,,,,,,,,,,,,,,,,,,,,,,,,
3099,0,0.0516,,,,,,,,,,,0,0,0,0,0,0,0,1,0,0,0,0,1,9,2,1,12,0,0,-26,0,0,138,6,6,0,37,0,0,0,2,1,1,0,53,52,51,0,0,0,0,0,0,0,0,4,4,4,0,389,389,0,0,0,0,0,0,0,0,0,0,0,0,0,0,1,1,0,0,51,51,50,255,0,0,0,6529,0,0,0,0,0,0,0,0,0,0,0,0,4915,0,0,0,0,0,0,0,0,0,0,0.0,0.0,0.0,0.0,0,0,0.0,0,0.0,-1,0.0,,0,0.0,0.0516
3119,0,0.052,,-0.0,0.02,-0.03,-0,0,0,0.03,0.04,95,,,,,,,,,,,,,,,,,,,,,,,,,,,,,,,,,,,,,,,,,,,,,,,,,,,,,,,,,,,,,,,,,,,,,,,,,,,,,,,,,,,,,,,,,,,,,,,,,,,,,,,,,,,,,,,,,,,
3159,0,0.0526,,-0.0,0.02,-0.03,-0,0,0,0.03,0.04,94,,,,,,,,,,,,,,,,,,,,,,,,,,,,,,,,,,,,,,,,,,,,,,,,,,,,,,,,,,,,,,,,,,,,,,,,,,,,,,,,,,,,,,,,,,,,,,,,,,,,,,,,,,,,,,,,,,,
3199,0,0.0533,,-0.0,0.02,-0.03,-0,0,0,0.03,0.04,93,0,0,0,0,0,0,0,1,0,0,0,0,1,9,2,1,12,0,0,-26,0,0,138,6,6,0,35,0,0,0,2,1,1,0,53,52,51,0,0,0,0,0,0,0,0,4,4,4,0,389,389,0,0,0,0,0,0,0,0,0,0,0,0,0,0,1,1,0,0,51,51,50,255,0,0,0,6529,0,0,0,0,0,0,0,0,0,0,0,0,4915,0,0,0,0,0,0,0,0,0,0,0.0,0.0,0.0,0.0,0,0,0.0,0,0.0,-1,0.0,0.0,0,0.0,0.0533
3239,0,0.054,,-0.0,0.02,-0.03,-0,0,0,0.03,0.04,93,,,,,,,,,,,,,,,,,,,,,,,,,,,,,,,,,,,,,,,,,,,,,,,,,,,,,,,,,,,,,,,,,,,,,,,,,,,,,,,,,,,,,,,,,,,,,,,,,,,,,,,,,,,,,,,,,,,
3279,0,0.0546,,-0.0,0.02,-0.03,-0,0,0,0.04,0.04,95,,,,,,,,,,,,,,,,,,,,,,,,,,,,,,,,,,,,,,,,,,,,,,,,,,,,,,,,,,,,,,,,,,,,,,,,,,,,,,,,,,,,,,,,,,,,,,,,,,,,,,,,,,,,,,,,,,,
3299,0,0.055,,,,,,,,,,,0,0,0,0,32,0,0,1,0,0,0,0,0,9,7,1,12,0,0,-26,0,0,138,6,6,0,35,0,0,0,2,1,1,0,53,52,51,0,0,0,0,0,0,0,0,4,4,4,0,389,389,0,0,0,0,0,0,0,0,0,0,0,0,0,0,1,1,0,0,51,51,50,255,0,0,0,6529,0,0,0,0,0,0,0,0,0,0,0,0,4915,0,0,0,0,0,0,0,0,0,0,0.0,0.0,0.0,0.0,0,0,0.0,0,0.0,-1,0.0,,0,0.0,0.055
3319,0,0.0553,,-0.0,0.02,-0.03,-0,0,0,0.04,0.04,98,,,,,,,,,,,,,,,,,,,,,,,,,,,,,,,,,,,,,,,,,,,,,,,,,,,,,,,,,,,,,,,,,,,,,,,,,,,,,,,,,,,,,,,,,,,,,,,,,,,,,,,,,,,,,,,,,,,
3359,0,0.056,,-0.0,0.02,-0.03,-0,0,0,0.04,0.04,99,,,,,,,,,,,,,,,,,,,,,,,,,,,,,,,,,,,,,,,,,,,,,,,,,,,,,,,,,,,,,,,,,,,,,,,,,,,,,,,,,,,,,,,,,,,,,,,,,,,,,,,,,,,,,,,,,,,
3399,0,0.0566,12.06,-0.0,0.02,-0.03,-0,0,0,0.04,0.04,96,0,0,0,0,32,0,0,1,0,0,0,0,0,9,7,1,12,0,0,-26,0,0,138,6,6,0,37,0,0,0,2,1,1,0,53,52,51,0,0,0,0,0,0,0,0,4,4,4,0,389,389,0,0,0,0,0,0,0,0,0,0,0,0,0,0,1,1,0,0,51,51,50,255,0,0,0,6529,0,0,0,0,0,0,0,0,0,0,0,0,4915,0,0,0,0,0,0,0,0,0,0,0.0,0.0,0.0,0.0,0,0,0.0,0,0.0,-1,0.0,0.0,0,0.0,0.0566
3439,0,0.0573,,-0.0,0.02,-0.03,-0,0,0,0.03,0.04,95,,,,,,,,,,,,,,,,,,,,,,,,,,,,,,,,,,,,,,,,,,,,,,,,,,,,,,,,,,,,,,,,,,,,,,,,,,,,,,,,,,,,,,,,,,,,,,,,,,,,,,,,,,,,,,,,,,,
3479,0,0.058,,-0.0,0.02,-0.03,-0,0,0,0.04,0.04,96,,,,,,,,,,,,,,,,,,,,,,,,,,,,,,,,,,,,,,,,,,,,,,,,,,,,,,,,,,,,,,,,,,,,,,,,,,,,,,,,,,,,,,,,,,,,,,,,,,,,,,,,,,,,,,,,,,,
3499,0,0.0583,,,,,,,,,,,0,0,0,0,32,0,0,1,0,0,0,0,0,9,7,1,12,0,0,-26,0,0,138,7,7,0,38,0,0,0,2,1,1,0,53,52,51,0,0,0,0,0,0,0,0,4,4,4,0,389,389,0,0,0,0,0,0,0,0,0,0,0,0,0,0,1,1,0,0,51,51,50,255,0,0,0,6529,0,0,0,0,0,0,0,0,0,0,0,0,4915,0,0,0,0,0,0,0,0,0,0,0.0,0.0,0.0,0.0,0,0,0.0,0,0.0,-1,0.0,,0,0.0,0.0583
3519,0,0.0586,,-0.0,0.02,-0.03,-0,0,0,0.04,0.04,98,,,,,,,,,,,,,,,,,,,,,,,,,,,,,,,,,,,,,,,,,,,,,,,,,,,,,,,,,,,,,,,,,,,,,,,,,,,,,,,,,,,,,,,,,,,,,,,,,,,,,,,,,,,,,,,,,,,
3559,0,0.0593,,-0.0,0.02,-0.03,-0,0,0,0.04,0.04,97,,,,,,,,,,,,,,,,,,,,,,,,,,,,,,,,,,,,,,,,,,,,,,,,,,,,,,,,,,,,,,,,,,,,,,,,,,,,,,,,,,,,,,,,,,,,,,,,,,,,,,,,,,,,,,,,,,,
3599,0,0.06,,-0.0,0.02,-0.02,-0,0,0,0.03,0.04,93,0,0,0,0,32,0,0,1,0,0,0,0,0,9,7,1,12,0,0,-26,0,0,138,7,7,0,43,0,0,0,2,1,1,0,53,52,51,0,0,0,0,0,0,0,0,4,4,4,0,389,389,0,0,0,0,0,0,0,0,0,0,0,0,0,0,1,1,0,0,51,51,50,255,0,0,0,6529,0,0,0,0,0,0,0,0,0,0,0,0,4915,0,0,0,0,0,0,0,0,0,0,0.0,0.0,0.0,0.0,0,0,0.0,0,0.0,-1,0.0,0.0,0,0.0,0.06
3639,0,0.0606,,-0.0,0.02,-0.02,-0,0,0,0.03,0.04,94,,,,,,,,,,,,,,,,,,,,,,,,,,,,,,,,,,,,,,,,,,,,,,,,,,,,,,,,,,,,,,,,,,,,,,,,,,,,,,,,,,,,,,,,,,,,,,,,,,,,,,,,,,,,,,,,,,,
3679,0,0.0613,,-0.0,0.02,-0.03,-0,0,0,0.04,0.04,97,,,,,,,,,,,,,,,,,,,,,,,,,,,,,,,,,,,,,,,,,,,,,,,,,,,,,,,,,,,,,,,,,,,,,,,,,,,,,,,,,,,,,,,,,,,,,,,,,,,,,,,,,,,,,,,,,,,
3699,0,0.0616,,,,,,,,,,,0,0,0,0,32,0,0,1,0,0,0,0,0,9,7,1,12,0,0,-26,0,0,138,7,7,0,44,0,0,0,2,1,1,0,53,52,51,0,0,0,0,0,0,0,0,4,4,4,0,389,389,0,0,0,0,0,0,0,0,0,0,0,0,0,0,1,1,0,0,51,51,50,255,0,0,0,6529,0,0,0,0,0,0,0,0,0,0,0,0,4915,0,0,0,0,0,0,0,0,0,0,0.0,0.0,0.0,0.0,0,0,0.0,0,0.0,-1,0.0,,0,0.0,0.0616
3719,0,0.062,,-0.0,0.02,-0.03,-0,0,0,0.03,0.04,95,,,,,,,,,,,,,,,,,,,,,,,,,,,,,,,,,,,,,,,,,,,,,,,,,,,,,,,,,,,,,,,,,,,,,,,,,,,,,,,,,,,,,,,,,,,,,,,,,,,,,,,,,,,,,,,,,,,
3759,0,0.0626,,-0.0,0.02,-0.03,-0,0,0,0.03,0.04,94,,,,,,,,,,,,,,,,,,,,,,,,,,,,,,,,,,,,,,,,,,,,,,,,,,,,,,,,,,,,,,,,,,,,,,,,,,,,,,,,,,,,,,,,,,,,,,,,,,,,,,,,,,,,,,,,,,,
3799,0,0.0633,,-0.0,0.02,-0.03,-0,0,0,0.03,0.04,93,0,0,0,0,32,0,0,1,0,0,0,0,0,9,7,1,12,0,0,-26,0,0,138,7,7,0,44,0,0,0,2,1,1,0,53,52,51,0,0,0,0,0,0,0,0,4,4,4,0,389,389,0,0,0,0,0,0,0,0,0,0,0,0,0,0,1,1,0,0,51,51,50,255,0,0,0,6529,0,0,0,0,0,0,0,0,0,0,0,0,4915,0,0,0,0,0,0,0,0,0,0,0.0,0.0,0.0,0.0,0,0,0.0,0,0.0,-1,0.0,0.0,0,0.0,0.0633
3839,0,0.064,,-0.0,0.02,-0.02,-0,0,0,0.03,0.04,93,,,,,,,,,,,,,,,,,,,,,,,,,,,,,,,,,,,,,,,,,,,,,,,,,,,,,,,,,,,,,,,,,,,,,,,,,,,,,,,,,,,,,,,,,,,,,,,,,,,,,,,,,,,,,,,,,,,
3879,0,0.0646,,-0.01,0.02,-0.02,-0,0,0,0.03,0.04,91,,,,,,,,,,,,,,,,,,,,,,,,,,,,,,,,,,,,,,,,,,,,,,,,,,,,,,,,,,,,,,,,,,,,,,,,,,,,,,,,,,,,,,,,,,,,,,,,,,,,,,,,,,,,,,,,,,,
3899,0,0.065,,,,,,,,,,,0,0,0,0,32,0,0,1,0,0,0,0,0,9,7,1,12,0,0,-26,0,0,138,7,7,0,43,0,0,0,2,1,1,0,53,52,51,0,0,0,0,0,0,0,0,4,4,4,0,389,389,0,0,0,0,0,0,0,0,0,0,0,0,0,0,1,1,0,0,51,51,50,255,0,0,0,6529,0,0,0,0,0,0,0,0,0,0,0,0,4915,0,0,0,0,0,0,0,0,0,0,0.0,0.0,0.0,0.0,0,0,0.0,0,0.0,-1,0.0,,0,0.0,0.065
3919,0,0.0653,,-0.01,0.02,-0.02,-0,0,0,0.03,0.04,90,,,,,,,,,,,,,,,,,,,,,,,,,,,,,,,,,,,,,,,,,,,,,,,,,,,,,,,,,,,,,,,,,,,,,,,,,,,,,,,,,,,,,,,,,,,,,,,,,,,,,,,,,,,,,,,,,,,
3959,0,0.066,,-0.01,0.02,-0.02,-0,0,0,0.03,0.04,91,,,,,,,,,,,,,,,,,,,,,,,,,,,,,,,,,,,,,,,,,,,,,,,,,,,,,,,,,,,,,,,,,,,,,,,,,,,,,,,,,,,,,,,,,,,,,,,,,,,,,,,,,,,,,,,,,,,
3999,0,0.0667,,-0.01,0.02,-0.02,-0,0,0,0.03,0.04,94,0,0,0,0,32,0,0,1,0,0,0,0,0,9,7,1,12,0,0,-26,0,0,138,7,7,0,40,0,0,0,2,1,1,0,53,52,51,0,0,0,0,0,0,0,0,4,4,4,0,389,389,0,0,0,0,0,0,0,0,0,0,0,0,0,0,1,1,0,0,51,51,50,255,0,0,0,6529,0,0,0,0,0,0,0,0,0,0,0,0,4915,0,0,0,0,0,0,0,0,0,0,0.0,0.0,0.0,0.0,0,0,0.0,0,0.0,-1,0.0,0.0,0,0.0,0.0667
4039,0,0.0673,,-0.01,0.02,-0.02,-0,0,0,0.03,0.04,92,,,,,,,,,,,,,,,,,,,,,,,,,,,,,,,,,,,,,,,,,,,,,,,,,,,,,,,,,,,,,,,,,,,,,,,,,,,,,,,,,,,,,,,,,,,,,,,,,,,,,,,,,,,,,,,,,,,
4079,0,0.068,,-0.0,0.02,-0.02,-0,0,0,0.03,0.04,92,,,,,,,,,,,,,,,,,,,,,,,,,,,,,,,,,,,,,,,,,,,,,,,,,,,,,,,,,,,,,,,,,,,,,,,,,,,,,,,,,,,,,,,,,,,,,,,,,,,,,,,,,,,,,,,,,,,
4099,0,0.0683,,,,,,,,,,,0,0,0,0,32,0,0,1,0,0,0,0,0,9,7,1,12,0,0,-26,0,0,138,8,8,0,37,0,0,0,2,1,1,0,53,52,51,0,0,0,0,0,0,0,0,4,4,4,0,389,389,0,0,0,0,0,0,0,0,0,0,0,0,0,0,1,1,0,0,51,51,50,255,0,0,0,6529,0,0,0,0,0,0,0,0,0,0,0,0,4915,0,0,0,0,0,0,0,0,0,0,0.0,0.0,0.0,0.0,0,0,0.0,0,0.0,-1,0.0,,0,0.0,0.0683
4119,0,0.0686,,-0.0,0.02,-0.02,-0,0,0,0.03,0.04,91,,,,,,,,,,,,,,,,,,,,,,,,,,,,,,,,,,,,,,,,,,,,,,,,,,,,,,,,,,,,,,,,,,,,,,,,,,,,,,,,,,,,,,,,,,,,,,,,,,,,,,,,,,,,,,,,,,,
4159,0,0.0693,,-0.0,0.02,-0.02,-0,0,0,0.03,0.04,89,,,,,,,,,,,,,,,,,,,,,,,,,,,,,,,,,,,,,,,,,,,,,,,,,,,,,,,,,,,,,,,,,,,,,,,,,,,,,,,,,,,,,,,,,,,,,,,,,,,,,,,,,,,,,,,,,,,
4199,0,0.07,,-0.0,0.02,-0.02,-0,0,0,0.03,0.04,90,0,0,0,0,32,0,0,1,0,0,0,0,0,9,7,1,12,0,0,-26,0,0,138,8,8,0,41,0,0,0,2,1,1,0,53,52,51,0,0,0,0,0,0,0,1,0,0,0,51,50,48,0,0,0,0,0,0,0,0,0,0,0,0,0,0,1,1,0,0,51,51,50,255,0,0,0,6529,0,0,0,0,0,0,0,0,0,0,0,0,4915,0,0,0,0,0,0,0,0,0,0,0.0,0.0,0.0,0.0,0,0,0.0,0,0.0,-1,0.0,0.0,0,0.0,0.07
4239,0,0.0706,,-0.0,0.02,-0.02,-0,0,0,0.03,0.04,89,,,,,,,,,,,,,,,,,,,,,,,,,,,,,,,,,,,,,,,,,,,,,,,,,,,,,,,,,,,,,,,,,,,,,,,,,,,,,,,,,,,,,,,,,,,,,,,,,,,,,,,,,,,,,,,,,,,
4279,0,0.0713,,-0.01,0.02,-0.02,-0,0,0,0.03,0.04,90,,,,,,,,,,,,,,,,,,,,,,,,,,,,,,,,,,,,,,,,,,,,,,,,,,,,,,,,,,,,,,,,,,,,,,,,,,,,,,,,,,,,,,,,,,,,,,,,,,,,,,,,,,,,,,,,,,,
4299,0,0.0716,,,,,,,,,,,0,0,0,0,32,0,0,1,0,0,0,0,0,9,7,1,12,0,0,-26,0,0,138,8,8,0,43,0,0,0,2,1,1,0,53,52,51,0,0,0,0,0,0,0,1,0,0,0,51,50,48,0,0,0,0,0,0,0,0,0,0,0,0,0,0,1,1,0,0,51,51,50,255,0,0,0,6529,0,0,0,0,0,0,0,0,0,0,0,0,4915,0,0,0,0,0,0,0,0,0,0,0.0,0.0,0.0,0.0,0,0,0.0,0,0.0,-1,0.0,,0,0.0,0.0716
4319,0,0.072,,-0.01,0.02,-0.02,-0,0,0,0.03,0.04,90,,,,,,,,,,,,,,,,,,,,,,,,,,,,,,,,,,,,,,,,,,,,,,,,,,,,,,,,,,,,,,,,,,,,,,,,,,,,,,,,,,,,,,,,,,,,,,,,,,,,,,,,,,,,,,,,,,,
4359,0,0.0726,,-0.01,0.02,-0.02,-0,0,0,0.03,0.04,91,,,,,,,,,,,,,,,,,,,,,,,,,,,,,,,,,,,,,,,,,,,,,,,,,,,,,,,,,,,,,,,,,,,,,,,,,,,,,,,,,,,,,,,,,,,,,,,,,,,,,,,,,,,,,,,,,,,
4399,0,0.0733,12.12,-0.01,0.02,-0.02,-0,0,0,0.03,0.04,90,0,0,0,0,32,0,0,1,0,0,0,0,0,9,7,1,12,0,0,-26,0,0,138,8,8,0,38,0,0,0,2,1,1,0,53,52,51,0,0,0,0,0,0,0,1,0,0,0,51,50,48,0,0,0,0,0,0,0,0,0,0,0,0,0,0,1,1,0,0,51,51,50,255,0,0,0,6529,0,0,0,0,0,0,0,0,0,0,0,0,4915,0,0,0,0,0,0,0,0,0,0,0.0,0.0,0.0,0.0,0,0,0.0,0,0.0,-1,0.0,0.0,0,0.0,0.0733
4439,0,0.074,,-0.0,0.02,-0.02,-0,0,0,0.03,0.04,90,,,,,,,,,,,,,,,,,,,,,,,,,,,,,,,,,,,,,,,,,,,,,,,,,,,,,,,,,,,,,,,,,,,,,,,,,,,,,,,,,,,,,,,,,,,,,,,,,,,,,,,,,,,,,,,,,,,
4479,0,0.0746,,-0.0,0.02,-0.02,-0,0,0,0.03,0.04,90,,,,,,,,,,,,,,,,,,,,,,,,,,,,,,,,,,,,,,,,,,,,,,,,,,,,,,,,,,,,,,,,,,,,,,,,,,,,,,,,,,,,,,,,,,,,,,,,,,,,,,,,,,,,,,,,,,,
4499,0,0.075,,,,,,,,,,,0,0,0,0,32,0,0,1,0,0,0,0,0,9,7,1,12,0,0,-26,0,0,138,8,8,0,41,0,0,0,2,1,1,0,53,52,51,0,0,0,0,0,0,0,1,0,0,0,51,50,48,0,0,0,0,0,0,0,0,0,0,0,0,0,0,0,4,4,4,1,392,391,255,0,0,0,6529,0,0,0,0,0,0,0,0,0,0,0,0,4915,0,0,0,0,0,0,0,0,0,0,0.0,0.0,0.0,0.0,0,0,0.0,0,0.0,-1,0.0,,0,0.0,0.075
4519,0,0.0753,,-0.0,0.02,-0.02,-0,0,0,0.03,0.04,90,,,,,,,,,,,,,,,,,,,,,,,,,,,,,,,,,,,,,,,,,,,,,,,,,,,,,,,,,,,,,,,,,,,,,,,,,,,,,,,,,,,,,,,,,,,,,,,,,,,,,,,,,,,,,,,,,,,
4559,0,0.076,,-0.0,0.02,-0.02,-0,0,0,0.03,0.04,89,,,,,,,,,,,,,,,,,,,,,,,,,,,,,,,,,,,,,,,,,,,,,,,,,,,,,,,,,,,,,,,,,,,,,,,,,,,,,,,,,,,,,,,,,,,,,,,,,,,,,,,,,,,,,,,,,,,
4599,0,0.0766,,-0.0,0.02,-0.02,-0,0,0,0.03,0.04,91,0,0,0,0,32,0,0,1,0,0,0,0,0,9,7,1,12,0,0,-26,0,0,138,8,8,0,43,0,0,0,2,1,1,0,53,52,51,0,0,0,0,0,0,0,1,0,0,0,51,50,48,0,0,0,0,0,0,0,0,0,0,0,0,0,0,0,4,4,4,1,392,391,255,0,0,0,6529,0,0,0,0,0,0,0,0,0,0,0,0,4915,0,0,0,0,0,0,0,0,0,0,0.0,0.0,0.0,0.0,0,0,0.0,0,0.0,-1,0.0,0.0,0,0.0,0.0766
4639,0,0.0773,,-0.0,0.02,-0.02,-0,0,0,0.03,0.04,91,,,,,,,,,,,,,,,,,,,,,,,,,,,,,,,,,,,,,,,,,,,,,,,,,,,,,,,,,,,,,,,,,,,,,,,,,,,,,,,,,,,,,,,,,,,,,,,,,,,,,,,,,,,,,,,,,,,
4679,0,0.078,,-0.0,0.02,-0.02,-0,0,0,0.03,0.04,91,,,,,,,,,,,,,,,,,,,,,,,,,,,,,,,,,,,,,,,,,,,,,,,,,,,,,,,,,,,,,,,,,,,,,,,,,,,,,,,,,,,,,,,,,,,,,,,,,,,,,,,,,,,,,,,,,,,
4699,0,0.0783,,,,,,,,,,,0,0,0,0,32,0,0,1,0,0,0,0,0,9,7,1,12,0,0,-26,0,0,138,8,8,0,41,0,0,0,2,1,1,0,53,52,51,0,0,0,0,0,0,0,1,0,0,0,51,50,48,0,0,0,0,0,0,0,0,0,0,0,0,0,0,0,4,4,4,1,392,391,255,0,0,0,6529,0,0,0,0,0,0,0,0,0,0,0,0,4915,0,0,0,0,0,0,0,0,0,0,0.0,0.0,0.0,0.0,0,0,0.0,0,0.0,-1,0.0,,0,0.0,0.0783
4719,0,0.0786,,-0.0,0.02,-0.02,-0,0,0,0.03,0.04,92,,,,,,,,,,,,,,,,,,,,,,,,,,,,,,,,,,,,,,,,,,,,,,,,,,,,,,,,,,,,,,,,,,,,,,,,,,,,,,,,,,,,,,,,,,,,,,,,,,,,,,,,,,,,,,,,,,,
4759,0,0.0793,,-0.0,0.02,-0.02,-0,0,0,0.03,0.04,93,,,,,,,,,,,,,,,,,,,,,,,,,,,,,,,,,,,,,,,,,,,,,,,,,,,,,,,,,,,,,,,,,,,,,,,,,,,,,,,,,,,,,,,,,,,,,,,,,,,,,,,,,,,,,,,,,,,
4799,0,0.08,,-0.0,0.02,-0.02,-0,0,0,0.03,0.04,91,0,0,0,0,32,0,0,1,0,0,0,0,0,9,7,1,12,0,0,-26,0,0,138,9,9,0,41,0,0,0,2,1,1,0,53,52,51,0,0,0,0,0,0,0,1,0,0,0,51,50,48,0,0,0,0,0,0,0,0,0,0,0,0,0,0,0,4,4,4,1,392,391,255,0,0,0,6529,0,0,0,0,0,0,0,0,0,0,0,0,4915,0,0,0,0,0,0,0,0,0,0,0.0,0.0,0.0,0.0,0,0,0.0,0,0.0,-1,0.0,0.0,0,0.0,0.08
4839,0,0.0806,,-0.0,0.02,-0.02,-0,0,0,0.03,0.04,90,,,,,,,,,,,,,,,,,,,,,,,,,,,,,,,,,,,,,,,,,,,,,,,,,,,,,,,,,,,,,,,,,,,,,,,,,,,,,,,,,,,,,,,,,,,,,,,,,,,,,,,,,,,,,,,,,,,
4879,0,0.0813,,-0.0,0.02,-0.02,-0,0,0,0.03,0.04,92,,,,,,,,,,,,,,,,,,,,,,,,,,,,,,,,,,,,,,,,,,,,,,,,,,,,,,,,,,,,,,,,,,,,,,,,,,,,,,,,,,,,,,,,,,,,,,,,,,,,,,,,,,,,,,,,,,,
4899,0,0.0816,,,,,,,,,,,0,0,0,0,32,0,0,1,0,0,0,0,0,9,7,1,12,0,0,-26,0,0,138,9,9,0,40,0,0,0,2,1,1,0,53,52,51,0,0,0,0,0,0,0,1,0,0,0,51,50,48,0,0,0,0,0,0,0,0,0,0,0,0,0,0,0,4,4,4,1,392,391,255,0,0,0,6529,0,0,0,0,0,0,0,0,0,0,0,0,4915,0,0,0,0,0,0,0,0,0,0,0.0,0.0,0.0,0.0,0,0,0.0,0,0.0,-1,0.0,,0,0.0,0.0816
4919,0,0.082,,-0.0,0.02,-0.02,-0,0,0,0.03,0.04,92,,,,,,,,,,,,,,,,,,,,,,,,,,,,,,,,,,,,,,,,,,,,,,,,,,,,,,,,,,,,,,,,,,,,,,,,,,,,,,,,,,,,,,,,,,,,,,,,,,,,,,,,,,,,,,,,,,,
4959,0,0.0826,,-0.0,0.02,-0.02,-0,0,0,0.03,0.04,92,,,,,,,,,,,,,,,,,,,,,,,,,,,,,,,,,,,,,,,,,,,,,,,,,,,,,,,,,,,,,,,,,,,,,,,,,,,,,,,,,,,,,,,,,,,,,,,,,,,,,,,,,,,,,,,,,,,
4999,0,0.0833,,-0.0,0.02,-0.02,-0,0,0,0.03,0.04,94,0,0,0,0,32,0,0,1,0,0,0,0,0,9,7,1,12,0,0,-26,0,0,138,9,9,0,38,0,0,0,2,1,1,0,53,52,51,0,0,0,0,0,0,0,1,0,0,0,51,50,48,0,0,0,0,0,0,0,0,0,0,0,0,0,0,0,4,4,4,1,392,391,255,0,0,0,6529,0,0,0,0,0,0,0,0,0,0,0,0,4915,0,0,0,0,0,0,0,0,0,0,0.0,0.0,0.0,0.0,0,0,0.0,0,0.0,-1,0.0,0.0,0,0.0,0.0833
5039,0,0.084,,-0.0,0.02,-0.02,-0,0,0,0.03,0.04,93,,,,,,,,,,,,,,,,,,,,,,,,,,,,,,,,,,,,,,,,,,,,,,,,,,,,,,,,,,,,,,,,,,,,,,,,,,,,,,,,,,,,,,,,,,,,,,,,,,,,,,,,,,,,,,,,,,,
5079,0,0.0846,,-0.0,0.02,-0.02,-0,0,0,0.03,0.04,94,,,,,,,,,,,,,,,,,,,,,,,,,,,,,,,,,,,,,,,,,,,,,,,,,,,,,,,,,,,,,,,,,,,,,,,,,,,,,,,,,,,,,,,,,,,,,,,,,,,,,,,,,,,,,,,,,,,
5099,0,0.085,,,,,,,,,,,0,0,0,0,32,0,0,1,0,0,0,0,0,9,7,1,12,0,0,-26,0,0,138,9,9,0,44,0,0,0,2,1,1,0,53,52,51,0,0,0,0,0,0,0,1,0,0,0,51,50,48,0,0,0,0,0,0,0,0,0,0,0,0,0,0,0,4,4,4,1,392,391,255,0,0,0,6529,0,0,0,0,0,0,0,0,0,0,0,0,4915,0,0,0,0,0,0,0,0,0,0,0.0,0.0,0.0,0.0,0,0,0.0,0,0.0,-1,0.0,,0,0.0,0.085
5119,0,0.0853,,-0.0,0.02,-0.02,-0,0,0,0.03,0.04,93,,,,,,,,,,,,,,,,,,,,,,,,,,,,,,,,,,,,,,,,,,,,,,,,,,,,,,,,,,,,,,,,,,,,,,,,,,,,,,,,,,,,,,,,,,,,,,,,,,,,,,,,,,,,,,,,,,,
5159,0,0.086,,-0.01,0.02,-0.02,-0,0,0,0.03,0.04,93,,,,,,,,,,,,,,,,,,,,,,,,,,,,,,,,,,,,,,,,,,,,,,,,,,,,,,,,,,,,,,,,,,,,,,,,,,,,,,,,,,,,,,,,,,,,,,,,,,,,,,,,,,,,,,,,,,,
5199,0,0.0866,,-0.01,0.02,-0.02,-0,0,0,0.03,0.04,92,0,0,0,0,32,0,0,1,0,0,0,0,0,9,7,1,12,0,0,-26,0,0,138,9,9,0,41,0,0,0,2,1,1,0,53,52,51,0,0,0,0,0,0,0,1,0,0,0,51,50,48,0,0,0,0,0,0,0,0,0,0,0,0,0,0,0,4,4,4,1,392,391,255,0,0,0,6529,0,0,0,0,0,0,0,0,0,0,0,0,4915,0,0,0,0,0,0,0,0,0,0,0.0,0.0,0.0,0.0,0,0,0.0,0,0.0,-1,0.0,0.0,0,0.0,0.0866
5239,0,0.0873,,-0.01,0.02,-0.02,-0,0,0,0.03,0.04,93,,,,,,,,,,,,,,,,,,,,,,,,,,,,,,,,,,,,,,,,,,,,,,,,,,,,,,,,,,,,,,,,,,,,,,,,,,,,,,,,,,,,,,,,,,,,,,,,,,,,,,,,,,,,,,,,,,,
5279,0,0.088,,-0.01,0.02,-0.02,-0,0,0,0.03,0.04,93,,,,,,,,,,,,,,,,,,,,,,,,,,,,,,,,,,,,,,,,,,,,,,,,,,,,,,,,,,,,,,,,,,,,,,,,,,,,,,,,,,,,,,,,,,,,,,,,,,,,,,,,,,,,,,,,,,,
5299,0,0.0883,,,,,,,,,,,0,0,0,0,32,0,0,1,0,0,0,0,0,9,7,1,12,0,0,-26,0,0,138,9,9,0,40,0,0,0,2,1,1,0,53,52,51,0,0,0,0,0,0,0,1,0,0,0,51,50,48,0,0,0,0,0,0,0,0,0,0,0,0,0,0,0,4,4,4,1,392,391,255,0,0,0,6529,0,0,0,0,0,0,0,0,0,0,0,0,4915,0,0,0,0,0,0,0,0,0,0,0.0,0.0,0.0,0.0,0,0,0.0,0,0.0,-1,0.0,,0,0.0,0.0883
5319,0,0.0887,,-0.0,0.02,-0.02,-0,0,0,0.03,0.04,93,,,,,,,,,,,,,,,,,,,,,,,,,,,,,,,,,,,,,,,,,,,,,,,,,,,,,,,,,,,,,,,,,,,,,,,,,,,,,,,,,,,,,,,,,,,,,,,,,,,,,,,,,,,,,,,,,,,
5359,0,0.0893,,-0.01,0.02,-0.02,-0,0,0,0.03,0.04,95,,,,,,,,,,,,,,,,,,,,,,,,,,,,,,,,,,,,,,,,,,,,,,,,,,,,,,,,,,,,,,,,,,,,,,,,,,,,,,,,,,,,,,,,,,,,,,,,,,,,,,,,,,,,,,,,,,,
5399,0,0.09,12.0,-0.01,0.02,-0.02,-0,0,0,0.03,0.04,93,0,0,0,0,32,0,0,1,0,0,0,0,0,9,7,1,12,0,0,-26,0,0,138,10,10,0,38,0,0,0,2,1,1,0,53,52,51,0,0,0,0,0,0,0,1,0,0,0,51,50,48,0,0,0,0,0,0,0,0,0,0,0,0,0,0,0,4,4,4,1,392,391,255,0,0,0,6529,0,0,0,0,0,0,0,0,0,0,0,0,4915,0,0,0,0,0,0,0,0,0,0,0.0,0.0,0.0,0.0,0,0,0.0,0,0.0,-1,0.0,0.0,0,0.0,0.09
5439,0,0.0906,,-0.01,0.02,-0.02,-0,0,0,0.03,0.04,93,,,,,,,,,,,,,,,,,,,,,,,,,,,,,,,,,,,,,,,,,,,,,,,,,,,,,,,,,,,,,,,,,,,,,,,,,,,,,,,,,,,,,,,,,,,,,,,,,,,,,,,,,,,,,,,,,,,
5479,0,0.0913,,-0.01,0.02,-0.02,-0,0,0,0.03,0.04,94,,,,,,,,,,,,,,,,,,,,,,,,,,,,,,,,,,,,,,,,,,,,,,,,,,,,,,,,,,,,,,,,,,,,,,,,,,,,,,,,,,,,,,,,,,,,,,,,,,,,,,,,,,,,,,,,,,,
5499,0,0.0916,,,,,,,,,,,0,0,0,0,32,0,0,1,0,0,0,0,0,9,7,1,12,0,0,-26,0,0,138,10,10,0,41,0,0,0,2,1,1,0,53,52,51,0,0,0,0,0,0,0,1,0,0,0,51,50,48,0,0,0,0,0,0,0,0,0,0,0,0,0,0,1,1,0,0,51,51,50,255,0,0,0,6529,0,0,0,0,0,0,0,0,0,0,0,0,4915,0,0,0,0,0,0,0,0,0,0,0.0,0.0,0.0,0.0,0,0,0.0,0,0.0,-1,0.0,,0,0.0,0.0916
5519,0,0.092,,-0.01,0.02,-0.02,-0,0,0,0.03,0.04,92,,,,,,,,,,,,,,,,,,,,,,,,,,,,,,,,,,,,,,,,,,,,,,,,,,,,,,,,,,,,,,,,,,,,,,,,,,,,,,,,,,,,,,,,,,,,,,,,,,,,,,,,,,,,,,,,,,,
5559,0,0.0926,,-0.01,0.02,-0.02,-0,0,0,0.03,0.04,94,,,,,,,,,,,,,,,,,,,,,,,,,,,,,,,,,,,,,,,,,,,,,,,,,,,,,,,,,,,,,,,,,,,,,,,,,,,,,,,,,,,,,,,,,,,,,,,,,,,,,,,,,,,,,,,,,,,
5599,0,0.0933,,-0.01,0.02,-0.02,-0,0,0,0.03,0.04,94,0,0,0,0,32,0,0,1,0,0,0,0,0,9,7,1,12,0,0,-26,0,0,138,10,10,0,43,0,0,0,2,1,1,0,53,52,51,0,0,0,0,0,0,0,1,0,0,0,51,50,48,0,0,0,0,0,0,0,0,0,0,0,0,0,0,1,1,0,0,51,51,50,0,0,0,0,0,0,0,0,0,0,0,0,0,0,0,0,0,4915,0,0,0,0,0,0,0,0,0,0,0.0,0.0,0.0,0.0,0,0,0.0,0,0.0,-1,0.0,0.0,0,0.0,0.0933
5639,0,0.094,,-0.0,0.02,-0.02,-0,0,0,0.03,0.04,92,,,,,,,,,,,,,,,,,,,,,,,,,,,,,,,,,,,,,,,,,,,,,,,,,,,,,,,,,,,,,,,,,,,,,,,,,,,,,,,,,,,,,,,,,,,,,,,,,,,,,,,,,,,,,,,,,,,
5679,0,0.0946,,-0.0,0.02,-0.02,-0,1,0,0.03,0.04,93,,,,,,,,,,,,,,,,,,,,,,,,,,,,,,,,,,,,,,,,,,,,,,,,,,,,,,,,,,,,,,,,,,,,,,,,,,,,,,,,,,,,,,,,,,,,,,,,,,,,,,,,,,,,,,,,,,,
5699,0,0.095,,,,,,,,,,,0,0,0,0,32,0,0,1,0,0,0,0,0,9,7,1,12,0,0,-26,0,0,138,10,10,0,41,0,0,0,2,1,1,0,53,52,51,0,0,0,0,0,0,0,1,0,0,0,51,50,48,0,0,0,0,0,0,0,0,0,0,0,0,0,0,1,1,0,0,51,51,50,0,0,0,0,0,0,0,0,0,0,0,0,0,0,0,0,0,4915,0,0,0,0,0,0,0,0,0,0,0.0,0.0,0.0,0.0,0,0,0.0,0,0.0,-1,0.0,,0,0.0,0.095
5719,0,0.0953,,-0.0,0.02,-0.02,-0,1,0,0.03,0.04,93,,,,,,,,,,,,,,,,,,,,,,,,,,,,,,,,,,,,,,,,,,,,,,,,,,,,,,,,,,,,,,,,,,,,,,,,,,,,,,,,,,,,,,,,,,,,,,,,,,,,,,,,,,,,,,,,,,,
5759,0,0.096,,-0.0,0.02,-0.02,-0,0,0,0.03,0.04,93,,,,,,,,,,,,,,,,,,,,,,,,,,,,,,,,,,,,,,,,,,,,,,,,,,,,,,,,,,,,,,,,,,,,,,,,,,,,,,,,,,,,,,,,,,,,,,,,,,,,,,,,,,,,,,,,,,,
5799,0,0.0966,,-0.01,0.02,-0.02,-0,0,0,0.04,0.04,95,0,0,0,0,32,0,0,1,0,0,0,0,0,9,7,1,12,0,0,-26,0,0,138,10,10,0,40,0,0,0,2,1,1,0,53,52,51,0,0,0,0,0,0,0,1,0,0,0,51,50,48,0,0,0,0,0,0,0,0,0,0,0,0,0,0,1,1,0,0,51,51,50,0,0,0,0,0,0,0,0,0,0,0,0,0,0,0,0,0,4915,0,0,0,0,0,0,0,0,0,0,0.0,0.0,0.0,0.0,0,0,0.0,0,0.0,-1,0.0,0.0,0,0.0,0.0966
5839,0,0.0973,,-0.01,0.02,-0.02,-0,0,0,0.03,0.04,94,,,,,,,,,,,,,,,,,,,,,,,,,,,,,,,,,,,,,,,,,,,,,,,,,,,,,,,,,,,,,,,,,,,,,,,,,,,,,,,,,,,,,,,,,,,,,,,,,,,,,,,,,,,,,,,,,,,
5879,0,0.098,,-0.0,0.02,-0.02,-0,0,0,0.03,0.04,91,,,,,,,,,,,,,,,,,,,,,,,,,,,,,,,,,,,,,,,,,,,,,,,,,,,,,,,,,,,,,,,,,,,,,,,,,,,,,,,,,,,,,,,,,,,,,,,,,,,,,,,,,,,,,,,,,,,
5899,0,0.0983,,,,,,,,,,,0,0,0,0,32,0,0,1,0,0,0,0,0,9,7,1,12,0,0,-26,0,0,138,10,10,0,41,0,0,0,2,1,1,0,53,52,51,0,0,0,0,0,0,0,1,0,0,0,51,50,48,0,0,0,0,0,0,0,0,0,0,0,0,0,0,1,1,0,0,51,51,50,0,0,0,0,0,0,0,0,0,0,0,0,0,0,0,0,0,0,0,0,0,0,0,0,0,0,0,0,0.0,0.0,0.0,0.0,0,0,0.0,0,0.0,-1,0.0,,0,0.0,0.0983
5919,0,0.0986,,-0.0,0.02,-0.02,-0,0,0,0.03,0.04,92,,,,,,,,,,,,,,,,,,,,,,,,,,,,,,,,,,,,,,,,,,,,,,,,,,,,,,,,,,,,,,,,,,,,,,,,,,,,,,,,,,,,,,,,,,,,,,,,,,,,,,,,,,,,,,,,,,,
5959,0,0.0993,,-0.0,0.02,-0.03,-0,0,0,0.04,0.04,97,,,,,,,,,,,,,,,,,,,,,,,,,,,,,,,,,,,,,,,,,,,,,,,,,,,,,,,,,,,,,,,,,,,,,,,,,,,,,,,,,,,,,,,,,,,,,,,,,,,,,,,,,,,,,,,,,,,
5999,0,0.1,,-0.0,0.02,-0.02,-0,0,0,0.03,0.04,93,0,0,0,0,32,0,0,1,0,0,0,0,0,9,7,1,12,0,0,-26,0,0,138,10,10,0,40,0,0,0,2,1,1,0,53,52,51,0,0,0,0,0,0,0,1,0,0,0,51,50,48,0,0,0,0,0,0,0,0,0,0,0,0,0,0,1,1,0,0,51,51,50,0,0,0,0,0,0,0,0,0,0,0,0,0,0,0,0,0,0,0,0,0,0,0,0,0,0,0,0,0.0,0.0,0.0,0.0,0,0,0.0,0,0.0,-1,0.0,0.0,0,0.0,0.1
6039,0,0.1006,,-0.0,0.02,-0.02,-0,0,0,0.04,0.04,95,,,,,,,,,,,,,,,,,,,,,,,,,,,,,,,,,,,,,,,,,,,,,,,,,,,,,,,,,,,,,,,,,,,,,,,,,,,,,,,,,,,,,,,,,,,,,,,,,,,,,,,,,,,,,,,,,,,
6079,0,0.1013,,-0.0,0.02,-0.02,-0,0,-0,0.03,0.04,95,,,,,,,,,,,,,,,,,,,,,,,,,,,,,,,,,,,,,,,,,,,,,,,,,,,,,,,,,,,,,,,,,,,,,,,,,,,,,,,,,,,,,,,,,,,,,,,,,,,,,,,,,,,,,,,,,,,
6099,0,0.1016,,,,,,,,,,,0,0,0,0,32,0,0,1,0,0,0,0,0,9,7,1,12,0,0,-26,0,0,138,10,10,0,41,0,0,0,2,1,1,0,53,52,51,0,0,0,0,0,0,0,1,0,0,0,51,50,48,0,0,0,0,0,0,0,0,0,0,0,0,0,0,1,1,0,0,51,51,50,0,0,0,0,0,0,0,0,0,0,0,0,0,0,0,0,0,0,0,0,0,0,0,0,0,0,0,0,0.0,0.0,0.0,0.0,0,0,0.0,0,0.0,-1,0.0,,0,0.0,0.1016
6119,0,0.102,,-0.0,0.02,-0.02,-0,0,0,0.03,0.04,95,,,,,,,,,,,,,,,,,,,,,,,,,,,,,,,,,,,,,,,,,,,,,,,,,,,,,,,,,,,,,,,,,,,,,,,,,,,,,,,,,,,,,,,,,,,,,,,,,,,,,,,,,,,,,,,,,,,
6159,0,0.1026,,-0.01,0.02,-0.02,-0,0,0,0.04,0.04,96,,,,,,,,,,,,,,,,,,,,,,,,,,,,,,,,,,,,,,,,,,,,,,,,,,,,,,,,,,,,,,,,,,,,,,,,,,,,,,,,,,,,,,,,,,,,,,,,,,,,,,,,,,,,,,,,,,,
6199,0,0.1033,,-0.01,0.02,-0.03,-0,0,0,0.04,0.04,97,0,0,0,0,32,0,0,1,0,0,0,0,0,9,7,1,12,0,0,-26,0,0,138,10,10,0,41,0,0,0,2,1,1,0,53,52,51,0,0,0,0,0,0,0,0,4,4,4,0,389,389,0,0,0,0,0,0,0,0,0,0,0,0,0,0,1,1,0,0,51,51,50,0,0,0,0,0,0,0,0,0,0,0,0,0,0,0,0,0,0,0,0,0,0,0,0,0,0,0,0,0.0,0.0,0.0,0.0,0,0,0.0,0,0.0,-1,0.0,0.0,0,0.0,0.1033
6239,0,0.104,,-0.01,0.02,-0.02,-0,0,0,0.04,0.04,95,,,,,,,,,,,,,,,,,,,,,,,,,,,,,,,,,,,,,,,,,,,,,,,,,,,,,,,,,,,,,,,,,,,,,,,,,,,,,,,,,,,,,,,,,,,,,,,,,,,,,,,,,,,,,,,,,,,
6279,0,0.1046,,-0.01,0.02,-0.02,-0,0,0,0.03,0.04,95,,,,,,,,,,,,,,,,,,,,,,,,,,,,,,,,,,,,,,,,,,,,,,,,,,,,,,,,,,,,,,,,,,,,,,,,,,,,,,,,,,,,,,,,,,,,,,,,,,,,,,,,,,,,,,,,,,,
6299,0,0.105,,,,,,,,,,,0,0,0,0,32,0,0,1,0,0,0,0,0,9,7,1,12,0,0,-26,0,0,138,10,10,0,43,0,0,0,2,1,1,0,53,52,51,0,0,0,0,0,0,0,0,4,4,4,0,389,389,0,0,0,0,0,0,0,0,0,0,0,0,0,0,1,1,0,0,51,51,50,0,0,0,0,0,0,0,0,0,0,0,0,0,0,0,0,0,0,0,0,0,0,0,0,0,0,0,0,0.0,0.0,0.0,0.0,0,0,0.0,0,0.0,-1,0.0,,0,0.0,0.105
6319,0,0.1053,,-0.0,0.02,-0.02,-0,0,0,0.03,0.04,95,,,,,,,,,,,,,,,,,,,,,,,,,,,,,,,,,,,,,,,,,,,,,,,,,,,,,,,,,,,,,,,,,,,,,,,,,,,,,,,,,,,,,,,,,,,,,,,,,,,,,,,,,,,,,,,,,,,
6359,0,0.106,,-0.0,0.03,-0.02,-0,0,0,0.04,0.04,96,,,,,,,,,,,,,,,,,,,,,,,,,,,,,,,,,,,,,,,,,,,,,,,,,,,,,,,,,,,,,,,,,,,,,,,,,,,,,,,,,,,,,,,,,,,,,,,,,,,,,,,,,,,,,,,,,,,
6399,0,0.1066,12.12,-0.0,0.02,-0.02,-0,0,0,0.03,0.04,95,0,0,0,0,32,0,0,1,0,0,0,0,0,9,7,1,12,0,0,-26,0,0,138,11,11,0,40,0,0,0,2,1,1,0,53,52,51,0,0,0,0,0,0,0,0,4,4,4,0,389,389,0,0,0,0,0,0,0,0,0,0,0,0,0,0,1,1,0,0,51,51,50,0,0,0,0,0,0,0,0,0,0,0,0,0,0,0,0,0,0,0,0,0,0,0,0,0,0,0,0,0.0,0.0,0.0,0.0,0,0,0.0,0,0.0,-1,0.0,0.0,0,0.0,0.1066
6439,0,0.1073,,-0.0,0.02,-0.03,-0,0,0,0.04,0.04,97,,,,,,,,,,,,,,,,,,,,,,,,,,,,,,,,,,,,,,,,,,,,,,,,,,,,,,,,,,,,,,,,,,,,,,,,,,,,,,,,,,,,,,,,,,,,,,,,,,,,,,,,,,,,,,,,,,,
6479,0,0.108,,-0.0,0.02,-0.03,-0,0,0,0.04,0.04,97,,,,,,,,,,,,,,,,,,,,,,,,,,,,,,,,,,,,,,,,,,,,,,,,,,,,,,,,,,,,,,,,,,,,,,,,,,,,,,,,,,,,,,,,,,,,,,,,,,,,,,,,,,,,,,,,,,,
6499,0,0.1083,,,,,,,,,,,0,0,0,0,32,0,0,1,0,0,0,0,0,9,7,1,12,0,0,-26,0,0,138,11,11,0,40,0,0,0,2,1,1,0,53,52,51,0,0,0,0,0,0,0,0,4,4,4,0,389,389,0,0,0,0,0,0,0,0,0,0,0,0,0,0,1,1,0,0,51,51,50,0,0,0,0,0,0,0,0,0,0,0,0,0,0,0,0,0,0,0,0,0,0,0,0,0,0,0,0,0.0,0.0,0.0,0.0,0,0,0.0,0,0.0,-1,0.0,,0,0.0,0.1083
6519,0,0.1086,,-0.01,0.02,-0.02,-0,0,0,0.03,0.04,95,,,,,,,,,,,,,,,,,,,,,,,,,,,,,,,,,,,,,,,,,,,,,,,,,,,,,,,,,,,,,,,,,,,,,,,,,,,,,,,,,,,,,,,,,,,,,,,,,,,,,,,,,,,,,,,,,,,
6559,0,0.1093,,-0.01,0.02,-0.02,-0,0,0,0.03,0.04,95,,,,,,,,,,,,,,,,,,,,,,,,,,,,,,,,,,,,,,,,,,,,,,,,,,,,,,,,,,,,,,,,,,,,,,,,,,,,,,,,,,,,,,,,,,,,,,,,,,,,,,,,,,,,,,,,,,,
6599,0,0.11,,-0.0,0.02,-0.03,-0,0,0,0.04,0.04,96,0,0,0,0,32,0,0,1,0,0,0,0,0,9,7,1,12,0,0,-26,0,0,138,11,11,0,38,0,0,0,2,1,1,0,53,52,51,0,0,0,0,0,0,0,0,4,4,4,0,389,389,0,0,0,0,0,0,0,0,0,0,0,0,0,0,1,1,0,0,51,51,50,0,0,0,0,0,0,0,0,0,0,0,0,0,0,0,0,0,0,0,0,0,0,0,0,0,0,0,0,0.0,0.0,0.0,0.0,0,0,0.0,0,0.0,-1,0.0,0.0,0,0.0,0.11
6639,0,0.1106,,-0.0,0.02,-0.02,-0,0,0,0.04,0.04,95,,,,,,,,,,,,,,,,,,,,,,,,,,,,,,,,,,,,,,,,,,,,,,,,,,,,,,,,,,,,,,,,,,,,,,,,,,,,,,,,,,,,,,,,,,,,,,,,,,,,,,,,,,,,,,,,,,,
6679,0,0.1113,,-0.0,0.02,-0.02,-0,0,0,0.04,0.04,95,,,,,,,,,,,,,,,,,,,,,,,,,,,,,,,,,,,,,,,,,,,,,,,,,,,,,,,,,,,,,,,,,,,,,,,,,,,,,,,,,,,,,,,,,,,,,,,,,,,,,,,,,,,,,,,,,,,
6699,0,0.1116,,,,,,,,,,,0,0,0,0,32,0,0,1,0,0,0,0,0,9,7,1,12,0,0,-26,0,0,138,11,11,0,41,0,0,0,2,1,1,0,53,52,51,0,0,0,0,0,0,0,0,4,4,4,0,389,389,0,0,0,0,0,0,0,0,0,0,0,0,0,0,1,1,0,0,51,51,50,0,0,0,0,0,0,0,0,0,0,0,0,0,0,0,0,0,0,0,0,0,0,0,0,0,0,0,0,0.0,0.0,0.0,0.0,0,0,0.0,0,0.0,-1,0.0,,0,0.0,0.1116
6719,0,0.112,,-0.0,0.02,-0.02,-0,0,0,0.04,0.04,96,,,,,,,,,,,,,,,,,,,,,,,,,,,,,,,,,,,,,,,,,,,,,,,,,,,,,,,,,,,,,,,,,,,,,,,,,,,,,,,,,,,,,,,,,,,,,,,,,,,,,,,,,,,,,,,,,,,
6759,0,0.1126,,-0.0,0.03,-0.02,-0,0,0,0.04,0.04,96,,,,,,,,,,,,,,,,,,,,,,,,,,,,,,,,,,,,,,,,,,,,,,,,,,,,,,,,,,,,,,,,,,,,,,,,,,,,,,,,,,,,,,,,,,,,,,,,,,,,,,,,,,,,,,,,,,,
6799,0,0.1133,,-0.0,0.03,-0.02,-0,0,0,0.03,0.04,95,0,0,0,0,32,0,0,1,0,0,0,0,0,9,7,1,12,0,0,-26,0,0,138,11,11,0,40,0,0,0,2,1,1,0,53,52,51,0,0,0,0,0,0,0,0,4,4,4,0,389,389,0,0,0,0,0,0,0,0,0,0,0,0,0,0,1,1,0,0,51,51,50,0,0,0,0,0,0,0,0,0,0,0,0,0,0,0,0,0,0,0,0,0,0,0,0,0,0,0,0,0.0,0.0,0.0,0.0,0,0,0.0,0,0.0,-1,0.0,0.0,0,0.0,0.1133
6839,0,0.114,,-0.0,0.02,-0.02,-0,0,0,0.03,0.04,93,,,,,,,,,,,,,,,,,,,,,,,,,,,,,,,,,,,,,,,,,,,,,,,,,,,,,,,,,,,,,,,,,,,,,,,,,,,,,,,,,,,,,,,,,,,,,,,,,,,,,,,,,,,,,,,,,,,
6879,0,0.1146,,-0.0,0.02,-0.02,-0,0,0,0.03,0.04,94,,,,,,,,,,,,,,,,,,,,,,,,,,,,,,,,,,,,,,,,,,,,,,,,,,,,,,,,,,,,,,,,,,,,,,,,,,,,,,,,,,,,,,,,,,,,,,,,,,,,,,,,,,,,,,,,,,,
6899,0,0.115,,,,,,,,,,,0,0,0,0,32,0,0,1,0,0,0,0,0,9,7,1,12,0,0,-26,0,0,138,11,11,0,41,0,0,0,2,1,1,0,53,52,51,0,0,0,0,0,0,0,0,4,4,4,0,389,389,0,0,0,0,0,0,0,0,0,0,0,0,0,0,1,1,0,0,51,51,50,0,0,0,0,0,0,0,0,0,0,0,0,0,0,0,0,0,0,0,0,0,0,0,0,0,0,0,0,0.0,0.0,0.0,0.0,0,0,0.0,0,0.0,-1,0.0,,0,0.0,0.115
6919,0,0.1153,,-0.0,0.02,-0.02,-0,0,0,0.03,0.04,95,,,,,,,,,,,,,,,,,,,,,,,,,,,,,,,,,,,,,,,,,,,,,,,,,,,,,,,,,,,,,,,,,,,,,,,,,,,,,,,,,,,,,,,,,,,,,,,,,,,,,,,,,,,,,,,,,,,
6959,0,0.116,,-0.0,0.02,-0.02,-0,0,0,0.03,0.04,94,,,,,,,,,,,,,,,,,,,,,,,,,,,,,,,,,,,,,,,,,,,,,,,,,,,,,,,,,,,,,,,,,,,,,,,,,,,,,,,,,,,,,,,,,,,,,,,,,,,,,,,,,,,,,,,,,,,
6999,0,0.1166,,-0.0,0.02,-0.02,-0,0,0,0.03,0.04,93,0,0,0,0,32,0,0,1,0,0,0,0,0,9,7,1,12,0,0,-26,0,0,138,11,11,0,40,0,0,0,2,1,1,0,53,52,51,0,0,0,0,0,0,0,0,4,4,4,0,389,389,0,0,0,0,0,0,0,0,0,0,0,0,0,0,1,1,0,0,51,51,50,0,0,0,0,0,0,0,0,0,0,0,0,0,0,0,0,0,0,0,0,0,0,0,0,0,0,0,0,0.0,0.0,0.0,0.0,0,0,0.0,0,0.0,-1,0.0,0.0,0,0.0,0.1166
7039,0,0.1173,,-0.0,0.02,-0.03,-0,0,0,0.03,0.04,94,,,,,,,,,,,,,,,,,,,,,,,,,,,,,,,,,,,,,,,,,,,,,,,,,,,,,,,,,,,,,,,,,,,,,,,,,,,,,,,,,,,,,,,,,,,,,,,,,,,,,,,,,,,,,,,,,,,
7079,0,0.118,,-0.0,0.02,-0.02,-0,0,0,0.03,0.04,94,,,,,,,,,,,,,,,,,,,,,,,,,,,,,,,,,,,,,,,,,,,,,,,,,,,,,,,,,,,,,,,,,,,,,,,,,,,,,,,,,,,,,,,,,,,,,,,,,,,,,,,,,,,,,,,,,,,
7099,0,0.1183,,,,,,,,,,,0,0,0,0,32,0,0,1,0,0,0,0,0,9,7,1,12,0,0,-26,0,0,138,12,12,0,40,0,0,0,2,1,1,0,53,52,51,0,0,0,0,0,0,0,0,4,4,4,0,389,389,0,0,0,0,0,0,0,0,0,0,0,0,0,0,1,1,0,0,51,51,50,0,0,0,0,0,0,0,0,0,0,0,0,0,0,0,0,0,0,0,0,0,0,0,0,0,0,0,0,0.0,0.0,0.0,0.0,0,0,0.0,0,0.0,-1,0.0,,0,0.0,0.1183
7119,0,0.1186,,-0.0,0.02,-0.02,-0,0,0,0.03,0.04,92,,,,,,,,,,,,,,,,,,,,,,,,,,,,,,,,,,,,,,,,,,,,,,,,,,,,,,,,,,,,,,,,,,,,,,,,,,,,,,,,,,,,,,,,,,,,,,,,,,,,,,,,,,,,,,,,,,,
7159,0,0.1193,,-0.0,0.02,-0.03,-0,0,0,0.04,0.04,96,,,,,,,,,,,,,,,,,,,,,,,,,,,,,,,,,,,,,,,,,,,,,,,,,,,,,,,,,,,,,,,,,,,,,,,,,,,,,,,,,,,,,,,,,,,,,,,,,,,,,,,,,,,,,,,,,,,
7199,0,0.12,,-0.0,0.02,-0.03,-0,0,0,0.04,0.04,99,0,0,0,0,32,0,0,1,0,0,0,0,0,9,7,1,12,0,0,-26,0,0,138,12,12,0,40,0,0,0,2,1,1,0,53,52,51,0,0,0,0,0,0,0,1,0,0,0,51,50,48,0,0,0,0,0,0,0,0,0,0,0,0,0,0,1,1,0,0,51,51,50,0,0,0,0,0,0,0,0,0,0,0,0,0,0,0,0,0,0,0,0,0,0,0,0,0,0,0,0,0.0,0.0,0.0,0.0,0,0,0.0,0,0.0,-1,0.0,0.0,0,0.0,0.12
7239,0,0.1206,,-0.0,0.02,-0.03,-0,0,0,0.04,0.04,100,,,,,,,,,,,,,,,,,,,,,,,,,,,,,,,,,,,,,,,,,,,,,,,,,,,,,,,,,,,,,,,,,,,,,,,,,,,,,,,,,,,,,,,,,,,,,,,,,,,,,,,,,,,,,,,,,,,
7279,0,0.1213,,-0.0,0.03,-0.03,-0,0,0,0.04,0.04,99,,,,,,,,,,,,,,,,,,,,,,,,,,,,,,,,,,,,,,,,,,,,,,,,,,,,,,,,,,,,,,,,,,,,,,,,,,,,,,,,,,,,,,,,,,,,,,,,,,,,,,,,,,,,,,,,,,,
7299,0,0.1216,,,,,,,,,,,0,0,0,0,32,0,0,1,0,0,0,0,0,9,7,1,12,0,0,-26,0,0,138,12,12,0,41,0,0,0,2,1,1,0,53,52,51,0,0,0,0,0,0,0,1,0,0,0,51,50,48,0,0,0,0,0,0,0,0,0,0,0,0,0,0,1,1,0,0,51,51,50,0,0,0,0,0,0,0,0,0,0,0,0,0,0,0,0,0,0,0,0,0,0,0,0,0,0,0,0,0.0,0.0,0.0,0.0,0,0,0.0,0,0.0,-1,0.0,,0,0.0,0.1216
7319,0,0.122,,-0.0,0.02,-0.02,-0,0,0,0.03,0.04,94,,,,,,,,,,,,,,,,,,,,,,,,,,,,,,,,,,,,,,,,,,,,,,,,,,,,,,,,,,,,,,,,,,,,,,,,,,,,,,,,,,,,,,,,,,,,,,,,,,,,,,,,,,,,,,,,,,,
7359,0,0.1226,,-0.0,0.02,-0.03,-0,0,0,0.03,0.04,95,,,,,,,,,,,,,,,,,,,,,,,,,,,,,,,,,,,,,,,,,,,,,,,,,,,,,,,,,,,,,,,,,,,,,,,,,,,,,,,,,,,,,,,,,,,,,,,,,,,,,,,,,,,,,,,,,,,
7399,0,0.1233,12.08,-0.0,0.02,-0.03,-0,0,0,0.04,0.04,99,0,0,0,0,32,0,0,1,0,0,0,0,0,9,7,1,12,0,0,-26,0,0,138,12,12,0,40,0,0,0,2,1,1,0,53,52,51,0,0,0,0,0,0,0,1,0,0,0,51,50,48,0,0,0,0,0,0,0,0,0,0,0,0,0,0,1,1,0,0,51,51,50,0,0,0,0,0,0,0,0,0,0,0,0,0,0,0,0,0,0,0,0,0,0,0,0,0,0,0,0,0.0,0.0,0.0,0.0,0,0,0.0,0,0.0,-1,0.0,0.0,0,0.0,0.1233
7439,0,0.124,,-0.0,0.02,-0.03,-0,0,0,0.04,0.04,99,,,,,,,,,,,,,,,,,,,,,,,,,,,,,,,,,,,,,,,,,,,,,,,,,,,,,,,,,,,,,,,,,,,,,,,,,,,,,,,,,,,,,,,,,,,,,,,,,,,,,,,,,,,,,,,,,,,
7479,0,0.1246,,-0.01,0.02,-0.03,-0,0,0,0.04,0.04,97,,,,,,,,,,,,,,,,,,,,,,,,,,,,,,,,,,,,,,,,,,,,,,,,,,,,,,,,,,,,,,,,,,,,,,,,,,,,,,,,,,,,,,,,,,,,,,,,,,,,,,,,,,,,,,,,,,,
7499,0,0.125,,,,,,,,,,,0,0,0,0,32,0,0,1,0,0,0,0,0,9,7,1,12,0,0,-26,0,0,138,12,12,0,40,0,0,0,2,1,1,0,53,52,51,0,0,0,0,0,0,0,1,0,0,0,51,50,48,0,0,0,0,0,0,0,0,0,0,0,0,0,0,0,4,4,4,1,391,391,0,0,0,0,0,0,0,0,0,0,0,0,0,0,0,0,0,0,0,0,0,0,0,0,0,0,0,0,0.0,0.0,0.0,0.0,0,0,0.0,0,0.0,-1,0.0,,0,0.0,0.125
7519,0,0.1253,,-0.0,0.02,-0.03,-0,0,0,0.04,0.04,96,,,,,,,,,,,,,,,,,,,,,,,,,,,,,,,,,,,,,,,,,,,,,,,,,,,,,,,,,,,,,,,,,,,,,,,,,,,,,,,,,,,,,,,,,,,,,,,,,,,,,,,,,,,,,,,,,,,
7559,0,0.126,,-0.0,0.02,-0.02,-0,0,0,0.03,0.04,94,,,,,,,,,,,,,,,,,,,,,,,,,,,,,,,,,,,,,,,,,,,,,,,,,,,,,,,,,,,,,,,,,,,,,,,,,,,,,,,,,,,,,,,,,,,,,,,,,,,,,,,,,,,,,,,,,,,
7599,0,0.1266,,-0.0,0.02,-0.03,-0,0,0,0.03,0.04,94,0,0,0,0,32,0,0,1,0,0,0,0,0,9,7,1,12,0,0,-26,0,0,138,12,12,0,43,0,0,0,2,1,1,0,53,52,51,0,0,0,0,0,0,0,1,0,0,0,51,50,48,0,0,0,0,0,0,0,0,0,0,0,0,0,0,0,4,4,4,1,391,391,0,0,0,0,0,0,0,0,0,0,0,0,0,0,0,0,0,0,0,0,0,0,0,0,0,0,0,0,0.0,0.0,0.0,0.0,0,0,0.0,0,0.0,-1,0.0,0.0,0,0.0,0.1266
7639,0,0.1273,,-0.0,0.02,-0.03,-0,0,0,0.04,0.04,95,,,,,,,,,,,,,,,,,,,,,,,,,,,,,,,,,,,,,,,,,,,,,,,,,,,,,,,,,,,,,,,,,,,,,,,,,,,,,,,,,,,,,,,,,,,,,,,,,,,,,,,,,,,,,,,,,,,
7679,0,0.128,,-0.0,0.02,-0.03,-0,0,0,0.03,0.04,94,,,,,,,,,,,,,,,,,,,,,,,,,,,,,,,,,,,,,,,,,,,,,,,,,,,,,,,,,,,,,,,,,,,,,,,,,,,,,,,,,,,,,,,,,,,,,,,,,,,,,,,,,,,,,,,,,,,
7699,0,0.1283,,,,,,,,,,,0,0,0,0,32,0,0,1,0,0,0,0,0,9,7,1,12,0,0,-26,0,0,138,12,12,0,40,0,0,0,2,1,1,0,53,52,51,0,0,0,0,0,0,0,1,0,0,0,51,50,48,0,0,0,0,0,0,0,0,0,0,0,0,0,0,0,4,4,4,1,391,391,0,0,0,0,0,0,0,0,0,0,0,0,0,0,0,0,0,0,0,0,0,0,0,0,0,0,0,0,0.0,0.0,0.0,0.0,0,0,0.0,0,0.0,-1,0.0,,0,0.0,0.1283
7719,0,0.1286,,-0.0,0.02,-0.02,-0,0,0,0.03,0.04,93,,,,,,,,,,,,,,,,,,,,,,,,,,,,,,,,,,,,,,,,,,,,,,,,,,,,,,,,,,,,,,,,,,,,,,,,,,,,,,,,,,,,,,,,,,,,,,,,,,,,,,,,,,,,,,,,,,,
7759,0,0.1293,,-0.0,0.02,-0.02,-0,0,0,0.03,0.04,93,,,,,,,,,,,,,,,,,,,,,,,,,,,,,,,,,,,,,,,,,,,,,,,,,,,,,,,,,,,,,,,,,,,,,,,,,,,,,,,,,,,,,,,,,,,,,,,,,,,,,,,,,,,,,,,,,,,
7799,0,0.13,,-0.0,0.02,-0.02,-0,0,0,0.04,0.04,95,0,0,0,0,32,0,0,1,0,0,0,0,0,9,7,1,12,0,0,-26,0,0,138,12,12,0,41,0,0,0,2,1,1,0,53,52,51,0,0,0,0,0,0,0,1,0,0,0,51,50,48,0,0,0,0,0,0,0,0,0,0,0,0,0,0,0,4,4,4,1,391,391,0,0,0,0,0,0,0,0,0,0,0,0,0,0,0,0,0,0,0,0,0,0,0,0,0,0,0,0,0.0,0.0,0.0,0.0,0,0,0.0,0,0.0,-1,0.0,0.0,0,0.0,0.13
7839,0,0.1306,,-0.0,0.02,-0.02,-0,0,-0,0.04,0.04,96,,,,,,,,,,,,,,,,,,,,,,,,,,,,,,,,,,,,,,,,,,,,,,,,,,,,,,,,,,,,,,,,,,,,,,,,,,,,,,,,,,,,,,,,,,,,,,,,,,,,,,,,,,,,,,,,,,,
7879,0,0.1313,,-0.0,0.02,-0.02,-0,0,0,0.03,0.04,94,,,,,,,,,,,,,,,,,,,,,,,,,,,,,,,,,,,,,,,,,,,,,,,,,,,,,,,,,,,,,,,,,,,,,,,,,,,,,,,,,,,,,,,,,,,,,,,,,,,,,,,,,,,,,,,,,,,
7899,0,0.1316,,,,,,,,,,,0,0,0,0,32,0,0,1,0,0,0,0,0,9,7,1,12,0,0,-26,0,0,138,12,12,0,40,0,0,0,2,1,1,0,53,52,51,0,0,0,0,0,0,0,1,0,0,0,51,50,48,0,0,0,0,0,0,0,0,0,0,0,0,0,0,0,4,4,4,1,391,391,0,0,0,0,0,0,0,0,0,0,0,0,0,0,0,0,0,0,0,0,0,0,0,0,0,0,0,0,0.0,0.0,0.0,0.0,0,0,0.0,0,0.0,-1,0.0,,0,0.0,0.1316
7919,0,0.132,,-0.0,0.03,-0.03,-0,0,0,0.04,0.04,97,,,,,,,,,,,,,,,,,,,,,,,,,,,,,,,,,,,,,,,,,,,,,,,,,,,,,,,,,,,,,,,,,,,,,,,,,,,,,,,,,,,,,,,,,,,,,,,,,,,,,,,,,,,,,,,,,,,
7959,0,0.1326,,-0.0,0.03,-0.03,-0,0,0,0.04,0.04,98,,,,,,,,,,,,,,,,,,,,,,,,,,,,,,,,,,,,,,,,,,,,,,,,,,,,,,,,,,,,,,,,,,,,,,,,,,,,,,,,,,,,,,,,,,,,,,,,,,,,,,,,,,,,,,,,,,,
7999,0,0.1333,,-0.0,0.02,-0.03,-0,0,-0,0.04,0.04,97,0,0,0,0,32,0,0,1,0,0,0,0,0,9,7,1,12,0,0,-26,0,0,138,12,12,0,40,0,0,0,2,1,1,0,53,52,51,0,0,0,0,0,0,0,1,0,0,0,51,50,48,0,0,0,0,0,0,0,0,0,0,0,0,0,0,0,4,4,4,1,391,391,0,0,0,0,0,0,0,0,0,0,0,0,0,0,0,0,0,0,0,0,0,0,0,0,0,0,0,0,0.0,0.0,0.0,0.0,0,0,0.0,0,0.0,-1,0.0,0.0,0,0.0,0.1333
8039,0,0.134,,-0.0,0.02,-0.03,-0,0,-0,0.04,0.04,96,,,,,,,,,,,,,,,,,,,,,,,,,,,,,,,,,,,,,,,,,,,,,,,,,,,,,,,,,,,,,,,,,,,,,,,,,,,,,,,,,,,,,,,,,,,,,,,,,,,,,,,,,,,,,,,,,,,
8079,0,0.1347,,-0.01,0.02,-0.03,-0,0,0,0.04,0.04,97,,,,,,,,,,,,,,,,,,,,,,,,,,,,,,,,,,,,,,,,,,,,,,,,,,,,,,,,,,,,,,,,,,,,,,,,,,,,,,,,,,,,,,,,,,,,,,,,,,,,,,,,,,,,,,,,,,,
8099,0,0.135,,,,,,,,,,,0,0,0,0,32,0,0,1,0,0,0,0,0,9,7,1,12,0,0,-26,0,0,138,12,12,0,40,0,0,0,2,1,1,0,53,52,51,0,0,0,0,0,0,0,1,0,0,0,51,50,48,0,0,0,0,0,0,0,0,0,0,0,0,0,0,0,4,4,4,1,391,391,0,0,0,0,0,0,0,0,0,0,0,0,0,0,0,0,0,0,0,0,0,0,0,0,0,0,0,0,0.0,0.0,0.0,0.0,0,0,0.0,0,0.0,-1,0.0,,0,0.0,0.135
8119,0,0.1353,,-0.0,0.02,-0.03,-0,0,-0,0.04,0.04,96,,,,,,,,,,,,,,,,,,,,,,,,,,,,,,,,,,,,,,,,,,,,,,,,,,,,,,,,,,,,,,,,,,,,,,,,,,,,,,,,,,,,,,,,,,,,,,,,,,,,,,,,,,,,,,,,,,,
8159,0,0.136,,-0.0,0.02,-0.03,-0,0,-0,0.04,0.04,96,,,,,,,,,,,,,,,,,,,,,,,,,,,,,,,,,,,,,,,,,,,,,,,,,,,,,,,,,,,,,,,,,,,,,,,,,,,,,,,,,,,,,,,,,,,,,,,,,,,,,,,,,,,,,,,,,,,
8199,0,0.1366,,-0.0,0.02,-0.03,-0,0,0,0.04,0.04,96,0,0,0,0,0,0,0,1,0,0,0,0,0,9,0,1,12,0,0,-3,2,0,138,12,12,0,41,0,0,0,2,1,1,0,53,52,51,0,0,0,0,0,0,0,1,0,0,0,51,50,48,0,0,0,0,0,0,0,0,0,0,0,0,0,0,0,4,4,4,1,391,391,0,0,0,0,0,0,0,0,0,0,0,0,0,0,0,0,0,0,0,0,0,0,0,0,0,0,0,0,0.0,0.0,0.0,0.0,0,0,0.0,0,0.0,-1,0.0,0.0,0,0.0,0.1366
8239,0,0.1373,,-0.0,0.02,-0.03,-0,0,-0,0.04,0.04,97,,,,,,,,,,,,,,,,,,,,,,,,,,,,,,,,,,,,,,,,,,,,,,,,,,,,,,,,,,,,,,,,,,,,,,,,,,,,,,,,,,,,,,,,,,,,,,,,,,,,,,,,,,,,,,,,,,,
8279,0,0.138,,-0.0,0.02,-0.03,-0,0,0,0.04,0.04,97,,,,,,,,,,,,,,,,,,,,,,,,,,,,,,,,,,,,,,,,,,,,,,,,,,,,,,,,,,,,,,,,,,,,,,,,,,,,,,,,,,,,,,,,,,,,,,,,,,,,,,,,,,,,,,,,,,,
8299,0,0.1383,,,,,,,,,,,0,0,0,0,0,0,0,1,0,0,0,0,0,9,1,1,12,13,0,-14,1,0,138,0,0,0,41,0,0,0,2,1,1,0,53,52,51,0,0,0,0,0,0,0,1,0,0,0,51,50,48,0,0,0,0,0,0,0,0,0,0,0,0,0,0,0,4,4,4,1,391,391,0,0,0,0,0,0,0,0,0,0,0,0,0,0,0,0,0,0,0,0,0,0,0,0,0,0,0,0,0.0,0.0,0.0,0.0,0,0,0.0,0,0.0,-1,0.0,,0,0.0,0.1383
8319,0,0.1386,,-0.0,0.02,-0.03,-0,0,0,0.04,0.04,96,,,,,,,,,,,,,,,,,,,,,,,,,,,,,,,,,,,,,,,,,,,,,,,,,,,,,,,,,,,,,,,,,,,,,,,,,,,,,,,,,,,,,,,,,,,,,,,,,,,,,,,,,,,,,,,,,,,
8359,0,0.1393,,-0.0,0.02,-0.03,-0,0,0,0.04,0.04,96,,,,,,,,,,,,,,,,,,,,,,,,,,,,,,,,,,,,,,,,,,,,,,,,,,,,,,,,,,,,,,,,,,,,,,,,,,,,,,,,,,,,,,,,,,,,,,,,,,,,,,,,,,,,,,,,,,,
8399,0,0.14,12.09,-0.0,0.02,-0.02,-0,0,0,0.03,0.04,93,0,0,0,0,0,0,0,1,0,0,0,0,1,9,2,1,12,96,0,-19,1,0,138,2,2,0,38,0,0,0,2,1,1,0,53,52,51,0,0,0,0,0,0,0,1,0,0,0,51,50,48,0,0,0,0,0,0,0,0,0,0,0,0,0,0,0,4,4,4,1,391,391,0,0,0,0,0,0,0,0,0,0,0,0,0,0,0,0,0,0,0,0,0,0,0,0,0,0,0,0,0.0,0.0,0.0,0.0,0,0,0.0,0,0.0,-1,0.0,0.0,0,0.0,0.14
8439,0,0.1406,,-0.0,0.02,-0.02,-0,0,0,0.03,0.04,92,,,,,,,,,,,,,,,,,,,,,,,,,,,,,,,,,,,,,,,,,,,,,,,,,,,,,,,,,,,,,,,,,,,,,,,,,,,,,,,,,,,,,,,,,,,,,,,,,,,,,,,,,,,,,,,,,,,
8479,0,0.1413,,-0.0,0.02,-0.02,-0,0,0,0.03,0.04,91,,,,,,,,,,,,,,,,,,,,,,,,,,,,,,,,,,,,,,,,,,,,,,,,,,,,,,,,,,,,,,,,,,,,,,,,,,,,,,,,,,,,,,,,,,,,,,,,,,,,,,,,,,,,,,,,,,,
8499,0,0.1417,,,,,,,,,,,0,0,0,0,0,0,0,1,0,0,0,0,1,9,2,1,12,176,0,-22,0,0,138,2,2,0,38,0,0,0,2,1,1,0,53,52,51,0,0,0,0,0,0,0,1,0,0,0,51,50,48,0,0,0,0,0,0,0,0,0,0,0,0,0,0,1,1,0,0,51,51,50,0,0,0,0,0,0,0,0,0,0,0,0,0,0,0,0,0,0,0,0,0,0,0,0,0,0,0,0,0.0,0.0,0.0,0.0,0,0,0.0,0,0.0,-1,0.0,,0,0.0,0.1417
8519,0,0.142,,-0.0,0.02,-0.02,-0,0,0,0.03,0.04,93,,,,,,,,,,,,,,,,,,,,,,,,,,,,,,,,,,,,,,,,,,,,,,,,,,,,,,,,,,,,,,,,,,,,,,,,,,,,,,,,,,,,,,,,,,,,,,,,,,,,,,,,,,,,,,,,,,,
8559,0,0.1426,,-0.0,0.02,-0.03,-0,0,0,0.03,0.04,94,,,,,,,,,,,,,,,,,,,,,,,,,,,,,,,,,,,,,,,,,,,,,,,,,,,,,,,,,,,,,,,,,,,,,,,,,,,,,,,,,,,,,,,,,,,,,,,,,,,,,,,,,,,,,,,,,,,
8599,0,0.1433,,-0.0,0.02,-0.02,-0,0,0,0.03,0.04,94,0,0,0,0,0,0,0,1,0,0,0,0,1,9,2,1,12,237,0,-24,0,0,138,2,2,0,38,0,0,0,2,1,1,0,53,52,51,0,0,0,0,0,0,0,1,0,0,0,51,50,48,0,0,0,0,0,0,0,0,0,0,0,0,0,0,1,1,0,0,51,51,50,0,0,0,0,0,0,0,0,0,0,0,0,0,0,0,0,0,0,0,0,0,0,0,0,0,0,0,0,0.0,0.0,0.0,0.0,0,0,0.0,0,0.0,-1,0.0,0.0,0,0.0,0.1433
8639,0,0.144,,-0.0,0.02,-0.02,-0,0,0,0.03,0.04,94,,,,,,,,,,,,,,,,,,,,,,,,,,,,,,,,,,,,,,,,,,,,,,,,,,,,,,,,,,,,,,,,,,,,,,,,,,,,,,,,,,,,,,,,,,,,,,,,,,,,,,,,,,,,,,,,,,,
8679,0,0.1446,,-0.01,0.02,-0.02,-0,0,0,0.03,0.04,93,,,,,,,,,,,,,,,,,,,,,,,,,,,,,,,,,,,,,,,,,,,,,,,,,,,,,,,,,,,,,,,,,,,,,,,,,,,,,,,,,,,,,,,,,,,,,,,,,,,,,,,,,,,,,,,,,,,
8699,0,0.145,,,,,,,,,,,0,0,0,0,0,0,0,1,0,0,0,0,1,9,2,1,12,282,0,-25,0,0,138,2,2,0,40,0,0,0,2,1,1,0,53,52,51,0,0,0,0,0,0,0,1,0,0,0,51,50,48,0,0,0,0,0,0,0,0,0,0,0,0,0,0,1,1,0,0,51,51,50,0,0,0,0,0,0,0,0,0,0,0,0,0,0,0,0,0,0,0,0,0,0,0,0,0,0,0,0,0.0,0.0,0.0,0.0,0,0,0.0,0,0.0,-1,0.0,,0,0.0,0.145
8719,0,0.1453,,-0.0,0.02,-0.02,-0,0,0,0.03,0.04,93,,,,,,,,,,,,,,,,,,,,,,,,,,,,,,,,,,,,,,,,,,,,,,,,,,,,,,,,,,,,,,,,,,,,,,,,,,,,,,,,,,,,,,,,,,,,,,,,,,,,,,,,,,,,,,,,,,,
8759,0,0.146,,-0.0,0.02,-0.02,-0,0,0,0.03,0.04,94,,,,,,,,,,,,,,,,,,,,,,,,,,,,,,,,,,,,,,,,,,,,,,,,,,,,,,,,,,,,,,,,,,,,,,,,,,,,,,,,,,,,,,,,,,,,,,,,,,,,,,,,,,,,,,,,,,,
8799,0,0.1466,,-0.01,0.02,-0.02,-0,0,0,0.03,0.04,95,0,0,0,0,0,0,0,1,0,0,0,0,1,9,2,1,12,310,0,-25,0,0,138,2,2,0,40,0,0,0,2,1,1,0,53,52,51,0,0,0,0,0,0,0,1,0,0,0,51,50,48,0,0,0,0,0,0,0,0,0,0,0,0,0,0,1,1,0,0,51,51,50,0,0,0,0,0,0,0,0,0,0,0,0,0,0,0,0,0,0,0,0,0,0,0,0,0,0,0,0,0.0,0.0,0.0,0.0,0,0,0.0,0,0.0,-1,0.0,0.0,0,0.0,0.1466
8839,0,0.1473,,-0.0,0.02,-0.02,-0,0,0,0.03,0.04,94,,,,,,,,,,,,,,,,,,,,,,,,,,,,,,,,,,,,,,,,,,,,,,,,,,,,,,,,,,,,,,,,,,,,,,,,,,,,,,,,,,,,,,,,,,,,,,,,,,,,,,,,,,,,,,,,,,,
8879,0,0.148,,-0.01,0.02,-0.02,-0,0,0,0.04,0.04,95,,,,,,,,,,,,,,,,,,,,,,,,,,,,,,,,,,,,,,,,,,,,,,,,,,,,,,,,,,,,,,,,,,,,,,,,,,,,,,,,,,,,,,,,,,,,,,,,,,,,,,,,,,,,,,,,,,,
8899,0,0.1483,,,,,,,,,,,0,0,0,0,0,0,0,1,0,0,0,0,1,9,2,1,12,337,0,-25,0,0,138,2,2,0,41,0,0,0,2,1,1,0,53,52,51,0,0,0,0,0,0,0,1,0,0,0,51,50,48,0,0,0,0,0,0,0,0,0,0,0,0,0,0,1,1,0,0,51,51,50,0,0,0,0,0,0,0,0,0,0,0,0,0,0,0,0,0,0,0,0,0,0,0,0,0,0,0,0,0.0,0.0,0.0,0.0,0,0,0.0,0,0.0,-1,0.0,,0,0.0,0.1483
8919,0,0.1486,,-0.01,0.02,-0.02,-0,0,0,0.03,0.04,93,,,,,,,,,,,,,,,,,,,,,,,,,,,,,,,,,,,,,,,,,,,,,,,,,,,,,,,,,,,,,,,,,,,,,,,,,,,,,,,,,,,,,,,,,,,,,,,,,,,,,,,,,,,,,,,,,,,
8959,0,0.1493,,-0.0,0.02,-0.02,-0,0,0,0.03,0.04,93,,,,,,,,,,,,,,,,,,,,,,,,,,,,,,,,,,,,,,,,,,,,,,,,,,,,,,,,,,,,,,,,,,,,,,,,,,,,,,,,,,,,,,,,,,,,,,,,,,,,,,,,,,,,,,,,,,,
8999,0,0.15,,-0.0,0.02,-0.02,-0,0,0,0.03,0.04,92,0,0,0,0,0,0,0,1,0,0,0,0,1,9,2,1,12,357,0,-25,0,0,138,2,2,0,40,0,0,0,2,1,1,0,52,52,52,0,0,0,0,0,0,0,1,0,0,0,51,50,48,0,0,0,0,0,0,0,0,0,0,0,0,0,0,1,1,0,0,51,51,50,0,0,0,0,0,0,0,0,0,0,0,0,0,0,0,0,0,0,0,0,0,0,0,0,0,0,0,0,0.0,0.0,0.0,0.0,0,0,0.0,0,0.0,-1,0.0,0.0,0,0.0,0.15
9039,0,0.1506,,-0.0,0.02,-0.02,-0,0,0,0.03,0.04,92,,,,,,,,,,,,,,,,,,,,,,,,,,,,,,,,,,,,,,,,,,,,,,,,,,,,,,,,,,,,,,,,,,,,,,,,,,,,,,,,,,,,,,,,,,,,,,,,,,,,,,,,,,,,,,,,,,,
9079,0,0.1513,,-0.0,0.02,-0.02,-0,0,0,0.03,0.04,93,,,,,,,,,,,,,,,,,,,,,,,,,,,,,,,,,,,,,,,,,,,,,,,,,,,,,,,,,,,,,,,,,,,,,,,,,,,,,,,,,,,,,,,,,,,,,,,,,,,,,,,,,,,,,,,,,,,
9099,0,0.1516,,,,,,,,,,,0,0,0,0,0,0,0,1,0,0,0,0,1,9,2,1,12,373,0,-26,0,0,138,2,2,0,43,0,0,0,2,1,1,0,52,52,52,0,0,0,0,0,0,0,1,0,0,0,51,50,48,0,0,0,0,0,0,0,0,0,0,0,0,0,0,1,1,0,0,51,51,50,0,0,0,0,0,0,0,0,0,0,0,0,0,0,0,0,0,0,0,0,0,0,0,0,0,0,0,0,0.0,0.0,0.0,0.0,0,0,0.0,0,0.0,-1,0.0,,0,0.0,0.1516
9119,0,0.152,,-0.0,0.02,-0.02,-0,0,0,0.03,0.04,93,,,,,,,,,,,,,,,,,,,,,,,,,,,,,,,,,,,,,,,,,,,,,,,,,,,,,,,,,,,,,,,,,,,,,,,,,,,,,,,,,,,,,,,,,,,,,,,,,,,,,,,,,,,,,,,,,,,
9159,0,0.1526,,-0.0,0.02,-0.02,-0,0,0,0.03,0.04,94,,,,,,,,,,,,,,,,,,,,,,,,,,,,,,,,,,,,,,,,,,,,,,,,,,,,,,,,,,,,,,,,,,,,,,,,,,,,,,,,,,,,,,,,,,,,,,,,,,,,,,,,,,,,,,,,,,,
9199,0,0.1533,,-0.0,0.02,-0.03,-0,0,0,0.03,0.04,93,0,0,0,0,0,0,0,1,0,0,0,0,1,9,2,1,12,382,0,-26,0,0,138,2,2,0,38,0,0,0,2,1,1,0,52,52,52,0,0,0,0,0,0,0,1,0,0,0,51,50,48,0,0,0,0,0,0,0,0,0,0,0,0,0,0,1,1,0,0,51,51,50,0,0,0,0,0,0,0,0,0,0,0,0,0,0,0,0,0,0,0,0,0,0,0,0,0,0,0,0,0.0,0.0,0.0,0.0,0,0,0.0,0,0.0,-1,0.0,0.0,0,0.0,0.1533
9239,0,0.154,,-0.0,0.02,-0.02,-0,0,0,0.03,0.04,93,,,,,,,,,,,,,,,,,,,,,,,,,,,,,,,,,,,,,,,,,,,,,,,,,,,,,,,,,,,,,,,,,,,,,,,,,,,,,,,,,,,,,,,,,,,,,,,,,,,,,,,,,,,,,,,,,,,
9279,0,0.1546,,-0.0,0.02,-0.02,-0,0,0,0.03,0.04,93,,,,,,,,,,,,,,,,,,,,,,,,,,,,,,,,,,,,,,,,,,,,,,,,,,,,,,,,,,,,,,,,,,,,,,,,,,,,,,,,,,,,,,,,,,,,,,,,,,,,,,,,,,,,,,,,,,,
9299,0,0.155,,,,,,,,,,,0,0,0,0,0,0,0,1,0,0,0,0,1,9,2,1,12,391,0,-26,0,0,138,2,2,0,37,0,0,0,2,1,1,0,52,52,52,0,0,0,0,0,0,0,15,4,4,1,389,389,389,0,0,0,0,0,0,0,0,0,0,0,0,0,0,1,1,0,0,51,51,50,0,0,0,0,0,0,0,0,0,0,0,0,0,0,0,0,0,0,0,0,0,0,0,0,0,0,0,0,0.0,0.0,0.0,0.0,0,0,0.0,0,0.0,-1,0.0,,0,0.0,0.155
9319,0,0.1553,,-0.0,0.02,-0.02,-0,0,0,0.03,0.04,92,,,,,,,,,,,,,,,,,,,,,,,,,,,,,,,,,,,,,,,,,,,,,,,,,,,,,,,,,,,,,,,,,,,,,,,,,,,,,,,,,,,,,,,,,,,,,,,,,,,,,,,,,,,,,,,,,,,
9359,0,0.156,,-0.0,0.02,-0.02,-0,0,0,0.03,0.04,91,,,,,,,,,,,,,,,,,,,,,,,,,,,,,,,,,,,,,,,,,,,,,,,,,,,,,,,,,,,,,,,,,,,,,,,,,,,,,,,,,,,,,,,,,,,,,,,,,,,,,,,,,,,,,,,,,,,
9399,0,0.1567,12.02,-0.0,0.02,-0.02,-0,0,-0,0.03,0.04,90,0,0,0,0,0,0,0,1,0,0,0,0,1,9,2,1,12,398,0,-26,0,0,138,2,2,0,40,0,0,0,2,1,1,0,52,52,52,0,0,0,0,0,0,0,15,4,4,1,389,389,389,0,0,0,0,0,0,0,0,0,0,0,0,0,0,1,1,0,0,51,51,50,0,0,0,0,0,0,0,0,0,0,0,0,0,0,0,0,0,0,0,0,0,0,0,0,0,0,0,0,0.0,0.0,0.0,0.0,0,0,0.0,0,0.0,-1,0.0,0.0,0,0.0,0.1567
9439,0,0.1573,,-0.0,0.02,-0.02,-0,0,0,0.03,0.04,91,,,,,,,,,,,,,,,,,,,,,,,,,,,,,,,,,,,,,,,,,,,,,,,,,,,,,,,,,,,,,,,,,,,,,,,,,,,,,,,,,,,,,,,,,,,,,,,,,,,,,,,,,,,,,,,,,,,
9479,0,0.158,,-0.0,0.02,-0.02,-0,0,0,0.03,0.04,91,,,,,,,,,,,,,,,,,,,,,,,,,,,,,,,,,,,,,,,,,,,,,,,,,,,,,,,,,,,,,,,,,,,,,,,,,,,,,,,,,,,,,,,,,,,,,,,,,,,,,,,,,,,,,,,,,,,
9499,0,0.1583,,,,,,,,,,,0,0,0,0,0,0,0,1,0,1,0,0,0,9,3,0,12,435,0,-26,0,0,138,2,2,0,40,0,0,0,2,1,1,0,52,52,52,0,0,0,0,0,0,0,15,4,4,1,389,389,389,0,0,0,0,0,0,0,0,0,0,0,0,0,0,1,1,0,0,51,51,50,0,0,0,0,0,0,0,0,0,0,0,0,0,0,0,0,0,0,0,0,0,0,0,0,0,0,0,0,0.0,0.0,0.0,0.0,0,0,0.0,0,0.0,-1,0.0,,0,0.0,0.1583
9519,0,0.1586,,-0.0,0.02,-0.02,-0,0,0,0.03,0.04,91,,,,,,,,,,,,,,,,,,,,,,,,,,,,,,,,,,,,,,,,,,,,,,,,,,,,,,,,,,,,,,,,,,,,,,,,,,,,,,,,,,,,,,,,,,,,,,,,,,,,,,,,,,,,,,,,,,,
9559,0,0.1593,,-0.0,0.02,-0.02,-0,0,0,0.03,0.04,93,,,,,,,,,,,,,,,,,,,,,,,,,,,,,,,,,,,,,,,,,,,,,,,,,,,,,,,,,,,,,,,,,,,,,,,,,,,,,,,,,,,,,,,,,,,,,,,,,,,,,,,,,,,,,,,,,,,
9599,0,0.16,,-0.0,0.02,-0.02,-0,0,0,0.03,0.04,93,0,0,0,0,0,0,0,1,0,1,0,0,0,9,4,0,12,435,0,-26,0,0,138,3,3,0,40,0,0,0,2,1,1,0,52,52,52,0,0,0,0,0,0,0,15,4,4,1,389,389,389,0,0,0,0,0,0,0,0,0,0,0,0,0,0,1,1,0,0,51,51,50,0,0,0,0,0,0,0,0,0,0,0,0,0,0,0,0,0,0,0,0,0,0,0,0,0,0,0,0,0.0,0.0,0.0,0.0,0,0,0.0,0,0.0,-1,0.0,0.0,0,0.0,0.16
9639,0,0.1606,,-0.0,0.02,-0.02,-0,0,0,0.03,0.04,92,,,,,,,,,,,,,,,,,,,,,,,,,,,,,,,,,,,,,,,,,,,,,,,,,,,,,,,,,,,,,,,,,,,,,,,,,,,,,,,,,,,,,,,,,,,,,,,,,,,,,,,,,,,,,,,,,,,
9679,0,0.1613,,-0.0,0.02,-0.02,-0,0,0,0.03,0.04,93,,,,,,,,,,,,,,,,,,,,,,,,,,,,,,,,,,,,,,,,,,,,,,,,,,,,,,,,,,,,,,,,,,,,,,,,,,,,,,,,,,,,,,,,,,,,,,,,,,,,,,,,,,,,,,,,,,,
9699,0,0.1616,,,,,,,,,,,0,0,0,0,0,0,0,1,0,1,0,0,0,9,4,0,12,435,0,-26,0,0,138,3,3,0,38,0,0,0,2,1,1,0,52,52,52,0,0,0,0,0,0,0,15,4,4,1,389,389,389,0,0,0,0,0,0,0,0,0,0,0,0,0,0,1,1,0,0,51,51,50,0,0,0,0,0,0,0,0,0,0,0,0,0,0,0,0,0,0,0,0,0,0,0,0,0,0,0,0,0.0,0.0,0.0,0.0,0,0,0.0,0,0.0,-1,0.0,,0,0.0,0.1616
9719,0,0.162,,-0.01,0.02,-0.02,-0,0,0,0.03,0.04,94,,,,,,,,,,,,,,,,,,,,,,,,,,,,,,,,,,,,,,,,,,,,,,,,,,,,,,,,,,,,,,,,,,,,,,,,,,,,,,,,,,,,,,,,,,,,,,,,,,,,,,,,,,,,,,,,,,,
9759,0,0.1626,,-0.01,0.02,-0.02,-0,0,0,0.03,0.04,94,,,,,,,,,,,,,,,,,,,,,,,,,,,,,,,,,,,,,,,,,,,,,,,,,,,,,,,,,,,,,,,,,,,,,,,,,,,,,,,,,,,,,,,,,,,,,,,,,,,,,,,,,,,,,,,,,,,
9799,0,0.1633,,-0.01,0.02,-0.02,-0,0,0,0.03,0.04,93,0,0,0,0,0,0,0,1,0,1,0,0,0,9,4,0,12,435,0,-26,0,0,138,3,3,0,41,0,0,0,2,1,1,0,52,52,52,0,0,0,0,0,0,0,15,4,4,1,389,389,389,0,0,0,0,0,0,0,0,0,0,0,0,0,0,1,1,0,0,51,51,50,0,0,0,0,0,0,0,0,0,0,0,0,0,0,0,0,0,0,0,0,0,0,0,0,0,0,0,0,0.0,0.0,0.0,0.0,0,0,0.0,0,0.0,-1,0.0,0.0,0,0.0,0.1633
9839,0,0.164,,-0.01,0.02,-0.02,-0,0,0,0.03,0.04,92,,,,,,,,,,,,,,,,,,,,,,,,,,,,,,,,,,,,,,,,,,,,,,,,,,,,,,,,,,,,,,,,,,,,,,,,,,,,,,,,,,,,,,,,,,,,,,,,,,,,,,,,,,,,,,,,,,,
9879,0,0.1646,,-0.0,0.02,-0.02,-0,0,0,0.03,0.04,93,,,,,,,,,,,,,,,,,,,,,,,,,,,,,,,,,,,,,,,,,,,,,,,,,,,,,,,,,,,,,,,,,,,,,,,,,,,,,,,,,,,,,,,,,,,,,,,,,,,,,,,,,,,,,,,,,,,
9899,0,0.165,,,,,,,,,,,0,0,0,0,0,0,0,1,0,1,0,0,0,9,4,0,12,435,0,-26,0,0,138,3,3,0,44,0,0,0,2,1,1,0,52,52,52,0,0,0,0,0,0,0,15,4,4,1,389,389,389,0,0,0,0,0,0,0,0,0,0,0,0,0,0,1,1,0,0,51,51,50,0,0,0,0,0,0,0,0,0,0,0,0,0,0,0,0,0,0,0,0,0,0,0,0,0,0,0,0,0.0,0.0,0.0,0.0,0,0,0.0,0,0.0,-1,0.0,,0,0.0,0.165
9919,0,0.1653,,-0.0,0.02,-0.02,-0,0,0,0.03,0.04,93,,,,,,,,,,,,,,,,,,,,,,,,,,,,,,,,,,,,,,,,,,,,,,,,,,,,,,,,,,,,,,,,,,,,,,,,,,,,,,,,,,,,,,,,,,,,,,,,,,,,,,,,,,,,,,,,,,,
9959,0,0.166,,-0.0,0.02,-0.02,-0,0,0,0.03,0.04,95,,,,,,,,,,,,,,,,,,,,,,,,,,,,,,,,,,,,,,,,,,,,,,,,,,,,,,,,,,,,,,,,,,,,,,,,,,,,,,,,,,,,,,,,,,,,,,,,,,,,,,,,,,,,,,,,,,,
9999,0,0.1666,,-0.0,0.02,-0.02,-0,0,0,0.03,0.04,95,0,0,0,0,0,0,0,1,0,1,0,0,0,9,4,0,12,435,0,-26,0,0,138,4,4,0,43,0,0,0,2,1,1,0,52,52,52,0,0,0,0,0,0,0,15,4,4,1,389,389,389,0,0,0,0,0,0,0,0,0,0,0,0,0,0,1,1,0,0,51,51,50,0,0,0,0,0,0,0,0,0,0,0,0,0,0,0,0,0,0,0,0,0,0,0,0,0,0,0,0,0.0,0.0,0.0,0.0,0,0,0.0,0,0.0,-1,0.0,0.0,0,0.0,0.1666
10039,0,0.1673,,-0.0,0.02,-0.02,-0,0,0,0.03,0.04,93,,,,,,,,,,,,,,,,,,,,,,,,,,,,,,,,,,,,,,,,,,,,,,,,,,,,,,,,,,,,,,,,,,,,,,,,,,,,,,,,,,,,,,,,,,,,,,,,,,,,,,,,,,,,,,,,,,,
10079,0,0.168,,-0.0,0.02,-0.02,-0,0,0,0.03,0.04,93,,,,,,,,,,,,,,,,,,,,,,,,,,,,,,,,,,,,,,,,,,,,,,,,,,,,,,,,,,,,,,,,,,,,,,,,,,,,,,,,,,,,,,,,,,,,,,,,,,,,,,,,,,,,,,,,,,,
10099,0,0.1683,,,,,,,,,,,0,0,0,0,0,0,0,1,0,1,0,0,0,9,4,0,12,435,0,-26,0,0,138,4,4,0,37,0,0,0,2,1,1,0,52,52,52,0,0,0,0,0,0,0,15,4,4,1,389,389,389,0,0,0,0,0,0,0,0,0,0,0,0,0,0,1,1,0,0,51,51,50,0,0,0,0,0,0,0,0,0,0,0,0,0,0,0,0,0,0,0,0,0,0,0,0,0,0,0,0,0.0,0.0,0.0,0.0,0,0,0.0,0,0.0,-1,0.0,,0,0.0,0.1683
10119,0,0.1686,,-0.0,0.02,-0.02,-0,0,0,0.03,0.04,94,,,,,,,,,,,,,,,,,,,,,,,,,,,,,,,,,,,,,,,,,,,,,,,,,,,,,,,,,,,,,,,,,,,,,,,,,,,,,,,,,,,,,,,,,,,,,,,,,,,,,,,,,,,,,,,,,,,
10159,0,0.1693,,-0.0,0.02,-0.02,-0,0,0,0.03,0.04,94,,,,,,,,,,,,,,,,,,,,,,,,,,,,,,,,,,,,,,,,,,,,,,,,,,,,,,,,,,,,,,,,,,,,,,,,,,,,,,,,,,,,,,,,,,,,,,,,,,,,,,,,,,,,,,,,,,,
10199,0,0.17,,-0.0,0.02,-0.03,-0,0,0,0.04,0.04,95,0,0,0,0,0,0,0,1,0,1,0,0,0,9,4,0,12,435,0,-26,0,0,138,4,4,0,43,0,0,0,2,1,1,0,52,52,52,0,0,0,0,0,0,0,1,0,0,0,50,48,50,0,0,0,0,0,0,0,0,0,0,0,0,0,0,1,1,0,0,51,51,50,0,0,0,0,0,0,0,0,0,0,0,0,0,0,0,0,0,0,0,0,0,0,0,0,0,0,0,0,0.0,0.0,0.0,0.0,0,0,0.0,0,0.0,-1,0.0,0.0,0,0.0,0.17
10239,0,0.1706,,-0.0,0.02,-0.03,-0,0,0,0.03,0.04,95,,,,,,,,,,,,,,,,,,,,,,,,,,,,,,,,,,,,,,,,,,,,,,,,,,,,,,,,,,,,,,,,,,,,,,,,,,,,,,,,,,,,,,,,,,,,,,,,,,,,,,,,,,,,,,,,,,,
10279,0,0.1713,,-0.0,0.02,-0.03,-0,0,-0,0.04,0.04,95,,,,,,,,,,,,,,,,,,,,,,,,,,,,,,,,,,,,,,,,,,,,,,,,,,,,,,,,,,,,,,,,,,,,,,,,,,,,,,,,,,,,,,,,,,,,,,,,,,,,,,,,,,,,,,,,,,,
10299,0,0.1717,,,,,,,,,,,0,0,0,0,0,0,0,1,0,1,0,0,0,9,4,0,12,435,0,-26,0,0,138,4,4,0,41,0,0,0,2,1,1,0,52,52,52,0,0,0,0,0,0,0,1,0,0,0,50,48,50,0,0,0,0,0,0,0,0,0,0,0,0,0,0,1,1,0,0,51,51,50,0,0,0,0,0,0,0,0,0,0,0,0,0,0,0,0,0,0,0,0,0,0,0,0,0,0,0,0,0.0,0.0,0.0,0.0,0,0,0.0,0,0.0,-1,0.0,,0,0.0,0.1717
10319,0,0.172,,-0.0,0.02,-0.03,-0,0,-0,0.04,0.04,95,,,,,,,,,,,,,,,,,,,,,,,,,,,,,,,,,,,,,,,,,,,,,,,,,,,,,,,,,,,,,,,,,,,,,,,,,,,,,,,,,,,,,,,,,,,,,,,,,,,,,,,,,,,,,,,,,,,
10359,0,0.1726,,-0.0,0.02,-0.03,-0,0,0,0.03,0.04,94,,,,,,,,,,,,,,,,,,,,,,,,,,,,,,,,,,,,,,,,,,,,,,,,,,,,,,,,,,,,,,,,,,,,,,,,,,,,,,,,,,,,,,,,,,,,,,,,,,,,,,,,,,,,,,,,,,,
10399,0,0.1733,12.03,-0.0,0.02,-0.02,-0,0,-0,0.03,0.04,92,0,0,0,0,0,0,0,1,0,1,0,0,0,9,4,0,12,435,0,-26,0,0,138,4,4,0,40,0,0,0,2,1,1,0,52,52,52,0,0,0,0,0,0,0,1,0,0,0,50,48,50,0,0,0,0,0,0,0,0,0,0,0,0,0,0,1,1,0,0,51,51,50,0,0,0,0,0,0,0,0,0,0,0,0,0,0,0,0,0,0,0,0,0,0,0,0,0,0,0,0,0.0,0.0,0.0,0.0,0,0,0.0,0,0.0,-1,0.0,0.0,0,0.0,0.1733
10439,0,0.174,,-0.0,0.02,-0.02,-0,0,0,0.03,0.04,93,,,,,,,,,,,,,,,,,,,,,,,,,,,,,,,,,,,,,,,,,,,,,,,,,,,,,,,,,,,,,,,,,,,,,,,,,,,,,,,,,,,,,,,,,,,,,,,,,,,,,,,,,,,,,,,,,,,
