"Interval"|"ms"|0|0|1,"Utc"|"ms"|0|0|1,"ElapsedTime"|"Min"|0.0|0.0|10,"Battery"|"Volts"|0.0|20.0|1,"AccelX"|"G"|-3.0|3.0|25,"AccelY"|"G"|-3.0|3.0|25,"AccelZ"|"G"|-3.0|3.0|25,"Yaw"|"Deg/Sec"|-120|120|25,"Pitch"|"Deg/Sec"|-120|120|25,"Roll"|"Deg/Sec"|-120|120|25,"Gsum"|"G"|0.0|3.0|25,"GsumMax"|"G"|0.0|3.0|25,"GsumPct"|"%"|0|100|25,"INV_Command"|""|-3277|3277|10,"VCU_INV_Inv"|""|0|1|10,"VCU_INV_Tor"|""|-3277|3277|10,"INV_Run_Fau"|""|0|65535|10,"INV_Post_Fa"|""|0|65535|10,"INV_Run_Fau"|""|0|65535|10,"INV_Post_Fa"|""|0|65535|10,"INV_Directi"|""|0|1|10,"INV_Inverte"|""|0|1|10,"INV_Relay_2"|""|0|1|10,"INV_Inverte"|""|0|1|10,"INV_Inverte"|""|0|1|10,"INV_Relay_1"|""|0|1|10,"INV_Inverte"|""|0|255|10,"INV_VSM_Sta"|""|0|15|10,"INV_Inverte"|""|0|1|10,"INV_PWM_Fre"|""|0|255|10,"INV_DC_Bus_"|""|-3277|3277|10,"INV_DC_Bus_"|""|-3277|3277|10,"INV_Delta_R"|""|-3277|3277|10,"INV_Motor_S"|""|-32768|32767|10,"INV_Torque_"|""|-3277|3277|10,"INV_Motor_T"|""|-3277|3277|10,"INV_Hot_Spo"|""|-3277|3277|10,"INV_Coolant"|""|-3277|3277|10,"INV_Fast_DC"|""|-3277|3277|10,"APPS1"|""|-32768|32767|10,"APPS2"|""|-32768|32767|10,"c_apps"|""|-32768|32767|10,"Faultcode"|""|0|4|10,"Multiplexor"|""|0|0|10,"BMS_1_1_Vol"|""|0|10|10,"BMS_1_1_Vol"|""|0|10|10,"BMS_1_1_Vol"|""|0|10|10,"BMS_1_1_Tem"|""|0|200|10,"BMS_1_1_Tem"|""|0|200|10,"BMS_1_1_Tem"|""|0|200|10,"Multiplexor"|""|0|0|10,"BMS_1_2_Vol"|""|0|10|10,"BMS_1_2_Vol"|""|0|10|10,"BMS_1_2_Vol"|""|0|10|10,"BMS_1_2_Tem"|""|0|200|10,"BMS_1_2_Tem"|""|0|200|10,"BMS_1_2_Tem"|""|0|200|10,"Multiplexor"|""|0|0|10,"BMS_2_1_Vol"|""|0|10|10,"BMS_2_1_Vol"|""|0|10|10,"BMS_2_1_Vol"|""|0|10|10,"BMS_2_1_Tem"|""|0|200|10,"BMS_2_1_Tem"|""|0|200|10,"BMS_2_1_Tem"|""|0|200|10,"Multiplexor"|""|0|0|10,"BMS_2_2_Vol"|""|0|10|10,"BMS_2_2_Vol"|""|0|10|10,"BMS_2_2_Vol"|""|0|10|10,"BMS_2_2_Tem"|""|0|200|10,"BMS_2_2_Tem"|""|0|200|10,"BMS_2_2_Tem"|""|0|200|10,"Multiplexor"|""|0|0|10,"BMS_3_1_Vol"|""|0|10|10,"BMS_3_1_Vol"|""|0|10|10,"BMS_3_1_Vol"|""|0|10|10,"BMS_3_1_Tem"|""|0|200|10,"BMS_3_1_Tem"|""|0|200|10,"BMS_3_1_Tem"|""|0|200|10,"Multiplexor"|""|0|0|10,"BMS_3_2_Vol"|""|0|10|10,"BMS_3_2_Vol"|""|0|10|10,"BMS_3_2_Vol"|""|0|10|10,"BMS_3_2_Tem"|""|0|200|10,"BMS_3_2_Tem"|""|0|200|10,"BMS_3_2_Tem"|""|0|200|10,"Multiplexor"|""|0|0|10,"BMS_4_1_Vol"|""|0|10|10,"BMS_4_1_Vol"|""|0|10|10,"BMS_4_1_Vol"|""|0|10|10,"BMS_4_1_Tem"|""|0|200|10,"BMS_4_1_Tem"|""|0|200|10,"BMS_4_1_Tem"|""|0|200|10,"Multiplexor"|""|0|0|10,"BMS_4_2_Vol"|""|0|10|10,"BMS_4_2_Vol"|""|0|10|10,"BMS_4_2_Vol"|""|0|10|10,"BMS_4_2_Tem"|""|0|200|10,"BMS_4_2_Tem"|""|0|200|10,"BMS_4_2_Tem"|""|0|200|10,"HS_MaxVolta"|""|0|655|10,"HS_MinVolta"|""|0|655|10,"HS_AverageV"|""|0|655|10,"HS_MaxTemp"|""|0|6553|10,"HS_MinTemp"|""|0|6553|10,"HS_AverageT"|""|0|6553|10,"HS_MaxTemp"|""|0|6553|10,"HS_MinTemp"|""|0|6553|10,"HS_AverageT"|""|0|6553|10,"HS_MaxTemp"|""|0|6553|10,"HS_MinTemp"|""|0|6553|10,"HS_AverageT"|""|0|6553|10,"HS_MaxTemp"|""|0|6553|10,"HS_MinTemp"|""|0|6553|10,"Latitude"|"Degrees"|-180.0|180.0|10,"Longitude"|"Degrees"|-180.0|180.0|10,"Speed"|"mph"|0.0|150.0|10,"Altitude"|"ft"|0.0|4000.0|10,"GPSSats"|""|0|20|10,"GPSQual"|""|0|5|10,"GPSDOP"|""|0.0|20.0|10,"LapCount"|""|0|0|10,"LapTime"|"Min"|0.0|0.0|10,"Sector"|""|0|0|10,"SectorTime"|"Min"|0.0|0.0|10,"PredTime"|"Min"|0.0|0.0|5,"CurrentLap"|""|0|0|10,"Distance"|"mi"|0.0|0.0|10,"SessionTime"|"Min"|0.0|0.0|10
1674,0,0.0279,,-0.01,0.02,-0.04,0,1,0,0.05,0.06,80,,,,,,,,,,,,,,,,,,,,,,,,,,,,,,,,,,,,,,,,,,,,,,,,,,,,,,,,,,,,,,,,,,,,,,,,,,,,,,,,,,,,,,,,,,,,,,,,,,,,,,,,,,,,,,,,,,,
1714,0,0.0286,,-0.01,0.02,-0.04,0,1,0,0.05,0.06,80,,,,,,,,,,,,,,,,,,,,,,,,,,,,,,,,,,,,,,,,,,,,,,,,,,,,,,,,,,,,,,,,,,,,,,,,,,,,,,,,,,,,,,,,,,,,,,,,,,,,,,,,,,,,,,,,,,,
1734,0,0.0289,,,,,,,,,,,0,0,0,0,0,0,0,1,0,0,0,0,1,9,2,1,12,0,0,151,0,0,138,3,3,0,0,17,0,0,0,0,0,0,0,0,0,0,0,0,0,0,0,0,0,4,4,4,0,390,389,0,0,0,0,0,0,0,0,0,0,0,0,0,0,0,4,4,4,1,396,392,0,0,0,0,0,0,0,0,0,0,0,0,0,0,0,0,0,0,0,0,0,0,0,0,0,0,0,0,0.0,0.0,0.0,0.0,0,0,0.0,0,0.0,-1,0.0,,0,0.0,0.0289
1754,0,0.0292,,-0.01,0.02,-0.04,0,1,0,0.05,0.06,80,,,,,,,,,,,,,,,,,,,,,,,,,,,,,,,,,,,,,,,,,,,,,,,,,,,,,,,,,,,,,,,,,,,,,,,,,,,,,,,,,,,,,,,,,,,,,,,,,,,,,,,,,,,,,,,,,,,
1794,0,0.0299,,-0.01,0.02,-0.04,0,1,0,0.05,0.06,80,,,,,,,,,,,,,,,,,,,,,,,,,,,,,,,,,,,,,,,,,,,,,,,,,,,,,,,,,,,,,,,,,,,,,,,,,,,,,,,,,,,,,,,,,,,,,,,,,,,,,,,,,,,,,,,,,,,
1834,0,0.0306,,-0.01,0.02,-0.04,0,1,0,0.05,0.06,79,0,0,0,0,0,0,0,1,0,0,0,0,1,9,2,1,12,0,0,151,0,0,138,4,4,0,0,17,0,0,0,0,0,0,0,0,0,0,0,0,0,0,0,0,0,4,4,4,0,390,389,0,0,0,0,0,0,0,0,0,0,0,0,0,0,0,4,4,4,1,396,392,0,0,0,0,0,0,0,0,0,0,0,0,0,0,0,0,0,0,0,0,0,0,0,0,0,0,0,0,0.0,0.0,0.0,0.0,0,0,0.0,0,0.0,-1,0.0,0.0,0,0.0,0.0306
1874,0,0.0312,,-0.01,0.02,-0.04,0,1,0,0.05,0.06,80,,,,,,,,,,,,,,,,,,,,,,,,,,,,,,,,,,,,,,,,,,,,,,,,,,,,,,,,,,,,,,,,,,,,,,,,,,,,,,,,,,,,,,,,,,,,,,,,,,,,,,,,,,,,,,,,,,,
1914,0,0.0319,,-0.01,0.02,-0.04,0,1,0,0.05,0.06,81,,,,,,,,,,,,,,,,,,,,,,,,,,,,,,,,,,,,,,,,,,,,,,,,,,,,,,,,,,,,,,,,,,,,,,,,,,,,,,,,,,,,,,,,,,,,,,,,,,,,,,,,,,,,,,,,,,,
1934,0,0.0322,,,,,,,,,,,0,0,0,0,0,0,0,1,0,0,0,0,1,9,2,1,12,0,0,151,0,0,138,4,4,0,0,16,0,0,0,0,0,0,0,0,0,0,0,0,0,0,0,0,0,4,4,4,0,390,389,0,0,0,0,0,0,0,0,0,0,0,0,0,0,0,4,4,4,1,396,392,0,0,0,0,0,0,0,0,0,0,0,0,0,0,0,0,0,0,0,0,0,0,0,0,0,0,0,0,0.0,0.0,0.0,0.0,0,0,0.0,0,0.0,-1,0.0,,0,0.0,0.0322
1954,0,0.0326,,-0.01,0.02,-0.04,0,1,0,0.05,0.06,83,,,,,,,,,,,,,,,,,,,,,,,,,,,,,,,,,,,,,,,,,,,,,,,,,,,,,,,,,,,,,,,,,,,,,,,,,,,,,,,,,,,,,,,,,,,,,,,,,,,,,,,,,,,,,,,,,,,
1994,0,0.0332,,-0.01,0.02,-0.04,0,1,0,0.05,0.06,82,,,,,,,,,,,,,,,,,,,,,,,,,,,,,,,,,,,,,,,,,,,,,,,,,,,,,,,,,,,,,,,,,,,,,,,,,,,,,,,,,,,,,,,,,,,,,,,,,,,,,,,,,,,,,,,,,,,
2034,0,0.0339,,-0.01,0.02,-0.04,0,1,0,0.05,0.06,81,0,0,0,0,0,0,0,1,0,0,0,0,1,9,2,1,12,0,0,151,0,0,138,4,4,0,0,13,0,0,0,0,0,0,0,0,0,0,0,0,0,0,0,0,0,4,4,4,0,390,389,0,0,0,0,0,0,0,0,0,0,0,0,0,0,0,4,4,4,1,396,392,0,0,0,0,0,0,0,0,0,0,0,0,0,0,0,0,0,0,0,0,0,0,0,0,0,0,0,0,0.0,0.0,0.0,0.0,0,0,0.0,0,0.0,-1,0.0,0.0,0,0.0,0.0339
2074,0,0.0346,,-0.01,0.02,-0.04,0,1,0,0.05,0.06,81,,,,,,,,,,,,,,,,,,,,,,,,,,,,,,,,,,,,,,,,,,,,,,,,,,,,,,,,,,,,,,,,,,,,,,,,,,,,,,,,,,,,,,,,,,,,,,,,,,,,,,,,,,,,,,,,,,,
2114,0,0.0352,,-0.01,0.02,-0.04,0,1,0,0.05,0.06,81,,,,,,,,,,,,,,,,,,,,,,,,,,,,,,,,,,,,,,,,,,,,,,,,,,,,,,,,,,,,,,,,,,,,,,,,,,,,,,,,,,,,,,,,,,,,,,,,,,,,,,,,,,,,,,,,,,,
2134,0,0.0356,,,,,,,,,,,0,0,0,0,0,0,0,1,0,0,0,0,1,9,2,1,12,0,0,151,0,0,138,4,4,0,0,17,0,0,0,0,0,0,0,0,0,0,0,0,0,0,0,0,0,4,4,4,0,390,389,0,0,0,0,0,0,0,0,0,0,0,0,0,0,0,4,4,4,1,396,392,0,0,0,0,0,0,0,0,0,0,0,0,0,0,0,0,0,0,0,0,0,0,0,0,0,0,0,0,0.0,0.0,0.0,0.0,0,0,0.0,0,0.0,-1,0.0,,0,0.0,0.0356
2154,0,0.0359,,-0.01,0.02,-0.04,0,1,0,0.05,0.06,80,,,,,,,,,,,,,,,,,,,,,,,,,,,,,,,,,,,,,,,,,,,,,,,,,,,,,,,,,,,,,,,,,,,,,,,,,,,,,,,,,,,,,,,,,,,,,,,,,,,,,,,,,,,,,,,,,,,
2194,0,0.0366,,-0.01,0.02,-0.04,0,1,0,0.05,0.06,81,,,,,,,,,,,,,,,,,,,,,,,,,,,,,,,,,,,,,,,,,,,,,,,,,,,,,,,,,,,,,,,,,,,,,,,,,,,,,,,,,,,,,,,,,,,,,,,,,,,,,,,,,,,,,,,,,,,
2234,0,0.0372,,-0.01,0.02,-0.04,0,1,0,0.05,0.06,81,0,0,0,0,0,0,0,1,0,0,0,0,1,9,2,1,12,0,0,151,0,0,138,4,4,0,0,17,0,0,0,0,0,0,0,0,0,0,0,0,0,0,0,0,0,4,4,4,0,390,389,0,0,0,0,0,0,0,0,0,0,0,0,0,0,0,4,4,4,1,396,392,0,0,0,0,0,0,0,0,0,0,0,0,0,0,0,0,0,0,0,0,0,0,0,0,0,0,0,0,0.0,0.0,0.0,0.0,0,0,0.0,0,0.0,-1,0.0,0.0,0,0.0,0.0372
2274,0,0.0379,,-0.01,0.02,-0.04,0,1,0,0.05,0.06,81,,,,,,,,,,,,,,,,,,,,,,,,,,,,,,,,,,,,,,,,,,,,,,,,,,,,,,,,,,,,,,,,,,,,,,,,,,,,,,,,,,,,,,,,,,,,,,,,,,,,,,,,,,,,,,,,,,,
2314,0,0.0386,,-0.01,0.02,-0.04,0,1,0,0.05,0.06,82,,,,,,,,,,,,,,,,,,,,,,,,,,,,,,,,,,,,,,,,,,,,,,,,,,,,,,,,,,,,,,,,,,,,,,,,,,,,,,,,,,,,,,,,,,,,,,,,,,,,,,,,,,,,,,,,,,,
2334,0,0.0389,,,,,,,,,,,0,0,0,0,0,0,0,1,0,0,0,0,1,9,2,1,12,0,0,151,0,0,138,4,4,0,0,17,0,0,0,0,0,0,0,0,0,0,0,0,0,0,0,0,0,4,4,4,0,390,389,0,0,0,0,0,0,0,0,0,0,0,0,0,0,0,4,4,4,1,396,392,0,0,0,0,0,0,0,0,0,0,0,0,0,0,0,0,0,0,0,0,0,0,0,0,0,0,0,0,0.0,0.0,0.0,0.0,0,0,0.0,0,0.0,-1,0.0,,0,0.0,0.0389
2354,0,0.0392,,-0.01,0.02,-0.04,0,1,0,0.05,0.06,80,,,,,,,,,,,,,,,,,,,,,,,,,,,,,,,,,,,,,,,,,,,,,,,,,,,,,,,,,,,,,,,,,,,,,,,,,,,,,,,,,,,,,,,,,,,,,,,,,,,,,,,,,,,,,,,,,,,
2394,0,0.0399,,-0.01,0.02,-0.04,0,1,0,0.05,0.06,82,,,,,,,,,,,,,,,,,,,,,,,,,,,,,,,,,,,,,,,,,,,,,,,,,,,,,,,,,,,,,,,,,,,,,,,,,,,,,,,,,,,,,,,,,,,,,,,,,,,,,,,,,,,,,,,,,,,
2434,0,0.0406,12.54,-0.02,0.02,-0.04,0,1,0,0.05,0.06,81,0,0,0,0,0,0,0,1,0,0,0,0,1,9,2,1,12,0,0,151,0,0,138,4,4,0,0,14,0,0,0,0,0,0,0,0,0,0,0,0,0,0,0,0,0,4,4,4,0,390,389,0,0,0,0,0,0,0,0,0,0,0,0,0,0,0,4,4,4,1,396,392,0,0,0,0,0,0,0,0,0,0,0,0,0,0,0,0,0,0,0,0,0,0,0,0,0,0,0,0,0.0,0.0,0.0,0.0,0,0,0.0,0,0.0,-1,0.0,0.0,0,0.0,0.0406
2474,0,0.0412,,-0.01,0.02,-0.04,0,1,0,0.05,0.06,81,,,,,,,,,,,,,,,,,,,,,,,,,,,,,,,,,,,,,,,,,,,,,,,,,,,,,,,,,,,,,,,,,,,,,,,,,,,,,,,,,,,,,,,,,,,,,,,,,,,,,,,,,,,,,,,,,,,
2514,0,0.0419,,-0.01,0.02,-0.04,0,1,0,0.05,0.06,80,,,,,,,,,,,,,,,,,,,,,,,,,,,,,,,,,,,,,,,,,,,,,,,,,,,,,,,,,,,,,,,,,,,,,,,,,,,,,,,,,,,,,,,,,,,,,,,,,,,,,,,,,,,,,,,,,,,
2534,0,0.0422,,,,,,,,,,,0,0,0,0,0,0,0,1,0,0,0,0,1,9,2,1,12,0,0,151,0,0,138,5,5,0,0,14,0,0,0,0,0,0,0,0,0,0,0,0,0,0,0,0,0,4,4,4,0,390,389,0,0,0,0,0,0,0,0,0,0,0,0,0,0,1,1,0,0,51,51,50,0,0,0,0,0,0,0,0,0,0,0,0,0,0,0,0,0,0,0,0,0,0,0,0,0,0,0,0,0.0,0.0,0.0,0.0,0,0,0.0,0,0.0,-1,0.0,,0,0.0,0.0422
2554,0,0.0426,,-0.01,0.02,-0.04,0,1,0,0.05,0.06,80,,,,,,,,,,,,,,,,,,,,,,,,,,,,,,,,,,,,,,,,,,,,,,,,,,,,,,,,,,,,,,,,,,,,,,,,,,,,,,,,,,,,,,,,,,,,,,,,,,,,,,,,,,,,,,,,,,,
2594,0,0.0432,,-0.02,0.02,-0.04,0,1,0,0.05,0.06,81,,,,,,,,,,,,,,,,,,,,,,,,,,,,,,,,,,,,,,,,,,,,,,,,,,,,,,,,,,,,,,,,,,,,,,,,,,,,,,,,,,,,,,,,,,,,,,,,,,,,,,,,,,,,,,,,,,,
2634,0,0.0439,,-0.01,0.02,-0.04,0,1,0,0.05,0.06,80,0,0,0,0,0,0,0,1,0,0,0,0,1,9,2,1,12,0,0,151,0,0,138,5,5,0,0,18,0,0,0,0,0,0,0,0,0,0,0,0,0,0,0,0,0,4,4,4,0,390,389,0,0,0,0,0,0,0,0,0,0,0,0,0,0,1,1,0,0,51,51,50,0,0,0,0,0,0,0,0,0,0,0,0,0,0,0,0,0,0,0,0,0,0,0,0,0,0,0,0,0.0,0.0,0.0,0.0,0,0,0.0,0,0.0,-1,0.0,0.0,0,0.0,0.0439
2674,0,0.0446,,-0.01,0.02,-0.04,0,1,0,0.05,0.06,80,,,,,,,,,,,,,,,,,,,,,,,,,,,,,,,,,,,,,,,,,,,,,,,,,,,,,,,,,,,,,,,,,,,,,,,,,,,,,,,,,,,,,,,,,,,,,,,,,,,,,,,,,,,,,,,,,,,
2714,0,0.0452,,-0.01,0.02,-0.04,0,1,0,0.05,0.06,79,,,,,,,,,,,,,,,,,,,,,,,,,,,,,,,,,,,,,,,,,,,,,,,,,,,,,,,,,,,,,,,,,,,,,,,,,,,,,,,,,,,,,,,,,,,,,,,,,,,,,,,,,,,,,,,,,,,
2734,0,0.0456,,,,,,,,,,,0,0,0,0,0,0,0,1,0,0,0,0,1,9,2,1,12,0,0,151,0,0,138,5,5,0,0,17,0,0,0,0,0,0,0,0,0,0,0,0,0,0,0,0,0,4,4,4,0,390,389,0,0,0,0,0,0,0,0,0,0,0,0,0,0,1,1,0,0,51,51,50,0,0,0,0,0,0,0,0,0,0,0,0,0,0,0,0,0,0,0,0,0,0,0,0,0,0,0,0,0.0,0.0,0.0,0.0,0,0,0.0,0,0.0,-1,0.0,,0,0.0,0.0456
2754,0,0.0459,,-0.01,0.02,-0.04,0,1,0,0.05,0.06,79,,,,,,,,,,,,,,,,,,,,,,,,,,,,,,,,,,,,,,,,,,,,,,,,,,,,,,,,,,,,,,,,,,,,,,,,,,,,,,,,,,,,,,,,,,,,,,,,,,,,,,,,,,,,,,,,,,,
2794,0,0.0466,,-0.02,0.02,-0.04,0,1,0,0.05,0.06,80,,,,,,,,,,,,,,,,,,,,,,,,,,,,,,,,,,,,,,,,,,,,,,,,,,,,,,,,,,,,,,,,,,,,,,,,,,,,,,,,,,,,,,,,,,,,,,,,,,,,,,,,,,,,,,,,,,,
2834,0,0.0472,,-0.02,0.02,-0.04,0,1,0,0.05,0.06,79,0,0,0,0,0,0,0,1,0,0,0,0,1,9,2,1,12,0,0,151,0,0,138,5,5,0,0,13,0,0,0,0,0,0,0,0,0,0,0,0,0,0,0,0,0,4,4,4,0,390,389,0,0,0,0,0,0,0,0,0,0,0,0,0,0,1,1,0,0,51,51,50,0,0,0,0,0,0,0,0,0,0,0,0,0,0,0,0,0,0,0,0,0,0,0,0,0,0,0,0,0.0,0.0,0.0,0.0,0,0,0.0,0,0.0,-1,0.0,0.0,0,0.0,0.0472
2874,0,0.0479,,-0.02,0.02,-0.04,0,1,0,0.05,0.06,80,,,,,,,,,,,,,,,,,,,,,,,,,,,,,,,,,,,,,,,,,,,,,,,,,,,,,,,,,,,,,,,,,,,,,,,,,,,,,,,,,,,,,,,,,,,,,,,,,,,,,,,,,,,,,,,,,,,
2914,0,0.0486,,-0.02,0.02,-0.04,-0,1,0,0.05,0.06,80,,,,,,,,,,,,,,,,,,,,,,,,,,,,,,,,,,,,,,,,,,,,,,,,,,,,,,,,,,,,,,,,,,,,,,,,,,,,,,,,,,,,,,,,,,,,,,,,,,,,,,,,,,,,,,,,,,,
2934,0,0.0489,,,,,,,,,,,0,0,0,0,0,0,0,1,0,0,0,0,1,9,2,1,12,0,0,151,0,0,138,5,5,0,0,18,0,0,0,0,0,0,0,0,0,0,0,0,0,0,0,0,0,4,4,4,0,390,389,0,0,0,0,0,0,0,0,0,0,0,0,0,0,1,1,0,0,51,51,50,0,0,0,0,0,0,0,0,0,0,0,0,0,0,0,0,0,0,0,0,0,0,0,0,0,0,0,0,0.0,0.0,0.0,0.0,0,0,0.0,0,0.0,-1,0.0,,0,0.0,0.0489
2954,0,0.0492,,-0.02,0.02,-0.04,0,1,0,0.05,0.06,80,,,,,,,,,,,,,,,,,,,,,,,,,,,,,,,,,,,,,,,,,,,,,,,,,,,,,,,,,,,,,,,,,,,,,,,,,,,,,,,,,,,,,,,,,,,,,,,,,,,,,,,,,,,,,,,,,,,
2994,0,0.0499,,-0.02,0.02,-0.04,0,1,0,0.05,0.06,80,,,,,,,,,,,,,,,,,,,,,,,,,,,,,,,,,,,,,,,,,,,,,,,,,,,,,,,,,,,,,,,,,,,,,,,,,,,,,,,,,,,,,,,,,,,,,,,,,,,,,,,,,,,,,,,,,,,
3034,0,0.0506,,-0.02,0.02,-0.04,0,1,0,0.05,0.06,80,0,0,0,0,0,0,0,1,0,0,0,0,1,9,2,1,12,0,0,151,0,0,138,6,6,0,0,17,0,0,2,1,1,0,53,52,51,0,0,0,0,0,0,0,0,4,4,4,0,390,389,0,0,0,0,0,0,0,0,0,0,0,0,0,0,1,1,0,0,51,51,50,0,0,0,0,0,0,0,0,0,0,0,0,0,0,0,0,0,0,0,0,0,0,0,0,0,0,0,0,0.0,0.0,0.0,0.0,0,0,0.0,0,0.0,-1,0.0,0.0,0,0.0,0.0506
3074,0,0.0512,,-0.02,0.02,-0.04,0,1,0,0.05,0.06,79,,,,,,,,,,,,,,,,,,,,,,,,,,,,,,,,,,,,,,,,,,,,,,,,,,,,,,,,,,,,,,,,,,,,,,,,,,,,,,,,,,,,,,,,,,,,,,,,,,,,,,,,,,,,,,,,,,,
3114,0,0.0519,,-0.02,0.02,-0.04,0,1,0,0.05,0.06,79,,,,,,,,,,,,,,,,,,,,,,,,,,,,,,,,,,,,,,,,,,,,,,,,,,,,,,,,,,,,,,,,,,,,,,,,,,,,,,,,,,,,,,,,,,,,,,,,,,,,,,,,,,,,,,,,,,,
3134,0,0.0522,,,,,,,,,,,0,0,0,0,0,0,0,1,0,0,0,0,1,9,2,1,12,0,0,151,0,0,138,6,6,0,0,16,0,0,2,1,1,0,53,52,51,0,0,0,0,0,0,0,0,4,4,4,0,390,389,0,0,0,0,0,0,0,0,0,0,0,0,0,0,1,1,0,0,51,51,50,0,0,0,0,0,0,0,0,0,0,0,0,0,0,0,0,0,0,0,0,0,0,0,0,0,0,0,0,0.0,0.0,0.0,0.0,0,0,0.0,0,0.0,-1,0.0,,0,0.0,0.0522
3154,0,0.0526,,-0.02,0.02,-0.04,0,1,0,0.05,0.06,80,,,,,,,,,,,,,,,,,,,,,,,,,,,,,,,,,,,,,,,,,,,,,,,,,,,,,,,,,,,,,,,,,,,,,,,,,,,,,,,,,,,,,,,,,,,,,,,,,,,,,,,,,,,,,,,,,,,
3194,0,0.0532,,-0.02,0.02,-0.04,0,1,0,0.05,0.06,80,,,,,,,,,,,,,,,,,,,,,,,,,,,,,,,,,,,,,,,,,,,,,,,,,,,,,,,,,,,,,,,,,,,,,,,,,,,,,,,,,,,,,,,,,,,,,,,,,,,,,,,,,,,,,,,,,,,
3234,0,0.0539,,-0.02,0.02,-0.04,0,1,0,0.05,0.06,79,0,0,0,0,32,0,0,1,0,0,0,0,0,9,7,1,12,0,0,151,0,0,138,6,6,0,0,16,0,0,2,1,1,0,53,52,51,0,0,0,0,0,0,0,0,4,4,4,0,390,389,0,0,0,0,0,0,0,0,0,0,0,0,0,0,1,1,0,0,51,51,50,0,0,0,0,0,0,0,0,0,0,0,0,0,0,0,0,0,0,0,0,0,0,0,0,0,0,0,0,0.0,0.0,0.0,0.0,0,0,0.0,0,0.0,-1,0.0,0.0,0,0.0,0.0539
3274,0,0.0546,,-0.02,0.02,-0.04,0,1,0,0.05,0.06,79,,,,,,,,,,,,,,,,,,,,,,,,,,,,,,,,,,,,,,,,,,,,,,,,,,,,,,,,,,,,,,,,,,,,,,,,,,,,,,,,,,,,,,,,,,,,,,,,,,,,,,,,,,,,,,,,,,,
3314,0,0.0552,,-0.02,0.02,-0.04,0,1,0,0.05,0.06,80,,,,,,,,,,,,,,,,,,,,,,,,,,,,,,,,,,,,,,,,,,,,,,,,,,,,,,,,,,,,,,,,,,,,,,,,,,,,,,,,,,,,,,,,,,,,,,,,,,,,,,,,,,,,,,,,,,,
3334,0,0.0556,,,,,,,,,,,0,0,0,0,32,0,0,1,0,0,0,0,0,9,7,1,12,0,0,151,0,0,138,6,6,0,0,17,0,0,2,1,1,0,53,52,51,0,0,0,0,0,0,0,0,4,4,4,0,390,389,0,0,0,0,0,0,0,0,0,0,0,0,0,0,1,1,0,0,51,51,50,0,0,0,0,0,0,0,0,0,0,0,0,0,0,0,0,0,0,0,0,0,0,0,0,0,0,0,0,0.0,0.0,0.0,0.0,0,0,0.0,0,0.0,-1,0.0,,0,0.0,0.0556
3354,0,0.0559,,-0.01,0.02,-0.04,0,1,0,0.05,0.06,81,,,,,,,,,,,,,,,,,,,,,,,,,,,,,,,,,,,,,,,,,,,,,,,,,,,,,,,,,,,,,,,,,,,,,,,,,,,,,,,,,,,,,,,,,,,,,,,,,,,,,,,,,,,,,,,,,,,
3394,0,0.0566,,-0.01,0.02,-0.04,0,1,0,0.05,0.06,81,,,,,,,,,,,,,,,,,,,,,,,,,,,,,,,,,,,,,,,,,,,,,,,,,,,,,,,,,,,,,,,,,,,,,,,,,,,,,,,,,,,,,,,,,,,,,,,,,,,,,,,,,,,,,,,,,,,
3434,0,0.0572,12.49,-0.01,0.02,-0.04,0,1,0,0.05,0.06,80,0,0,0,0,32,0,0,1,0,0,0,0,0,9,7,1,12,0,0,151,0,0,138,6,6,0,0,16,0,0,2,1,1,0,53,52,51,0,0,0,0,0,0,0,0,4,4,4,0,390,389,0,0,0,0,0,0,0,0,0,0,0,0,0,0,1,1,0,0,51,51,50,0,0,0,0,0,0,0,0,0,0,0,0,0,0,0,0,0,0,0,0,0,0,0,0,0,0,0,0,0.0,0.0,0.0,0.0,0,0,0.0,0,0.0,-1,0.0,0.0,0,0.0,0.0572
3474,0,0.0579,,-0.01,0.02,-0.04,0,1,0,0.05,0.06,79,,,,,,,,,,,,,,,,,,,,,,,,,,,,,,,,,,,,,,,,,,,,,,,,,,,,,,,,,,,,,,,,,,,,,,,,,,,,,,,,,,,,,,,,,,,,,,,,,,,,,,,,,,,,,,,,,,,
3514,0,0.0586,,-0.01,0.02,-0.04,0,1,0,0.05,0.06,79,,,,,,,,,,,,,,,,,,,,,,,,,,,,,,,,,,,,,,,,,,,,,,,,,,,,,,,,,,,,,,,,,,,,,,,,,,,,,,,,,,,,,,,,,,,,,,,,,,,,,,,,,,,,,,,,,,,
3534,0,0.0589,,,,,,,,,,,0,0,0,0,32,0,0,1,0,0,0,0,0,9,7,1,12,0,0,151,0,0,138,6,6,0,0,14,0,0,2,1,1,0,53,52,51,0,0,0,0,0,0,0,0,4,4,4,0,390,389,0,0,0,0,0,0,0,0,0,0,0,0,0,0,1,1,0,0,51,51,50,0,0,0,0,0,0,0,0,0,0,0,0,0,0,0,0,0,0,0,0,0,0,0,0,0,0,0,0,0.0,0.0,0.0,0.0,0,0,0.0,0,0.0,-1,0.0,,0,0.0,0.0589
3554,0,0.0592,,-0.01,0.02,-0.04,-0,1,0,0.05,0.06,80,,,,,,,,,,,,,,,,,,,,,,,,,,,,,,,,,,,,,,,,,,,,,,,,,,,,,,,,,,,,,,,,,,,,,,,,,,,,,,,,,,,,,,,,,,,,,,,,,,,,,,,,,,,,,,,,,,,
3594,0,0.0599,,-0.01,0.02,-0.04,0,1,0,0.05,0.06,80,,,,,,,,,,,,,,,,,,,,,,,,,,,,,,,,,,,,,,,,,,,,,,,,,,,,,,,,,,,,,,,,,,,,,,,,,,,,,,,,,,,,,,,,,,,,,,,,,,,,,,,,,,,,,,,,,,,
3634,0,0.0606,,-0.01,0.02,-0.04,0,1,0,0.05,0.06,80,0,0,0,0,32,0,0,1,0,0,0,0,0,9,7,1,12,0,0,151,0,0,138,7,7,0,0,16,0,0,2,1,1,0,53,52,51,0,0,0,0,0,0,0,0,4,4,4,0,390,389,0,0,0,0,0,0,0,0,0,0,0,0,0,0,1,1,0,0,51,51,50,0,0,0,0,0,0,0,0,0,0,0,0,0,0,0,0,0,0,0,0,0,0,0,0,0,0,0,0,0.0,0.0,0.0,0.0,0,0,0.0,0,0.0,-1,0.0,0.0,0,0.0,0.0606
3674,0,0.0612,,-0.01,0.02,-0.04,0,1,0,0.05,0.06,80,,,,,,,,,,,,,,,,,,,,,,,,,,,,,,,,,,,,,,,,,,,,,,,,,,,,,,,,,,,,,,,,,,,,,,,,,,,,,,,,,,,,,,,,,,,,,,,,,,,,,,,,,,,,,,,,,,,
3714,0,0.0619,,-0.01,0.02,-0.04,0,1,0,0.05,0.06,80,,,,,,,,,,,,,,,,,,,,,,,,,,,,,,,,,,,,,,,,,,,,,,,,,,,,,,,,,,,,,,,,,,,,,,,,,,,,,,,,,,,,,,,,,,,,,,,,,,,,,,,,,,,,,,,,,,,
3734,0,0.0622,,,,,,,,,,,0,0,0,0,32,0,0,1,0,0,0,0,0,9,7,1,12,0,0,151,0,0,138,7,7,0,0,16,0,0,2,1,1,0,53,52,51,0,0,0,0,0,0,0,0,4,4,4,0,390,389,0,0,0,0,0,0,0,0,0,0,0,0,0,0,1,1,0,0,51,51,50,0,0,0,0,0,0,0,0,0,0,0,0,0,0,0,0,0,0,0,0,0,0,0,0,0,0,0,0,0.0,0.0,0.0,0.0,0,0,0.0,0,0.0,-1,0.0,,0,0.0,0.0622
3754,0,0.0626,,-0.01,0.02,-0.04,0,1,0,0.05,0.06,80,,,,,,,,,,,,,,,,,,,,,,,,,,,,,,,,,,,,,,,,,,,,,,,,,,,,,,,,,,,,,,,,,,,,,,,,,,,,,,,,,,,,,,,,,,,,,,,,,,,,,,,,,,,,,,,,,,,
3794,0,0.0632,,-0.01,0.02,-0.04,0,1,0,0.05,0.06,79,,,,,,,,,,,,,,,,,,,,,,,,,,,,,,,,,,,,,,,,,,,,,,,,,,,,,,,,,,,,,,,,,,,,,,,,,,,,,,,,,,,,,,,,,,,,,,,,,,,,,,,,,,,,,,,,,,,
3834,0,0.0639,,-0.01,0.02,-0.04,0,1,0,0.05,0.06,80,0,0,0,0,32,0,0,1,0,0,0,0,0,9,7,1,12,0,0,151,0,0,138,7,7,0,0,17,0,0,2,1,1,0,53,52,51,0,0,0,0,0,0,0,0,4,4,4,0,390,389,0,0,0,0,0,0,0,0,0,0,0,0,0,0,1,1,0,0,51,51,50,0,0,0,0,0,0,0,0,0,0,0,0,0,0,0,0,0,0,0,0,0,0,0,0,0,0,0,0,0.0,0.0,0.0,0.0,0,0,0.0,0,0.0,-1,0.0,0.0,0,0.0,0.0639
3874,0,0.0646,,-0.01,0.02,-0.04,0,1,0,0.05,0.06,80,,,,,,,,,,,,,,,,,,,,,,,,,,,,,,,,,,,,,,,,,,,,,,,,,,,,,,,,,,,,,,,,,,,,,,,,,,,,,,,,,,,,,,,,,,,,,,,,,,,,,,,,,,,,,,,,,,,
3914,0,0.0652,,-0.01,0.02,-0.04,0,1,0,0.05,0.06,80,,,,,,,,,,,,,,,,,,,,,,,,,,,,,,,,,,,,,,,,,,,,,,,,,,,,,,,,,,,,,,,,,,,,,,,,,,,,,,,,,,,,,,,,,,,,,,,,,,,,,,,,,,,,,,,,,,,
3934,0,0.0656,,,,,,,,,,,0,0,0,0,32,0,0,1,0,0,0,0,0,9,7,1,12,0,0,151,0,0,138,7,7,0,0,16,0,0,2,1,1,0,53,52,51,0,0,0,0,0,0,0,0,4,4,4,0,390,389,0,0,0,0,0,0,0,0,0,0,0,0,0,0,1,1,0,0,51,51,50,0,0,0,0,0,0,0,0,0,0,0,0,0,0,0,0,0,0,0,0,0,0,0,0,0,0,0,0,0.0,0.0,0.0,0.0,0,0,0.0,0,0.0,-1,0.0,,0,0.0,0.0656
3954,0,0.0659,,-0.01,0.02,-0.04,0,1,0,0.05,0.06,80,,,,,,,,,,,,,,,,,,,,,,,,,,,,,,,,,,,,,,,,,,,,,,,,,,,,,,,,,,,,,,,,,,,,,,,,,,,,,,,,,,,,,,,,,,,,,,,,,,,,,,,,,,,,,,,,,,,
3994,0,0.0666,,-0.01,0.02,-0.04,0,1,0,0.05,0.06,80,,,,,,,,,,,,,,,,,,,,,,,,,,,,,,,,,,,,,,,,,,,,,,,,,,,,,,,,,,,,,,,,,,,,,,,,,,,,,,,,,,,,,,,,,,,,,,,,,,,,,,,,,,,,,,,,,,,
4034,0,0.0672,,-0.01,0.02,-0.04,0,1,0,0.05,0.06,80,0,0,0,0,32,0,0,1,0,0,0,0,0,9,7,1,12,0,0,151,0,0,138,7,7,0,0,16,0,0,2,1,1,0,53,52,51,0,0,0,0,0,0,0,0,4,4,4,0,390,389,0,0,0,0,0,0,0,0,0,0,0,0,0,0,1,1,0,0,51,51,50,0,0,0,0,0,0,0,0,0,0,0,0,0,0,0,0,0,0,0,0,0,0,0,0,0,0,0,0,0.0,0.0,0.0,0.0,0,0,0.0,0,0.0,-1,0.0,0.0,0,0.0,0.0672
4074,0,0.0679,,-0.01,0.02,-0.04,0,1,0,0.05,0.06,80,,,,,,,,,,,,,,,,,,,,,,,,,,,,,,,,,,,,,,,,,,,,,,,,,,,,,,,,,,,,,,,,,,,,,,,,,,,,,,,,,,,,,,,,,,,,,,,,,,,,,,,,,,,,,,,,,,,
4114,0,0.0686,,-0.02,0.02,-0.04,0,1,0,0.05,0.06,81,,,,,,,,,,,,,,,,,,,,,,,,,,,,,,,,,,,,,,,,,,,,,,,,,,,,,,,,,,,,,,,,,,,,,,,,,,,,,,,,,,,,,,,,,,,,,,,,,,,,,,,,,,,,,,,,,,,
4134,0,0.0689,,,,,,,,,,,0,0,0,0,32,0,0,1,0,0,0,0,0,9,7,1,12,0,0,151,0,0,138,7,7,0,0,14,0,0,2,1,1,0,53,52,51,0,0,0,0,0,0,0,0,4,4,4,0,390,389,0,0,0,0,0,0,0,0,0,0,0,0,0,0,1,1,0,0,51,51,50,0,0,0,0,0,0,0,0,0,0,0,0,0,0,0,0,0,0,0,0,0,0,0,0,0,0,0,0,0.0,0.0,0.0,0.0,0,0,0.0,0,0.0,-1,0.0,,0,0.0,0.0689
4154,0,0.0692,,-0.01,0.02,-0.04,0,1,0,0.05,0.06,79,,,,,,,,,,,,,,,,,,,,,,,,,,,,,,,,,,,,,,,,,,,,,,,,,,,,,,,,,,,,,,,,,,,,,,,,,,,,,,,,,,,,,,,,,,,,,,,,,,,,,,,,,,,,,,,,,,,
4194,0,0.0699,,-0.01,0.02,-0.04,0,1,0,0.05,0.06,79,,,,,,,,,,,,,,,,,,,,,,,,,,,,,,,,,,,,,,,,,,,,,,,,,,,,,,,,,,,,,,,,,,,,,,,,,,,,,,,,,,,,,,,,,,,,,,,,,,,,,,,,,,,,,,,,,,,
4234,0,0.0706,,-0.01,0.02,-0.04,0,1,0,0.05,0.06,79,0,0,0,0,32,0,0,1,0,0,0,0,0,9,7,1,12,0,0,151,0,0,138,8,8,0,0,16,0,0,2,1,1,0,53,52,51,0,0,0,0,0,0,0,1,1,0,0,51,51,50,0,0,0,0,0,0,0,0,0,0,0,0,0,0,1,1,0,0,51,51,50,0,0,0,0,0,0,0,0,0,0,0,0,0,0,0,0,0,0,0,0,0,0,0,0,0,0,0,0,0.0,0.0,0.0,0.0,0,0,0.0,0,0.0,-1,0.0,0.0,0,0.0,0.0706
4274,0,0.0712,,-0.02,0.02,-0.04,0,1,0,0.05,0.06,80,,,,,,,,,,,,,,,,,,,,,,,,,,,,,,,,,,,,,,,,,,,,,,,,,,,,,,,,,,,,,,,,,,,,,,,,,,,,,,,,,,,,,,,,,,,,,,,,,,,,,,,,,,,,,,,,,,,
4314,0,0.0719,,-0.01,0.02,-0.04,0,1,0,0.05,0.06,80,,,,,,,,,,,,,,,,,,,,,,,,,,,,,,,,,,,,,,,,,,,,,,,,,,,,,,,,,,,,,,,,,,,,,,,,,,,,,,,,,,,,,,,,,,,,,,,,,,,,,,,,,,,,,,,,,,,
4334,0,0.0722,,,,,,,,,,,0,0,0,0,32,0,0,1,0,0,0,0,0,9,7,1,12,0,0,151,0,0,138,8,8,0,0,14,0,0,2,1,1,0,53,52,51,0,0,0,0,0,0,0,1,1,0,0,51,51,50,0,0,0,0,0,0,0,0,0,0,0,0,0,0,1,1,0,0,51,51,50,0,0,0,0,0,0,0,0,0,0,0,0,0,0,0,0,0,0,0,0,0,0,0,0,0,0,0,0,0.0,0.0,0.0,0.0,0,0,0.0,0,0.0,-1,0.0,,0,0.0,0.0722
4354,0,0.0726,,-0.02,0.02,-0.04,0,1,0,0.05,0.06,80,,,,,,,,,,,,,,,,,,,,,,,,,,,,,,,,,,,,,,,,,,,,,,,,,,,,,,,,,,,,,,,,,,,,,,,,,,,,,,,,,,,,,,,,,,,,,,,,,,,,,,,,,,,,,,,,,,,
4394,0,0.0732,,-0.02,0.02,-0.04,0,1,0,0.05,0.06,80,,,,,,,,,,,,,,,,,,,,,,,,,,,,,,,,,,,,,,,,,,,,,,,,,,,,,,,,,,,,,,,,,,,,,,,,,,,,,,,,,,,,,,,,,,,,,,,,,,,,,,,,,,,,,,,,,,,
4434,0,0.0739,12.49,-0.02,0.02,-0.04,0,1,0,0.05,0.06,81,0,0,0,0,32,0,0,1,0,0,0,0,0,9,7,1,12,0,0,151,0,0,138,8,8,0,0,16,0,0,2,1,1,0,53,52,51,0,0,0,0,0,0,0,1,1,0,0,51,51,50,0,0,0,0,0,0,0,0,0,0,0,0,0,0,1,1,0,0,51,51,50,0,0,0,0,0,0,0,0,0,0,0,0,0,0,0,0,0,0,0,0,0,0,0,0,0,0,0,0,0.0,0.0,0.0,0.0,0,0,0.0,0,0.0,-1,0.0,0.0,0,0.0,0.0739
4474,0,0.0746,,-0.02,0.02,-0.04,0,1,0,0.05,0.06,82,,,,,,,,,,,,,,,,,,,,,,,,,,,,,,,,,,,,,,,,,,,,,,,,,,,,,,,,,,,,,,,,,,,,,,,,,,,,,,,,,,,,,,,,,,,,,,,,,,,,,,,,,,,,,,,,,,,
4514,0,0.0752,,-0.01,0.02,-0.04,0,1,0,0.05,0.06,82,,,,,,,,,,,,,,,,,,,,,,,,,,,,,,,,,,,,,,,,,,,,,,,,,,,,,,,,,,,,,,,,,,,,,,,,,,,,,,,,,,,,,,,,,,,,,,,,,,,,,,,,,,,,,,,,,,,
4534,0,0.0756,,,,,,,,,,,0,0,0,0,32,0,0,1,0,0,0,0,0,9,7,1,12,0,0,151,0,0,138,8,8,0,0,18,0,0,2,1,1,0,53,52,51,0,0,0,0,0,0,0,1,1,0,0,51,51,50,0,0,0,0,0,0,0,0,0,0,0,0,0,0,0,4,4,4,1,392,392,0,0,0,0,0,0,0,0,0,0,0,0,0,0,0,0,0,0,0,0,0,0,0,0,0,0,0,0,0.0,0.0,0.0,0.0,0,0,0.0,0,0.0,-1,0.0,,0,0.0,0.0756
4554,0,0.0759,,-0.01,0.02,-0.04,0,1,0,0.05,0.06,82,,,,,,,,,,,,,,,,,,,,,,,,,,,,,,,,,,,,,,,,,,,,,,,,,,,,,,,,,,,,,,,,,,,,,,,,,,,,,,,,,,,,,,,,,,,,,,,,,,,,,,,,,,,,,,,,,,,
4594,0,0.0766,,-0.01,0.02,-0.04,0,1,0,0.05,0.06,82,,,,,,,,,,,,,,,,,,,,,,,,,,,,,,,,,,,,,,,,,,,,,,,,,,,,,,,,,,,,,,,,,,,,,,,,,,,,,,,,,,,,,,,,,,,,,,,,,,,,,,,,,,,,,,,,,,,
4634,0,0.0772,,-0.01,0.02,-0.04,0,1,0,0.05,0.06,82,0,0,0,0,32,0,0,1,0,0,0,0,0,9,7,1,12,0,0,151,0,0,138,8,8,0,0,16,0,0,2,1,1,0,53,52,51,0,0,0,0,0,0,0,1,1,0,0,51,51,50,0,0,0,0,0,0,0,0,0,0,0,0,0,0,0,4,4,4,1,392,392,0,0,0,0,0,0,0,0,0,0,0,0,0,0,0,0,0,0,0,0,0,0,0,0,0,0,0,0,0.0,0.0,0.0,0.0,0,0,0.0,0,0.0,-1,0.0,0.0,0,0.0,0.0772
4674,0,0.0779,,-0.01,0.02,-0.04,0,1,0,0.05,0.06,82,,,,,,,,,,,,,,,,,,,,,,,,,,,,,,,,,,,,,,,,,,,,,,,,,,,,,,,,,,,,,,,,,,,,,,,,,,,,,,,,,,,,,,,,,,,,,,,,,,,,,,,,,,,,,,,,,,,
4714,0,0.0786,,-0.01,0.02,-0.04,0,1,0,0.05,0.06,81,,,,,,,,,,,,,,,,,,,,,,,,,,,,,,,,,,,,,,,,,,,,,,,,,,,,,,,,,,,,,,,,,,,,,,,,,,,,,,,,,,,,,,,,,,,,,,,,,,,,,,,,,,,,,,,,,,,
4734,0,0.0789,,,,,,,,,,,0,0,0,0,32,0,0,1,0,0,0,0,0,9,7,1,12,0,0,151,0,0,138,8,8,0,0,17,0,0,2,1,1,0,53,52,51,0,0,0,0,0,0,0,1,1,0,0,51,51,50,0,0,0,0,0,0,0,0,0,0,0,0,0,0,0,4,4,4,1,392,392,0,0,0,0,0,0,0,0,0,0,0,0,0,0,0,0,0,0,0,0,0,0,0,0,0,0,0,0,0.0,0.0,0.0,0.0,0,0,0.0,0,0.0,-1,0.0,,0,0.0,0.0789
4754,0,0.0792,,-0.01,0.02,-0.04,0,1,0,0.05,0.06,80,,,,,,,,,,,,,,,,,,,,,,,,,,,,,,,,,,,,,,,,,,,,,,,,,,,,,,,,,,,,,,,,,,,,,,,,,,,,,,,,,,,,,,,,,,,,,,,,,,,,,,,,,,,,,,,,,,,
4794,0,0.0799,,-0.01,0.02,-0.04,0,1,0,0.05,0.06,79,,,,,,,,,,,,,,,,,,,,,,,,,,,,,,,,,,,,,,,,,,,,,,,,,,,,,,,,,,,,,,,,,,,,,,,,,,,,,,,,,,,,,,,,,,,,,,,,,,,,,,,,,,,,,,,,,,,
4834,0,0.0806,,-0.01,0.02,-0.04,0,1,0,0.05,0.06,79,0,0,0,0,32,0,0,1,0,0,0,0,0,9,7,1,12,0,0,151,0,0,138,8,8,0,0,17,0,0,2,1,1,0,53,52,51,0,0,0,0,0,0,0,1,1,0,0,51,51,50,0,0,0,0,0,0,0,0,0,0,0,0,0,0,0,4,4,4,1,392,392,0,0,0,0,0,0,0,0,0,0,0,0,0,0,0,0,0,0,0,0,0,0,0,0,0,0,0,0,0.0,0.0,0.0,0.0,0,0,0.0,0,0.0,-1,0.0,0.0,0,0.0,0.0806
4874,0,0.0812,,-0.01,0.02,-0.04,0,1,0,0.05,0.06,78,,,,,,,,,,,,,,,,,,,,,,,,,,,,,,,,,,,,,,,,,,,,,,,,,,,,,,,,,,,,,,,,,,,,,,,,,,,,,,,,,,,,,,,,,,,,,,,,,,,,,,,,,,,,,,,,,,,
4914,0,0.0819,,-0.01,0.02,-0.04,0,1,0,0.05,0.06,79,,,,,,,,,,,,,,,,,,,,,,,,,,,,,,,,,,,,,,,,,,,,,,,,,,,,,,,,,,,,,,,,,,,,,,,,,,,,,,,,,,,,,,,,,,,,,,,,,,,,,,,,,,,,,,,,,,,
4934,0,0.0822,,,,,,,,,,,0,0,0,0,32,0,0,1,0,0,0,0,0,9,7,1,12,0,0,151,0,0,138,8,8,0,0,14,0,0,2,1,1,0,53,52,51,0,0,0,0,0,0,0,1,1,0,0,51,51,50,0,0,0,0,0,0,0,0,0,0,0,0,0,0,0,4,4,4,1,392,392,0,0,0,0,0,0,0,0,0,0,0,0,0,0,0,0,0,0,0,0,0,0,0,0,0,0,0,0,0.0,0.0,0.0,0.0,0,0,0.0,0,0.0,-1,0.0,,0,0.0,0.0822
4954,0,0.0826,,-0.01,0.02,-0.04,0,1,0,0.05,0.06,80,,,,,,,,,,,,,,,,,,,,,,,,,,,,,,,,,,,,,,,,,,,,,,,,,,,,,,,,,,,,,,,,,,,,,,,,,,,,,,,,,,,,,,,,,,,,,,,,,,,,,,,,,,,,,,,,,,,
4994,0,0.0832,,-0.01,0.02,-0.04,0,1,0,0.05,0.06,80,,,,,,,,,,,,,,,,,,,,,,,,,,,,,,,,,,,,,,,,,,,,,,,,,,,,,,,,,,,,,,,,,,,,,,,,,,,,,,,,,,,,,,,,,,,,,,,,,,,,,,,,,,,,,,,,,,,
5034,0,0.0839,,-0.01,0.02,-0.04,0,1,0,0.05,0.06,80,0,0,0,0,32,0,0,1,0,0,0,0,0,9,7,1,12,0,0,151,0,0,138,8,8,0,0,17,0,0,2,1,1,0,53,52,51,0,0,0,0,0,0,0,1,1,0,0,51,51,50,0,0,0,0,0,0,0,0,0,0,0,0,0,0,0,4,4,4,1,392,392,0,0,0,0,0,0,0,0,0,0,0,0,0,0,0,0,0,0,0,0,0,0,0,0,0,0,0,0,0.0,0.0,0.0,0.0,0,0,0.0,0,0.0,-1,0.0,0.0,0,0.0,0.0839
5074,0,0.0846,,-0.01,0.02,-0.04,0,1,0,0.05,0.06,80,,,,,,,,,,,,,,,,,,,,,,,,,,,,,,,,,,,,,,,,,,,,,,,,,,,,,,,,,,,,,,,,,,,,,,,,,,,,,,,,,,,,,,,,,,,,,,,,,,,,,,,,,,,,,,,,,,,
5114,0,0.0852,,-0.01,0.02,-0.04,0,1,0,0.05,0.06,81,,,,,,,,,,,,,,,,,,,,,,,,,,,,,,,,,,,,,,,,,,,,,,,,,,,,,,,,,,,,,,,,,,,,,,,,,,,,,,,,,,,,,,,,,,,,,,,,,,,,,,,,,,,,,,,,,,,
5134,0,0.0856,,,,,,,,,,,0,0,0,0,32,0,0,1,0,0,0,0,0,9,7,1,12,0,0,151,0,0,138,9,9,0,0,16,0,0,2,1,1,0,53,52,51,0,0,0,0,0,0,0,1,1,0,0,51,51,50,0,0,0,0,0,0,0,0,0,0,0,0,0,0,0,4,4,4,1,392,392,0,0,0,0,0,0,0,0,0,0,0,0,0,0,0,0,0,0,0,0,0,0,0,0,0,0,0,0,0.0,0.0,0.0,0.0,0,0,0.0,0,0.0,-1,0.0,,0,0.0,0.0856
5154,0,0.0859,,-0.01,0.02,-0.04,0,1,0,0.05,0.06,81,,,,,,,,,,,,,,,,,,,,,,,,,,,,,,,,,,,,,,,,,,,,,,,,,,,,,,,,,,,,,,,,,,,,,,,,,,,,,,,,,,,,,,,,,,,,,,,,,,,,,,,,,,,,,,,,,,,
5194,0,0.0866,,-0.01,0.02,-0.04,0,1,0,0.05,0.06,81,,,,,,,,,,,,,,,,,,,,,,,,,,,,,,,,,,,,,,,,,,,,,,,,,,,,,,,,,,,,,,,,,,,,,,,,,,,,,,,,,,,,,,,,,,,,,,,,,,,,,,,,,,,,,,,,,,,
5234,0,0.0872,,-0.01,0.02,-0.04,0,1,0,0.05,0.06,81,0,0,0,0,32,0,0,1,0,0,0,0,0,9,7,1,12,0,0,151,0,0,138,9,9,0,0,17,0,0,2,1,1,0,53,52,51,0,0,0,0,0,0,0,1,1,0,0,51,51,50,0,0,0,0,0,0,0,0,0,0,0,0,0,0,0,4,4,4,1,392,392,0,0,0,0,0,0,0,0,0,0,0,0,0,0,0,0,0,0,0,0,0,0,0,0,0,0,0,0,0.0,0.0,0.0,0.0,0,0,0.0,0,0.0,-1,0.0,0.0,0,0.0,0.0872
5274,0,0.0879,,-0.01,0.02,-0.04,0,1,0,0.05,0.06,82,,,,,,,,,,,,,,,,,,,,,,,,,,,,,,,,,,,,,,,,,,,,,,,,,,,,,,,,,,,,,,,,,,,,,,,,,,,,,,,,,,,,,,,,,,,,,,,,,,,,,,,,,,,,,,,,,,,
5314,0,0.0886,,-0.01,0.02,-0.04,0,1,0,0.05,0.06,83,,,,,,,,,,,,,,,,,,,,,,,,,,,,,,,,,,,,,,,,,,,,,,,,,,,,,,,,,,,,,,,,,,,,,,,,,,,,,,,,,,,,,,,,,,,,,,,,,,,,,,,,,,,,,,,,,,,
5334,0,0.0889,,,,,,,,,,,0,0,0,0,32,0,0,1,0,0,0,0,0,9,7,1,12,0,0,151,0,0,138,9,9,0,0,17,0,0,2,1,1,0,53,52,51,0,0,0,0,0,0,0,1,1,0,0,51,51,50,0,0,0,0,0,0,0,0,0,0,0,0,0,0,0,4,4,4,1,392,392,0,0,0,0,0,0,0,0,0,0,0,0,0,0,0,0,0,0,0,0,0,0,0,0,0,0,0,0,0.0,0.0,0.0,0.0,0,0,0.0,0,0.0,-1,0.0,,0,0.0,0.0889
5354,0,0.0892,,-0.01,0.02,-0.04,0,1,0,0.05,0.06,82,,,,,,,,,,,,,,,,,,,,,,,,,,,,,,,,,,,,,,,,,,,,,,,,,,,,,,,,,,,,,,,,,,,,,,,,,,,,,,,,,,,,,,,,,,,,,,,,,,,,,,,,,,,,,,,,,,,
5394,0,0.0899,,-0.01,0.02,-0.04,0,1,0,0.05,0.06,82,,,,,,,,,,,,,,,,,,,,,,,,,,,,,,,,,,,,,,,,,,,,,,,,,,,,,,,,,,,,,,,,,,,,,,,,,,,,,,,,,,,,,,,,,,,,,,,,,,,,,,,,,,,,,,,,,,,
5434,0,0.0906,12.47,-0.01,0.02,-0.04,0,1,0,0.05,0.06,81,0,0,0,0,32,0,0,1,0,0,0,0,0,9,7,1,12,0,0,151,0,0,138,9,9,0,0,16,0,0,2,1,1,0,53,52,51,0,0,0,0,0,0,0,1,1,0,0,51,51,50,0,0,0,0,0,0,0,0,0,0,0,0,0,0,0,4,4,4,1,392,392,0,0,0,0,0,0,0,0,0,0,0,0,0,0,0,0,0,0,0,0,0,0,0,0,0,0,0,0,0.0,0.0,0.0,0.0,0,0,0.0,0,0.0,-1,0.0,0.0,0,0.0,0.0906
5474,0,0.0912,,-0.02,0.02,-0.04,0,1,0,0.05,0.06,81,,,,,,,,,,,,,,,,,,,,,,,,,,,,,,,,,,,,,,,,,,,,,,,,,,,,,,,,,,,,,,,,,,,,,,,,,,,,,,,,,,,,,,,,,,,,,,,,,,,,,,,,,,,,,,,,,,,
5514,0,0.0919,,-0.02,0.02,-0.04,0,1,0,0.05,0.06,81,,,,,,,,,,,,,,,,,,,,,,,,,,,,,,,,,,,,,,,,,,,,,,,,,,,,,,,,,,,,,,,,,,,,,,,,,,,,,,,,,,,,,,,,,,,,,,,,,,,,,,,,,,,,,,,,,,,
5534,0,0.0922,,,,,,,,,,,0,0,0,0,32,0,0,1,0,0,0,0,0,9,7,1,12,0,0,151,0,0,138,9,9,0,0,17,0,0,2,1,1,0,53,52,51,0,0,0,0,0,0,0,1,1,0,0,51,51,50,0,0,0,0,0,0,0,0,0,0,0,0,0,0,1,1,0,0,51,51,50,0,0,0,0,0,0,0,0,0,0,0,0,0,0,0,0,0,0,0,0,0,0,0,0,0,0,0,0,0.0,0.0,0.0,0.0,0,0,0.0,0,0.0,-1,0.0,,0,0.0,0.0922
5554,0,0.0926,,-0.01,0.02,-0.04,0,1,0,0.05,0.06,80,,,,,,,,,,,,,,,,,,,,,,,,,,,,,,,,,,,,,,,,,,,,,,,,,,,,,,,,,,,,,,,,,,,,,,,,,,,,,,,,,,,,,,,,,,,,,,,,,,,,,,,,,,,,,,,,,,,
5594,0,0.0932,,-0.01,0.02,-0.04,0,0,0,0.05,0.06,80,,,,,,,,,,,,,,,,,,,,,,,,,,,,,,,,,,,,,,,,,,,,,,,,,,,,,,,,,,,,,,,,,,,,,,,,,,,,,,,,,,,,,,,,,,,,,,,,,,,,,,,,,,,,,,,,,,,
5634,0,0.0939,,-0.01,0.02,-0.04,0,0,0,0.05,0.06,79,0,0,0,0,32,0,0,1,0,0,0,0,0,9,7,1,12,0,0,151,0,0,138,9,9,0,0,18,0,0,2,1,1,0,53,52,51,0,0,0,0,0,0,0,1,1,0,0,51,51,50,0,0,0,0,0,0,0,0,0,0,0,0,0,0,1,1,0,0,51,51,50,0,0,0,0,0,0,0,0,0,0,0,0,0,0,0,0,0,0,0,0,0,0,0,0,0,0,0,0,0.0,0.0,0.0,0.0,0,0,0.0,0,0.0,-1,0.0,0.0,0,0.0,0.0939
5674,0,0.0946,,-0.01,0.02,-0.04,0,0,0,0.05,0.06,80,,,,,,,,,,,,,,,,,,,,,,,,,,,,,,,,,,,,,,,,,,,,,,,,,,,,,,,,,,,,,,,,,,,,,,,,,,,,,,,,,,,,,,,,,,,,,,,,,,,,,,,,,,,,,,,,,,,
5714,0,0.0952,,-0.01,0.02,-0.04,0,0,0,0.05,0.06,80,,,,,,,,,,,,,,,,,,,,,,,,,,,,,,,,,,,,,,,,,,,,,,,,,,,,,,,,,,,,,,,,,,,,,,,,,,,,,,,,,,,,,,,,,,,,,,,,,,,,,,,,,,,,,,,,,,,
5734,0,0.0956,,,,,,,,,,,0,0,0,0,32,0,0,1,0,0,0,0,0,9,7,1,12,0,0,151,0,0,138,9,9,0,0,13,0,0,2,1,1,0,53,52,51,0,0,0,0,0,0,0,1,1,0,0,51,51,50,0,0,0,0,0,0,0,0,0,0,0,0,0,0,1,1,0,0,51,51,50,0,0,0,0,0,0,0,0,0,0,0,0,0,0,0,0,0,0,0,0,0,0,0,0,0,0,0,0,0.0,0.0,0.0,0.0,0,0,0.0,0,0.0,-1,0.0,,0,0.0,0.0956
5754,0,0.0959,,-0.01,0.02,-0.04,0,0,0,0.05,0.06,80,,,,,,,,,,,,,,,,,,,,,,,,,,,,,,,,,,,,,,,,,,,,,,,,,,,,,,,,,,,,,,,,,,,,,,,,,,,,,,,,,,,,,,,,,,,,,,,,,,,,,,,,,,,,,,,,,,,
5794,0,0.0966,,-0.01,0.02,-0.04,0,0,0,0.05,0.06,78,,,,,,,,,,,,,,,,,,,,,,,,,,,,,,,,,,,,,,,,,,,,,,,,,,,,,,,,,,,,,,,,,,,,,,,,,,,,,,,,,,,,,,,,,,,,,,,,,,,,,,,,,,,,,,,,,,,
5834,0,0.0972,,-0.02,0.02,-0.04,0,0,0,0.05,0.06,79,0,0,0,0,32,0,0,1,0,0,0,0,0,9,7,1,12,0,0,151,0,0,138,10,10,0,0,18,0,0,2,1,1,0,53,52,51,0,0,0,0,0,0,0,1,1,0,0,51,51,50,0,0,0,0,0,0,0,0,0,0,0,0,0,0,1,1,0,0,51,51,50,0,0,0,0,0,0,0,0,0,0,0,0,0,0,0,0,0,0,0,0,0,0,0,0,0,0,0,0,0.0,0.0,0.0,0.0,0,0,0.0,0,0.0,-1,0.0,0.0,0,0.0,0.0972
5874,0,0.0979,,-0.01,0.02,-0.04,0,0,0,0.05,0.06,79,,,,,,,,,,,,,,,,,,,,,,,,,,,,,,,,,,,,,,,,,,,,,,,,,,,,,,,,,,,,,,,,,,,,,,,,,,,,,,,,,,,,,,,,,,,,,,,,,,,,,,,,,,,,,,,,,,,
5914,0,0.0986,,-0.01,0.02,-0.04,0,0,0,0.05,0.06,80,,,,,,,,,,,,,,,,,,,,,,,,,,,,,,,,,,,,,,,,,,,,,,,,,,,,,,,,,,,,,,,,,,,,,,,,,,,,,,,,,,,,,,,,,,,,,,,,,,,,,,,,,,,,,,,,,,,
5934,0,0.0989,,,,,,,,,,,0,0,0,0,32,0,0,1,0,0,0,0,0,9,7,1,12,0,0,151,0,0,138,10,10,0,0,17,0,0,2,1,1,0,53,52,51,0,0,0,0,0,0,0,1,1,0,0,51,51,50,0,0,0,0,0,0,0,0,0,0,0,0,0,0,1,1,0,0,51,51,50,0,0,0,0,0,0,0,0,0,0,0,0,0,0,0,0,0,0,0,0,0,0,0,0,0,0,0,0,0.0,0.0,0.0,0.0,0,0,0.0,0,0.0,-1,0.0,,0,0.0,0.0989
5954,0,0.0992,,-0.01,0.02,-0.04,0,0,0,0.05,0.06,79,,,,,,,,,,,,,,,,,,,,,,,,,,,,,,,,,,,,,,,,,,,,,,,,,,,,,,,,,,,,,,,,,,,,,,,,,,,,,,,,,,,,,,,,,,,,,,,,,,,,,,,,,,,,,,,,,,,
5994,0,0.0999,,-0.01,0.02,-0.04,0,0,0,0.05,0.06,79,,,,,,,,,,,,,,,,,,,,,,,,,,,,,,,,,,,,,,,,,,,,,,,,,,,,,,,,,,,,,,,,,,,,,,,,,,,,,,,,,,,,,,,,,,,,,,,,,,,,,,,,,,,,,,,,,,,
6034,0,0.1006,,-0.01,0.02,-0.04,0,0,0,0.05,0.06,80,0,0,0,0,32,0,0,1,0,0,0,0,0,9,7,1,12,0,0,151,0,0,138,10,10,0,0,17,0,0,2,1,1,0,53,52,51,0,0,0,0,0,0,0,1,1,0,0,51,51,50,0,0,0,0,0,0,0,0,0,0,0,0,0,0,1,1,0,0,51,51,50,0,0,0,0,0,0,0,0,0,0,0,0,0,0,0,0,0,0,0,0,0,0,0,0,0,0,0,0,0.0,0.0,0.0,0.0,0,0,0.0,0,0.0,-1,0.0,0.0,0,0.0,0.1006
6074,0,0.1012,,-0.01,0.02,-0.04,0,0,0,0.05,0.06,81,,,,,,,,,,,,,,,,,,,,,,,,,,,,,,,,,,,,,,,,,,,,,,,,,,,,,,,,,,,,,,,,,,,,,,,,,,,,,,,,,,,,,,,,,,,,,,,,,,,,,,,,,,,,,,,,,,,
6114,0,0.1019,,-0.01,0.02,-0.04,0,1,0,0.05,0.06,80,,,,,,,,,,,,,,,,,,,,,,,,,,,,,,,,,,,,,,,,,,,,,,,,,,,,,,,,,,,,,,,,,,,,,,,,,,,,,,,,,,,,,,,,,,,,,,,,,,,,,,,,,,,,,,,,,,,
6134,0,0.1022,,,,,,,,,,,0,0,0,0,32,0,0,1,0,0,0,0,0,9,7,1,12,0,0,151,0,0,138,10,10,0,0,16,0,0,2,1,1,0,53,52,51,0,0,0,0,0,0,0,1,1,0,0,51,51,50,0,0,0,0,0,0,0,0,0,0,0,0,0,0,1,1,0,0,51,51,50,0,0,0,0,0,0,0,0,0,0,0,0,0,0,0,0,0,0,0,0,0,0,0,0,0,0,0,0,0.0,0.0,0.0,0.0,0,0,0.0,0,0.0,-1,0.0,,0,0.0,0.1022
6154,0,0.1026,,-0.01,0.02,-0.04,0,1,0,0.05,0.06,81,,,,,,,,,,,,,,,,,,,,,,,,,,,,,,,,,,,,,,,,,,,,,,,,,,,,,,,,,,,,,,,,,,,,,,,,,,,,,,,,,,,,,,,,,,,,,,,,,,,,,,,,,,,,,,,,,,,
6194,0,0.1032,,-0.01,0.02,-0.04,0,1,0,0.05,0.06,81,,,,,,,,,,,,,,,,,,,,,,,,,,,,,,,,,,,,,,,,,,,,,,,,,,,,,,,,,,,,,,,,,,,,,,,,,,,,,,,,,,,,,,,,,,,,,,,,,,,,,,,,,,,,,,,,,,,
6234,0,0.1039,,-0.01,0.02,-0.04,0,1,0,0.05,0.06,81,0,0,0,0,32,0,0,1,0,0,0,0,0,9,7,1,12,0,0,151,0,0,138,10,10,0,0,17,0,0,2,1,1,0,53,52,51,0,0,0,0,0,0,0,0,4,4,4,0,390,389,0,0,0,0,0,0,0,0,0,0,0,0,0,0,1,1,0,0,51,51,50,0,0,0,0,0,0,0,0,0,0,0,0,0,0,0,0,0,0,0,0,0,0,0,0,0,0,0,0,0.0,0.0,0.0,0.0,0,0,0.0,0,0.0,-1,0.0,0.0,0,0.0,0.1039
6274,0,0.1046,,-0.01,0.02,-0.04,0,0,0,0.05,0.06,81,,,,,,,,,,,,,,,,,,,,,,,,,,,,,,,,,,,,,,,,,,,,,,,,,,,,,,,,,,,,,,,,,,,,,,,,,,,,,,,,,,,,,,,,,,,,,,,,,,,,,,,,,,,,,,,,,,,
6314,0,0.1052,,-0.01,0.02,-0.04,0,1,0,0.05,0.06,81,,,,,,,,,,,,,,,,,,,,,,,,,,,,,,,,,,,,,,,,,,,,,,,,,,,,,,,,,,,,,,,,,,,,,,,,,,,,,,,,,,,,,,,,,,,,,,,,,,,,,,,,,,,,,,,,,,,
6334,0,0.1056,,,,,,,,,,,0,0,0,0,32,0,0,1,0,0,0,0,0,9,7,1,12,0,0,151,0,0,138,10,10,0,0,20,0,0,2,1,1,0,53,52,51,0,0,0,0,0,0,0,0,4,4,4,0,390,389,0,0,0,0,0,0,0,0,0,0,0,0,0,0,1,1,0,0,51,51,50,0,0,0,0,0,0,0,0,0,0,0,0,0,0,0,0,0,0,0,0,0,0,0,0,0,0,0,0,0.0,0.0,0.0,0.0,0,0,0.0,0,0.0,-1,0.0,,0,0.0,0.1056
6354,0,0.1059,,-0.01,0.02,-0.04,0,1,0,0.05,0.06,81,,,,,,,,,,,,,,,,,,,,,,,,,,,,,,,,,,,,,,,,,,,,,,,,,,,,,,,,,,,,,,,,,,,,,,,,,,,,,,,,,,,,,,,,,,,,,,,,,,,,,,,,,,,,,,,,,,,
6394,0,0.1066,,-0.01,0.02,-0.04,0,1,0,0.05,0.06,81,,,,,,,,,,,,,,,,,,,,,,,,,,,,,,,,,,,,,,,,,,,,,,,,,,,,,,,,,,,,,,,,,,,,,,,,,,,,,,,,,,,,,,,,,,,,,,,,,,,,,,,,,,,,,,,,,,,
6434,0,0.1072,12.48,-0.01,0.02,-0.04,0,1,0,0.05,0.06,80,0,0,0,0,32,0,0,1,0,0,0,0,0,9,7,1,12,0,0,151,0,0,138,10,10,0,0,14,0,0,2,1,1,0,53,52,51,0,0,0,0,0,0,0,0,4,4,4,0,390,389,0,0,0,0,0,0,0,0,0,0,0,0,0,0,1,1,0,0,51,51,50,0,0,0,0,0,0,0,0,0,0,0,0,0,0,0,0,0,0,0,0,0,0,0,0,0,0,0,0,0.0,0.0,0.0,0.0,0,0,0.0,0,0.0,-1,0.0,0.0,0,0.0,0.1072
6474,0,0.1079,,-0.01,0.02,-0.04,0,1,0,0.05,0.06,80,,,,,,,,,,,,,,,,,,,,,,,,,,,,,,,,,,,,,,,,,,,,,,,,,,,,,,,,,,,,,,,,,,,,,,,,,,,,,,,,,,,,,,,,,,,,,,,,,,,,,,,,,,,,,,,,,,,
6514,0,0.1086,,-0.01,0.02,-0.04,0,1,0,0.05,0.06,80,,,,,,,,,,,,,,,,,,,,,,,,,,,,,,,,,,,,,,,,,,,,,,,,,,,,,,,,,,,,,,,,,,,,,,,,,,,,,,,,,,,,,,,,,,,,,,,,,,,,,,,,,,,,,,,,,,,
6534,0,0.1089,,,,,,,,,,,0,0,0,0,32,0,0,1,0,0,0,0,0,9,7,1,12,0,0,151,0,0,138,10,10,0,0,16,0,0,2,1,1,0,53,52,51,0,0,0,0,0,0,0,0,4,4,4,0,390,389,0,0,0,0,0,0,0,0,0,0,0,0,0,0,1,1,0,0,51,51,50,0,0,0,0,0,0,0,0,0,0,0,0,0,0,0,0,0,0,0,0,0,0,0,0,0,0,0,0,0.0,0.0,0.0,0.0,0,0,0.0,0,0.0,-1,0.0,,0,0.0,0.1089
6554,0,0.1092,,-0.01,0.02,-0.04,0,1,0,0.05,0.06,80,,,,,,,,,,,,,,,,,,,,,,,,,,,,,,,,,,,,,,,,,,,,,,,,,,,,,,,,,,,,,,,,,,,,,,,,,,,,,,,,,,,,,,,,,,,,,,,,,,,,,,,,,,,,,,,,,,,
6594,0,0.1099,,-0.01,0.02,-0.04,0,1,0,0.05,0.06,80,,,,,,,,,,,,,,,,,,,,,,,,,,,,,,,,,,,,,,,,,,,,,,,,,,,,,,,,,,,,,,,,,,,,,,,,,,,,,,,,,,,,,,,,,,,,,,,,,,,,,,,,,,,,,,,,,,,
6634,0,0.1106,,-0.01,0.02,-0.04,0,1,0,0.05,0.06,79,0,0,0,0,32,0,0,1,0,0,0,0,0,9,7,1,12,0,0,151,0,0,138,10,10,0,0,16,0,0,2,1,1,0,53,52,51,0,0,0,0,0,0,0,0,4,4,4,0,390,389,0,0,0,0,0,0,0,0,0,0,0,0,0,0,1,1,0,0,51,51,50,0,0,0,0,0,0,0,0,0,0,0,0,0,0,0,0,0,0,0,0,0,0,0,0,0,0,0,0,0.0,0.0,0.0,0.0,0,0,0.0,0,0.0,-1,0.0,0.0,0,0.0,0.1106
6674,0,0.1112,,-0.01,0.02,-0.04,0,1,0,0.05,0.06,79,,,,,,,,,,,,,,,,,,,,,,,,,,,,,,,,,,,,,,,,,,,,,,,,,,,,,,,,,,,,,,,,,,,,,,,,,,,,,,,,,,,,,,,,,,,,,,,,,,,,,,,,,,,,,,,,,,,
6714,0,0.1119,,-0.01,0.02,-0.04,0,1,0,0.05,0.06,80,,,,,,,,,,,,,,,,,,,,,,,,,,,,,,,,,,,,,,,,,,,,,,,,,,,,,,,,,,,,,,,,,,,,,,,,,,,,,,,,,,,,,,,,,,,,,,,,,,,,,,,,,,,,,,,,,,,
6734,0,0.1122,,,,,,,,,,,0,0,0,0,32,0,0,1,0,0,0,0,0,9,7,1,12,0,0,151,0,0,138,10,10,0,0,18,0,0,2,1,1,0,53,52,51,0,0,0,0,0,0,0,0,4,4,4,0,390,389,0,0,0,0,0,0,0,0,0,0,0,0,0,0,1,1,0,0,51,51,50,0,0,0,0,0,0,0,0,0,0,0,0,0,0,0,0,0,0,0,0,0,0,0,0,0,0,0,0,0.0,0.0,0.0,0.0,0,0,0.0,0,0.0,-1,0.0,,0,0.0,0.1122
6754,0,0.1126,,-0.01,0.02,-0.04,0,1,0,0.05,0.06,80,,,,,,,,,,,,,,,,,,,,,,,,,,,,,,,,,,,,,,,,,,,,,,,,,,,,,,,,,,,,,,,,,,,,,,,,,,,,,,,,,,,,,,,,,,,,,,,,,,,,,,,,,,,,,,,,,,,
6794,0,0.1132,,-0.01,0.02,-0.04,0,1,0,0.05,0.06,80,,,,,,,,,,,,,,,,,,,,,,,,,,,,,,,,,,,,,,,,,,,,,,,,,,,,,,,,,,,,,,,,,,,,,,,,,,,,,,,,,,,,,,,,,,,,,,,,,,,,,,,,,,,,,,,,,,,
6834,0,0.1139,,-0.01,0.02,-0.04,0,1,0,0.05,0.06,79,0,0,0,0,32,0,0,1,0,0,0,0,0,9,7,1,12,0,0,151,0,0,138,10,10,0,0,18,0,0,2,1,1,0,53,52,51,0,0,0,0,0,0,0,0,4,4,4,0,390,389,0,0,0,0,0,0,0,0,0,0,0,0,0,0,1,1,0,0,51,51,50,0,0,0,0,0,0,0,0,0,0,0,0,0,0,0,0,0,0,0,0,0,0,0,0,0,0,0,0,0.0,0.0,0.0,0.0,0,0,0.0,0,0.0,-1,0.0,0.0,0,0.0,0.1139
6874,0,0.1146,,-0.01,0.02,-0.04,0,1,0,0.05,0.06,80,,,,,,,,,,,,,,,,,,,,,,,,,,,,,,,,,,,,,,,,,,,,,,,,,,,,,,,,,,,,,,,,,,,,,,,,,,,,,,,,,,,,,,,,,,,,,,,,,,,,,,,,,,,,,,,,,,,
6914,0,0.1152,,-0.01,0.02,-0.04,0,1,0,0.05,0.06,79,,,,,,,,,,,,,,,,,,,,,,,,,,,,,,,,,,,,,,,,,,,,,,,,,,,,,,,,,,,,,,,,,,,,,,,,,,,,,,,,,,,,,,,,,,,,,,,,,,,,,,,,,,,,,,,,,,,
6934,0,0.1156,,,,,,,,,,,0,0,0,0,32,0,0,1,0,0,0,0,0,9,7,1,12,0,0,151,0,0,138,11,11,0,0,18,0,0,2,1,1,0,53,52,51,0,0,0,0,0,0,0,0,4,4,4,0,390,389,0,0,0,0,0,0,0,0,0,0,0,0,0,0,1,1,0,0,51,51,50,0,0,0,0,0,0,0,0,0,0,0,0,0,0,0,0,0,0,0,0,0,0,0,0,0,0,0,0,0.0,0.0,0.0,0.0,0,0,0.0,0,0.0,-1,0.0,,0,0.0,0.1156
6954,0,0.1159,,-0.01,0.02,-0.04,0,1,0,0.05,0.06,79,,,,,,,,,,,,,,,,,,,,,,,,,,,,,,,,,,,,,,,,,,,,,,,,,,,,,,,,,,,,,,,,,,,,,,,,,,,,,,,,,,,,,,,,,,,,,,,,,,,,,,,,,,,,,,,,,,,
6994,0,0.1166,,-0.01,0.02,-0.04,0,1,0,0.05,0.06,80,,,,,,,,,,,,,,,,,,,,,,,,,,,,,,,,,,,,,,,,,,,,,,,,,,,,,,,,,,,,,,,,,,,,,,,,,,,,,,,,,,,,,,,,,,,,,,,,,,,,,,,,,,,,,,,,,,,
7034,0,0.1172,,-0.01,0.02,-0.04,0,1,0,0.05,0.06,81,0,0,0,0,32,0,0,1,0,0,0,0,0,9,7,1,12,0,0,151,0,0,138,11,11,0,0,16,0,0,2,1,1,0,53,52,51,0,0,0,0,0,0,0,0,4,4,4,0,390,389,0,0,0,0,0,0,0,0,0,0,0,0,0,0,1,1,0,0,51,51,50,0,0,0,0,0,0,0,0,0,0,0,0,0,0,0,0,0,0,0,0,0,0,0,0,0,0,0,0,0.0,0.0,0.0,0.0,0,0,0.0,0,0.0,-1,0.0,0.0,0,0.0,0.1172
7074,0,0.1179,,-0.02,0.02,-0.04,0,1,0,0.05,0.06,80,,,,,,,,,,,,,,,,,,,,,,,,,,,,,,,,,,,,,,,,,,,,,,,,,,,,,,,,,,,,,,,,,,,,,,,,,,,,,,,,,,,,,,,,,,,,,,,,,,,,,,,,,,,,,,,,,,,
7114,0,0.1186,,-0.02,0.02,-0.04,0,1,0,0.05,0.06,81,,,,,,,,,,,,,,,,,,,,,,,,,,,,,,,,,,,,,,,,,,,,,,,,,,,,,,,,,,,,,,,,,,,,,,,,,,,,,,,,,,,,,,,,,,,,,,,,,,,,,,,,,,,,,,,,,,,
7134,0,0.1189,,,,,,,,,,,0,0,0,0,32,0,0,1,0,0,0,0,0,9,7,1,12,0,0,151,0,0,138,11,11,0,0,18,0,0,2,1,1,0,53,52,51,0,0,0,0,0,0,0,0,4,4,4,0,390,389,0,0,0,0,0,0,0,0,0,0,0,0,0,0,1,1,0,0,51,51,50,0,0,0,0,0,0,0,0,0,0,0,0,0,0,0,0,0,0,0,0,0,0,0,0,0,0,0,0,0.0,0.0,0.0,0.0,0,0,0.0,0,0.0,-1,0.0,,0,0.0,0.1189
7154,0,0.1192,,-0.01,0.02,-0.04,0,1,0,0.05,0.06,82,,,,,,,,,,,,,,,,,,,,,,,,,,,,,,,,,,,,,,,,,,,,,,,,,,,,,,,,,,,,,,,,,,,,,,,,,,,,,,,,,,,,,,,,,,,,,,,,,,,,,,,,,,,,,,,,,,,
7194,0,0.1199,,-0.01,0.02,-0.04,0,1,0,0.05,0.06,81,,,,,,,,,,,,,,,,,,,,,,,,,,,,,,,,,,,,,,,,,,,,,,,,,,,,,,,,,,,,,,,,,,,,,,,,,,,,,,,,,,,,,,,,,,,,,,,,,,,,,,,,,,,,,,,,,,,
7234,0,0.1206,,-0.01,0.02,-0.04,0,1,0,0.05,0.06,83,0,0,0,0,32,0,0,1,0,0,0,0,0,9,7,1,12,0,0,151,0,0,138,11,11,0,0,17,0,0,2,1,1,0,53,52,51,0,0,0,0,0,0,0,1,1,0,0,51,51,50,0,0,0,0,0,0,0,0,0,0,0,0,0,0,1,1,0,0,51,51,50,0,0,0,0,0,0,0,0,0,0,0,0,0,0,0,0,0,0,0,0,0,0,0,0,0,0,0,0,0.0,0.0,0.0,0.0,0,0,0.0,0,0.0,-1,0.0,0.0,0,0.0,0.1206
7274,0,0.1212,,-0.01,0.02,-0.04,0,1,0,0.05,0.06,82,,,,,,,,,,,,,,,,,,,,,,,,,,,,,,,,,,,,,,,,,,,,,,,,,,,,,,,,,,,,,,,,,,,,,,,,,,,,,,,,,,,,,,,,,,,,,,,,,,,,,,,,,,,,,,,,,,,
7314,0,0.1219,,-0.01,0.02,-0.04,-0,1,0,0.05,0.06,82,,,,,,,,,,,,,,,,,,,,,,,,,,,,,,,,,,,,,,,,,,,,,,,,,,,,,,,,,,,,,,,,,,,,,,,,,,,,,,,,,,,,,,,,,,,,,,,,,,,,,,,,,,,,,,,,,,,
7334,0,0.1222,,,,,,,,,,,0,0,0,0,32,0,0,1,0,0,0,0,0,9,7,1,12,0,0,151,0,0,138,11,11,0,0,20,0,0,2,1,1,0,53,52,51,0,0,0,0,0,0,0,1,1,0,0,51,51,50,0,0,0,0,0,0,0,0,0,0,0,0,0,0,1,1,0,0,51,51,50,0,0,0,0,0,0,0,0,0,0,0,0,0,0,0,0,0,0,0,0,0,0,0,0,0,0,0,0,0.0,0.0,0.0,0.0,0,0,0.0,0,0.0,-1,0.0,,0,0.0,0.1222
7354,0,0.1226,,-0.01,0.02,-0.04,0,1,0,0.05,0.06,83,,,,,,,,,,,,,,,,,,,,,,,,,,,,,,,,,,,,,,,,,,,,,,,,,,,,,,,,,,,,,,,,,,,,,,,,,,,,,,,,,,,,,,,,,,,,,,,,,,,,,,,,,,,,,,,,,,,
7394,0,0.1232,,-0.01,0.02,-0.04,0,1,0,0.05,0.06,81,,,,,,,,,,,,,,,,,,,,,,,,,,,,,,,,,,,,,,,,,,,,,,,,,,,,,,,,,,,,,,,,,,,,,,,,,,,,,,,,,,,,,,,,,,,,,,,,,,,,,,,,,,,,,,,,,,,
7434,0,0.1239,12.48,-0.01,0.02,-0.04,0,1,0,0.05,0.06,80,0,0,0,0,32,0,0,1,0,0,0,0,0,9,7,1,12,0,0,151,0,0,138,11,11,0,0,16,0,0,2,1,1,0,53,52,51,0,0,0,0,0,0,0,1,1,0,0,51,51,50,0,0,0,0,0,0,0,0,0,0,0,0,0,0,1,1,0,0,51,51,50,0,0,0,0,0,0,0,0,0,0,0,0,0,0,0,0,0,0,0,0,0,0,0,0,0,0,0,0,0.0,0.0,0.0,0.0,0,0,0.0,0,0.0,-1,0.0,0.0,0,0.0,0.1239
7474,0,0.1246,,-0.01,0.02,-0.04,0,1,0,0.05,0.06,80,,,,,,,,,,,,,,,,,,,,,,,,,,,,,,,,,,,,,,,,,,,,,,,,,,,,,,,,,,,,,,,,,,,,,,,,,,,,,,,,,,,,,,,,,,,,,,,,,,,,,,,,,,,,,,,,,,,
7514,0,0.1252,,-0.01,0.02,-0.04,0,1,0,0.05,0.06,80,,,,,,,,,,,,,,,,,,,,,,,,,,,,,,,,,,,,,,,,,,,,,,,,,,,,,,,,,,,,,,,,,,,,,,,,,,,,,,,,,,,,,,,,,,,,,,,,,,,,,,,,,,,,,,,,,,,
7534,0,0.1256,,,,,,,,,,,0,0,0,0,32,0,0,1,0,0,0,0,0,9,7,1,12,0,0,151,0,0,138,11,11,0,0,18,0,0,2,1,1,0,53,52,51,0,0,0,0,0,0,0,1,1,0,0,51,51,50,0,0,0,0,0,0,0,0,0,0,0,0,0,0,0,4,4,4,1,392,392,0,0,0,0,0,0,0,0,0,0,0,0,0,0,0,0,0,0,0,0,0,0,0,0,0,0,0,0,0.0,0.0,0.0,0.0,0,0,0.0,0,0.0,-1,0.0,,0,0.0,0.1256
7554,0,0.1259,,-0.01,0.02,-0.04,0,1,0,0.05,0.06,80,,,,,,,,,,,,,,,,,,,,,,,,,,,,,,,,,,,,,,,,,,,,,,,,,,,,,,,,,,,,,,,,,,,,,,,,,,,,,,,,,,,,,,,,,,,,,,,,,,,,,,,,,,,,,,,,,,,
7594,0,0.1266,,-0.01,0.02,-0.04,0,1,0,0.05,0.06,79,,,,,,,,,,,,,,,,,,,,,,,,,,,,,,,,,,,,,,,,,,,,,,,,,,,,,,,,,,,,,,,,,,,,,,,,,,,,,,,,,,,,,,,,,,,,,,,,,,,,,,,,,,,,,,,,,,,
7634,0,0.1272,,-0.01,0.02,-0.04,0,1,0,0.05,0.06,80,0,0,0,0,32,0,0,1,0,0,0,0,0,9,7,1,12,0,0,151,0,0,138,11,11,0,0,16,0,0,2,1,1,0,53,52,51,0,0,0,0,0,0,0,1,1,0,0,51,51,50,0,0,0,0,0,0,0,0,0,0,0,0,0,0,0,4,4,4,1,392,392,0,0,0,0,0,0,0,0,0,0,0,0,0,0,0,0,0,0,0,0,0,0,0,0,0,0,0,0,0.0,0.0,0.0,0.0,0,0,0.0,0,0.0,-1,0.0,0.0,0,0.0,0.1272
7674,0,0.1279,,-0.01,0.02,-0.04,0,1,0,0.05,0.06,81,,,,,,,,,,,,,,,,,,,,,,,,,,,,,,,,,,,,,,,,,,,,,,,,,,,,,,,,,,,,,,,,,,,,,,,,,,,,,,,,,,,,,,,,,,,,,,,,,,,,,,,,,,,,,,,,,,,
7714,0,0.1286,,-0.01,0.02,-0.04,0,1,0,0.05,0.06,81,,,,,,,,,,,,,,,,,,,,,,,,,,,,,,,,,,,,,,,,,,,,,,,,,,,,,,,,,,,,,,,,,,,,,,,,,,,,,,,,,,,,,,,,,,,,,,,,,,,,,,,,,,,,,,,,,,,
7734,0,0.1289,,,,,,,,,,,0,0,0,0,32,0,0,1,0,0,0,0,0,9,7,1,12,0,0,151,0,0,138,12,12,0,0,14,0,0,2,1,1,0,53,52,51,0,0,0,0,0,0,0,1,1,0,0,51,51,50,0,0,0,0,0,0,0,0,0,0,0,0,0,0,0,4,4,4,1,392,392,0,0,0,0,0,0,0,0,0,0,0,0,0,0,0,0,0,0,0,0,0,0,0,0,0,0,0,0,0.0,0.0,0.0,0.0,0,0,0.0,0,0.0,-1,0.0,,0,0.0,0.1289
7754,0,0.1292,,-0.02,0.02,-0.04,0,1,0,0.05,0.06,82,,,,,,,,,,,,,,,,,,,,,,,,,,,,,,,,,,,,,,,,,,,,,,,,,,,,,,,,,,,,,,,,,,,,,,,,,,,,,,,,,,,,,,,,,,,,,,,,,,,,,,,,,,,,,,,,,,,
7794,0,0.1299,,-0.02,0.02,-0.04,0,1,0,0.05,0.06,83,,,,,,,,,,,,,,,,,,,,,,,,,,,,,,,,,,,,,,,,,,,,,,,,,,,,,,,,,,,,,,,,,,,,,,,,,,,,,,,,,,,,,,,,,,,,,,,,,,,,,,,,,,,,,,,,,,,
7834,0,0.1306,,-0.01,0.02,-0.04,0,1,0,0.05,0.06,81,0,0,0,0,32,0,0,1,0,0,0,0,0,9,7,1,12,0,0,151,0,0,138,12,12,0,0,16,0,0,2,1,1,0,53,52,51,0,0,0,0,0,0,0,1,1,0,0,51,51,50,0,0,0,0,0,0,0,0,0,0,0,0,0,0,0,4,4,4,1,392,392,0,0,0,0,0,0,0,0,0,0,0,0,0,0,0,0,0,0,0,0,0,0,0,0,0,0,0,0,0.0,0.0,0.0,0.0,0,0,0.0,0,0.0,-1,0.0,0.0,0,0.0,0.1306
7874,0,0.1312,,-0.01,0.02,-0.04,0,1,0,0.05,0.06,81,,,,,,,,,,,,,,,,,,,,,,,,,,,,,,,,,,,,,,,,,,,,,,,,,,,,,,,,,,,,,,,,,,,,,,,,,,,,,,,,,,,,,,,,,,,,,,,,,,,,,,,,,,,,,,,,,,,
7914,0,0.1319,,-0.01,0.02,-0.04,0,1,0,0.05,0.06,82,,,,,,,,,,,,,,,,,,,,,,,,,,,,,,,,,,,,,,,,,,,,,,,,,,,,,,,,,,,,,,,,,,,,,,,,,,,,,,,,,,,,,,,,,,,,,,,,,,,,,,,,,,,,,,,,,,,
7934,0,0.1322,,,,,,,,,,,0,0,0,0,32,0,0,1,0,0,0,0,0,9,7,1,12,0,0,151,0,0,138,12,12,0,0,18,0,0,2,1,1,0,53,52,51,0,0,0,0,0,0,0,1,1,0,0,51,51,50,0,0,0,0,0,0,0,0,0,0,0,0,0,0,0,4,4,4,1,392,392,0,0,0,0,0,0,0,0,0,0,0,0,0,0,0,0,0,0,0,0,0,0,0,0,0,0,0,0,0.0,0.0,0.0,0.0,0,0,0.0,0,0.0,-1,0.0,,0,0.0,0.1322
7954,0,0.1326,,-0.01,0.02,-0.04,0,1,0,0.05,0.06,82,,,,,,,,,,,,,,,,,,,,,,,,,,,,,,,,,,,,,,,,,,,,,,,,,,,,,,,,,,,,,,,,,,,,,,,,,,,,,,,,,,,,,,,,,,,,,,,,,,,,,,,,,,,,,,,,,,,
7994,0,0.1332,,-0.01,0.02,-0.04,0,1,0,0.05,0.06,82,,,,,,,,,,,,,,,,,,,,,,,,,,,,,,,,,,,,,,,,,,,,,,,,,,,,,,,,,,,,,,,,,,,,,,,,,,,,,,,,,,,,,,,,,,,,,,,,,,,,,,,,,,,,,,,,,,,
8034,0,0.1339,,-0.01,0.02,-0.04,0,1,0,0.05,0.06,81,0,0,0,0,32,0,0,1,0,0,0,0,0,9,7,1,12,0,0,151,0,0,138,12,12,0,0,17,0,0,2,1,1,0,53,52,51,0,0,0,0,0,0,0,1,1,0,0,51,51,50,0,0,0,0,0,0,0,0,0,0,0,0,0,0,0,4,4,4,1,392,392,0,0,0,0,0,0,0,0,0,0,0,0,0,0,0,0,0,0,0,0,0,0,0,0,0,0,0,0,0.0,0.0,0.0,0.0,0,0,0.0,0,0.0,-1,0.0,0.0,0,0.0,0.1339
8074,0,0.1346,,-0.01,0.02,-0.04,0,1,0,0.05,0.06,81,,,,,,,,,,,,,,,,,,,,,,,,,,,,,,,,,,,,,,,,,,,,,,,,,,,,,,,,,,,,,,,,,,,,,,,,,,,,,,,,,,,,,,,,,,,,,,,,,,,,,,,,,,,,,,,,,,,
8114,0,0.1352,,-0.01,0.02,-0.04,0,1,0,0.05,0.06,79,,,,,,,,,,,,,,,,,,,,,,,,,,,,,,,,,,,,,,,,,,,,,,,,,,,,,,,,,,,,,,,,,,,,,,,,,,,,,,,,,,,,,,,,,,,,,,,,,,,,,,,,,,,,,,,,,,,
8134,0,0.1356,,,,,,,,,,,0,0,0,0,32,0,0,1,0,0,0,0,0,9,7,1,12,0,0,151,0,0,138,12,12,0,0,17,0,0,2,1,1,0,53,52,51,0,0,0,0,0,0,0,1,1,0,0,51,51,50,0,0,0,0,0,0,0,0,0,0,0,0,0,0,0,4,4,4,1,392,392,0,0,0,0,0,0,0,0,0,0,0,0,0,0,0,0,0,0,0,0,0,0,0,0,0,0,0,0,0.0,0.0,0.0,0.0,0,0,0.0,0,0.0,-1,0.0,,0,0.0,0.1356
8154,0,0.1359,,-0.01,0.02,-0.04,0,1,0,0.05,0.06,79,,,,,,,,,,,,,,,,,,,,,,,,,,,,,,,,,,,,,,,,,,,,,,,,,,,,,,,,,,,,,,,,,,,,,,,,,,,,,,,,,,,,,,,,,,,,,,,,,,,,,,,,,,,,,,,,,,,
8194,0,0.1366,,-0.01,0.02,-0.04,0,1,0,0.05,0.06,79,,,,,,,,,,,,,,,,,,,,,,,,,,,,,,,,,,,,,,,,,,,,,,,,,,,,,,,,,,,,,,,,,,,,,,,,,,,,,,,,,,,,,,,,,,,,,,,,,,,,,,,,,,,,,,,,,,,
8234,0,0.1372,,-0.01,0.02,-0.04,0,1,0,0.05,0.06,79,0,0,0,0,32,0,0,1,0,0,0,0,0,9,7,1,12,0,0,151,0,0,138,12,12,0,0,16,0,0,2,1,1,0,53,52,51,0,0,0,0,0,0,0,1,1,0,0,51,51,50,0,0,0,0,0,0,0,0,0,0,0,0,0,0,0,4,4,4,1,392,392,0,0,0,0,0,0,0,0,0,0,0,0,0,0,0,0,0,0,0,0,0,0,0,0,0,0,0,0,0.0,0.0,0.0,0.0,0,0,0.0,0,0.0,-1,0.0,0.0,0,0.0,0.1372
8274,0,0.1379,,-0.01,0.02,-0.04,0,1,0,0.05,0.06,79,,,,,,,,,,,,,,,,,,,,,,,,,,,,,,,,,,,,,,,,,,,,,,,,,,,,,,,,,,,,,,,,,,,,,,,,,,,,,,,,,,,,,,,,,,,,,,,,,,,,,,,,,,,,,,,,,,,
8314,0,0.1386,,-0.01,0.02,-0.04,0,1,0,0.05,0.06,79,,,,,,,,,,,,,,,,,,,,,,,,,,,,,,,,,,,,,,,,,,,,,,,,,,,,,,,,,,,,,,,,,,,,,,,,,,,,,,,,,,,,,,,,,,,,,,,,,,,,,,,,,,,,,,,,,,,
8334,0,0.1389,,,,,,,,,,,0,0,0,0,32,0,0,1,0,0,0,0,0,9,7,1,12,0,0,151,0,0,138,12,12,0,0,17,0,0,2,1,1,0,53,52,51,0,0,0,0,0,0,0,1,1,0,0,51,51,50,0,0,0,0,0,0,0,0,0,0,0,0,0,0,0,4,4,4,1,392,392,0,0,0,0,0,0,0,0,0,0,0,0,0,0,0,0,0,0,0,0,0,0,0,0,0,0,0,0,0.0,0.0,0.0,0.0,0,0,0.0,0,0.0,-1,0.0,,0,0.0,0.1389
8354,0,0.1392,,-0.01,0.02,-0.04,0,1,0,0.05,0.06,80,,,,,,,,,,,,,,,,,,,,,,,,,,,,,,,,,,,,,,,,,,,,,,,,,,,,,,,,,,,,,,,,,,,,,,,,,,,,,,,,,,,,,,,,,,,,,,,,,,,,,,,,,,,,,,,,,,,
8394,0,0.1399,,-0.01,0.02,-0.04,0,1,0,0.05,0.06,80,,,,,,,,,,,,,,,,,,,,,,,,,,,,,,,,,,,,,,,,,,,,,,,,,,,,,,,,,,,,,,,,,,,,,,,,,,,,,,,,,,,,,,,,,,,,,,,,,,,,,,,,,,,,,,,,,,,
8434,0,0.1406,12.45,-0.01,0.02,-0.04,0,1,0,0.05,0.06,80,0,0,0,0,32,0,0,1,0,0,0,0,0,9,7,1,12,0,0,151,0,0,138,12,12,0,0,18,0,0,2,1,1,0,53,52,51,0,0,0,0,0,0,0,1,1,0,0,51,51,50,0,0,0,0,0,0,0,0,0,0,0,0,0,0,0,4,4,4,1,392,392,0,0,0,0,0,0,0,0,0,0,0,0,0,0,0,0,0,0,0,0,0,0,0,0,0,0,0,0,0.0,0.0,0.0,0.0,0,0,0.0,0,0.0,-1,0.0,0.0,0,0.0,0.1406
8474,0,0.1412,,-0.01,0.02,-0.04,0,1,0,0.05,0.06,80,,,,,,,,,,,,,,,,,,,,,,,,,,,,,,,,,,,,,,,,,,,,,,,,,,,,,,,,,,,,,,,,,,,,,,,,,,,,,,,,,,,,,,,,,,,,,,,,,,,,,,,,,,,,,,,,,,,
8514,0,0.1419,,-0.01,0.02,-0.04,0,1,0,0.05,0.06,80,,,,,,,,,,,,,,,,,,,,,,,,,,,,,,,,,,,,,,,,,,,,,,,,,,,,,,,,,,,,,,,,,,,,,,,,,,,,,,,,,,,,,,,,,,,,,,,,,,,,,,,,,,,,,,,,,,,
8534,0,0.1422,,,,,,,,,,,0,0,0,0,32,0,0,1,0,0,0,0,0,9,7,1,12,0,0,151,0,0,138,12,12,0,0,16,0,0,2,1,1,0,53,52,51,0,0,0,0,0,0,0,1,1,0,0,51,51,50,0,0,0,0,0,0,0,0,0,0,0,0,0,0,1,1,0,0,51,51,50,0,0,0,0,0,0,0,0,0,0,0,0,0,0,0,0,0,0,0,0,0,0,0,0,0,0,0,0,0.0,0.0,0.0,0.0,0,0,0.0,0,0.0,-1,0.0,,0,0.0,0.1422
8554,0,0.1426,,-0.01,0.02,-0.04,0,1,0,0.05,0.06,81,,,,,,,,,,,,,,,,,,,,,,,,,,,,,,,,,,,,,,,,,,,,,,,,,,,,,,,,,,,,,,,,,,,,,,,,,,,,,,,,,,,,,,,,,,,,,,,,,,,,,,,,,,,,,,,,,,,
8594,0,0.1432,,-0.01,0.02,-0.04,0,1,0,0.05,0.06,82,,,,,,,,,,,,,,,,,,,,,,,,,,,,,,,,,,,,,,,,,,,,,,,,,,,,,,,,,,,,,,,,,,,,,,,,,,,,,,,,,,,,,,,,,,,,,,,,,,,,,,,,,,,,,,,,,,,
8634,0,0.1439,,-0.01,0.02,-0.04,0,1,0,0.05,0.06,82,0,0,0,0,32,0,0,1,0,0,0,0,0,9,7,1,12,0,0,151,0,0,138,12,12,0,0,17,0,0,2,1,1,0,53,52,51,0,0,0,0,0,0,0,1,1,0,0,51,51,50,0,0,0,0,0,0,0,0,0,0,0,0,0,0,1,1,0,0,51,51,50,0,0,0,0,0,0,0,0,0,0,0,0,0,0,0,0,0,0,0,0,0,0,0,0,0,0,0,0,0.0,0.0,0.0,0.0,0,0,0.0,0,0.0,-1,0.0,0.0,0,0.0,0.1439
8674,0,0.1446,,-0.01,0.02,-0.04,0,1,0,0.05,0.06,82,,,,,,,,,,,,,,,,,,,,,,,,,,,,,,,,,,,,,,,,,,,,,,,,,,,,,,,,,,,,,,,,,,,,,,,,,,,,,,,,,,,,,,,,,,,,,,,,,,,,,,,,,,,,,,,,,,,
8714,0,0.1452,,-0.01,0.02,-0.04,0,0,0,0.05,0.06,83,,,,,,,,,,,,,,,,,,,,,,,,,,,,,,,,,,,,,,,,,,,,,,,,,,,,,,,,,,,,,,,,,,,,,,,,,,,,,,,,,,,,,,,,,,,,,,,,,,,,,,,,,,,,,,,,,,,
8734,0,0.1456,,,,,,,,,,,0,0,0,0,32,0,0,1,0,0,0,0,0,9,7,1,12,0,0,151,0,0,138,12,12,0,0,16,0,0,2,1,1,0,53,52,51,0,0,0,0,0,0,0,1,1,0,0,51,51,50,0,0,0,0,0,0,0,0,0,0,0,0,0,0,1,1,0,0,51,51,50,0,0,0,0,0,0,0,0,0,0,0,0,0,0,0,0,0,0,0,0,0,0,0,0,0,0,0,0,0.0,0.0,0.0,0.0,0,0,0.0,0,0.0,-1,0.0,,0,0.0,0.1456
8754,0,0.1459,,-0.01,0.02,-0.04,0,1,0,0.05,0.06,83,,,,,,,,,,,,,,,,,,,,,,,,,,,,,,,,,,,,,,,,,,,,,,,,,,,,,,,,,,,,,,,,,,,,,,,,,,,,,,,,,,,,,,,,,,,,,,,,,,,,,,,,,,,,,,,,,,,
8794,0,0.1466,,-0.01,0.02,-0.04,-0,1,0,0.05,0.06,83,,,,,,,,,,,,,,,,,,,,,,,,,,,,,,,,,,,,,,,,,,,,,,,,,,,,,,,,,,,,,,,,,,,,,,,,,,,,,,,,,,,,,,,,,,,,,,,,,,,,,,,,,,,,,,,,,,,
8834,0,0.1472,,-0.01,0.02,-0.04,-0,1,0,0.05,0.06,83,0,0,0,0,32,0,0,1,0,0,0,0,0,9,7,1,12,0,0,151,0,0,138,12,12,0,0,16,0,0,2,1,1,0,53,52,51,0,0,0,0,0,0,0,1,1,0,0,51,51,50,0,0,0,0,0,0,0,0,0,0,0,0,0,0,1,1,0,0,51,51,50,0,0,0,0,0,0,0,0,0,0,0,0,0,0,0,0,0,0,0,0,0,0,0,0,0,0,0,0,0.0,0.0,0.0,0.0,0,0,0.0,0,0.0,-1,0.0,0.0,0,0.0,0.1472
8874,0,0.1479,,-0.01,0.02,-0.04,0,1,0,0.05,0.06,82,,,,,,,,,,,,,,,,,,,,,,,,,,,,,,,,,,,,,,,,,,,,,,,,,,,,,,,,,,,,,,,,,,,,,,,,,,,,,,,,,,,,,,,,,,,,,,,,,,,,,,,,,,,,,,,,,,,
8914,0,0.1486,,-0.01,0.02,-0.04,0,0,0,0.05,0.06,82,,,,,,,,,,,,,,,,,,,,,,,,,,,,,,,,,,,,,,,,,,,,,,,,,,,,,,,,,,,,,,,,,,,,,,,,,,,,,,,,,,,,,,,,,,,,,,,,,,,,,,,,,,,,,,,,,,,
8934,0,0.1489,,,,,,,,,,,0,0,0,0,32,0,0,1,0,0,0,0,0,9,7,1,12,0,0,151,0,0,138,12,12,0,0,18,0,0,2,1,1,0,53,52,51,0,0,0,0,0,0,0,1,1,0,0,51,51,50,0,0,0,0,0,0,0,0,0,0,0,0,0,0,1,1,0,0,51,51,50,0,0,0,0,0,0,0,0,0,0,0,0,0,0,0,0,0,0,0,0,0,0,0,0,0,0,0,0,0.0,0.0,0.0,0.0,0,0,0.0,0,0.0,-1,0.0,,0,0.0,0.1489
8954,0,0.1492,,-0.01,0.02,-0.04,0,1,0,0.05,0.06,81,,,,,,,,,,,,,,,,,,,,,,,,,,,,,,,,,,,,,,,,,,,,,,,,,,,,,,,,,,,,,,,,,,,,,,,,,,,,,,,,,,,,,,,,,,,,,,,,,,,,,,,,,,,,,,,,,,,
8994,0,0.1499,,-0.01,0.02,-0.04,0,1,0,0.05,0.06,82,,,,,,,,,,,,,,,,,,,,,,,,,,,,,,,,,,,,,,,,,,,,,,,,,,,,,,,,,,,,,,,,,,,,,,,,,,,,,,,,,,,,,,,,,,,,,,,,,,,,,,,,,,,,,,,,,,,
9034,0,0.1506,,-0.01,0.02,-0.04,0,1,0,0.05,0.06,82,0,0,0,0,32,0,0,1,0,0,0,0,0,9,7,1,12,0,0,151,0,0,138,12,12,0,0,16,0,0,2,1,1,0,53,52,51,0,0,0,0,0,0,0,1,1,0,0,51,51,50,0,0,0,0,0,0,0,0,0,0,0,0,0,0,1,1,0,0,51,51,50,0,0,0,0,0,0,0,0,0,0,0,0,0,0,0,0,0,0,0,0,0,0,0,0,0,0,0,0,0.0,0.0,0.0,0.0,0,0,0.0,0,0.0,-1,0.0,0.0,0,0.0,0.1506
9074,0,0.1512,,-0.01,0.02,-0.04,0,1,0,0.05,0.06,81,,,,,,,,,,,,,,,,,,,,,,,,,,,,,,,,,,,,,,,,,,,,,,,,,,,,,,,,,,,,,,,,,,,,,,,,,,,,,,,,,,,,,,,,,,,,,,,,,,,,,,,,,,,,,,,,,,,
9114,0,0.1519,,-0.02,0.02,-0.04,-0,1,0,0.05,0.06,81,,,,,,,,,,,,,,,,,,,,,,,,,,,,,,,,,,,,,,,,,,,,,,,,,,,,,,,,,,,,,,,,,,,,,,,,,,,,,,,,,,,,,,,,,,,,,,,,,,,,,,,,,,,,,,,,,,,
9134,0,0.1522,,,,,,,,,,,0,0,0,0,32,0,0,1,0,0,0,0,0,9,7,1,12,0,0,151,0,0,138,13,13,0,0,17,0,0,2,1,1,0,53,52,51,0,0,0,0,0,0,0,1,1,0,0,51,51,50,0,0,0,0,0,0,0,0,0,0,0,0,0,0,1,1,0,0,51,51,50,0,0,0,0,0,0,0,0,0,0,0,0,0,0,0,0,0,0,0,0,0,0,0,0,0,0,0,0,0.0,0.0,0.0,0.0,0,0,0.0,0,0.0,-1,0.0,,0,0.0,0.1522
9154,0,0.1526,,-0.01,0.02,-0.04,-0,1,0,0.05,0.06,81,,,,,,,,,,,,,,,,,,,,,,,,,,,,,,,,,,,,,,,,,,,,,,,,,,,,,,,,,,,,,,,,,,,,,,,,,,,,,,,,,,,,,,,,,,,,,,,,,,,,,,,,,,,,,,,,,,,
9194,0,0.1532,,-0.01,0.02,-0.04,0,1,0,0.05,0.06,82,,,,,,,,,,,,,,,,,,,,,,,,,,,,,,,,,,,,,,,,,,,,,,,,,,,,,,,,,,,,,,,,,,,,,,,,,,,,,,,,,,,,,,,,,,,,,,,,,,,,,,,,,,,,,,,,,,,
9234,0,0.1539,,-0.01,0.02,-0.04,-0,1,0,0.05,0.06,82,0,0,0,0,32,0,0,1,0,0,0,0,0,9,7,1,12,0,0,151,0,0,138,13,13,0,0,18,0,0,2,1,1,0,53,52,51,0,0,0,0,0,0,0,0,4,4,4,0,390,389,0,0,0,0,0,0,0,0,0,0,0,0,0,0,1,1,0,0,51,51,50,0,0,0,0,0,0,0,0,0,0,0,0,0,0,0,0,0,0,0,0,0,0,0,0,0,0,0,0,0.0,0.0,0.0,0.0,0,0,0.0,0,0.0,-1,0.0,0.0,0,0.0,0.1539
9274,0,0.1546,,-0.01,0.02,-0.04,0,1,0,0.05,0.06,81,,,,,,,,,,,,,,,,,,,,,,,,,,,,,,,,,,,,,,,,,,,,,,,,,,,,,,,,,,,,,,,,,,,,,,,,,,,,,,,,,,,,,,,,,,,,,,,,,,,,,,,,,,,,,,,,,,,
9314,0,0.1552,,-0.01,0.02,-0.04,-0,1,0,0.05,0.06,81,,,,,,,,,,,,,,,,,,,,,,,,,,,,,,,,,,,,,,,,,,,,,,,,,,,,,,,,,,,,,,,,,,,,,,,,,,,,,,,,,,,,,,,,,,,,,,,,,,,,,,,,,,,,,,,,,,,
9334,0,0.1556,,,,,,,,,,,0,0,0,0,32,0,0,1,0,0,0,0,0,9,7,1,12,0,0,151,0,0,138,13,13,0,0,18,0,0,2,1,1,0,53,52,51,0,0,0,0,0,0,0,0,4,4,4,0,390,389,0,0,0,0,0,0,0,0,0,0,0,0,0,0,1,1,0,0,51,51,50,0,0,0,0,0,0,0,0,0,0,0,0,0,0,0,0,0,0,0,0,0,0,0,0,0,0,0,0,0.0,0.0,0.0,0.0,0,0,0.0,0,0.0,-1,0.0,,0,0.0,0.1556
9354,0,0.1559,,-0.02,0.02,-0.04,-0,1,0,0.05,0.06,81,,,,,,,,,,,,,,,,,,,,,,,,,,,,,,,,,,,,,,,,,,,,,,,,,,,,,,,,,,,,,,,,,,,,,,,,,,,,,,,,,,,,,,,,,,,,,,,,,,,,,,,,,,,,,,,,,,,
9394,0,0.1566,,-0.02,0.02,-0.04,0,1,0,0.05,0.06,81,,,,,,,,,,,,,,,,,,,,,,,,,,,,,,,,,,,,,,,,,,,,,,,,,,,,,,,,,,,,,,,,,,,,,,,,,,,,,,,,,,,,,,,,,,,,,,,,,,,,,,,,,,,,,,,,,,,
9434,0,0.1572,12.49,-0.02,0.02,-0.04,0,1,0,0.05,0.06,82,0,0,0,0,32,0,0,1,0,0,0,0,0,9,7,1,12,0,0,151,0,0,138,13,13,0,0,17,0,0,2,1,1,0,53,52,51,0,0,0,0,0,0,0,0,4,4,4,0,390,389,0,0,0,0,0,0,0,0,0,0,0,0,0,0,1,1,0,0,51,51,50,0,0,0,0,0,0,0,0,0,0,0,0,0,0,0,0,0,0,0,0,0,0,0,0,0,0,0,0,0.0,0.0,0.0,0.0,0,0,0.0,0,0.0,-1,0.0,0.0,0,0.0,0.1572
9474,0,0.1579,,-0.02,0.02,-0.04,0,1,0,0.05,0.06,81,,,,,,,,,,,,,,,,,,,,,,,,,,,,,,,,,,,,,,,,,,,,,,,,,,,,,,,,,,,,,,,,,,,,,,,,,,,,,,,,,,,,,,,,,,,,,,,,,,,,,,,,,,,,,,,,,,,
9514,0,0.1586,,-0.01,0.02,-0.04,-0,1,0,0.05,0.06,81,,,,,,,,,,,,,,,,,,,,,,,,,,,,,,,,,,,,,,,,,,,,,,,,,,,,,,,,,,,,,,,,,,,,,,,,,,,,,,,,,,,,,,,,,,,,,,,,,,,,,,,,,,,,,,,,,,,
9534,0,0.1589,,,,,,,,,,,0,0,0,0,32,0,0,1,0,0,0,0,0,9,7,1,12,0,0,151,0,0,138,13,13,0,0,16,0,0,2,1,1,0,53,52,51,0,0,0,0,0,0,0,0,4,4,4,0,390,389,0,0,0,0,0,0,0,0,0,0,0,0,0,0,1,1,0,0,51,51,50,0,0,0,0,0,0,0,0,0,0,0,0,0,0,0,0,0,0,0,0,0,0,0,0,0,0,0,0,0.0,0.0,0.0,0.0,0,0,0.0,0,0.0,-1,0.0,,0,0.0,0.1589
9554,0,0.1592,,-0.01,0.02,-0.04,-0,1,0,0.05,0.06,81,,,,,,,,,,,,,,,,,,,,,,,,,,,,,,,,,,,,,,,,,,,,,,,,,,,,,,,,,,,,,,,,,,,,,,,,,,,,,,,,,,,,,,,,,,,,,,,,,,,,,,,,,,,,,,,,,,,
9594,0,0.1599,,-0.01,0.02,-0.04,-0,1,0,0.05,0.06,81,,,,,,,,,,,,,,,,,,,,,,,,,,,,,,,,,,,,,,,,,,,,,,,,,,,,,,,,,,,,,,,,,,,,,,,,,,,,,,,,,,,,,,,,,,,,,,,,,,,,,,,,,,,,,,,,,,,
9634,0,0.1606,,-0.01,0.02,-0.04,-0,1,0,0.05,0.06,81,0,0,0,0,32,0,0,1,0,0,0,0,0,9,7,1,12,0,0,151,0,0,138,13,13,0,0,17,0,0,2,1,1,0,53,52,51,0,0,0,0,0,0,0,0,4,4,4,0,390,389,0,0,0,0,0,0,0,0,0,0,0,0,0,0,1,1,0,0,51,51,50,0,0,0,0,0,0,0,0,0,0,0,0,0,0,0,0,0,0,0,0,0,0,0,0,0,0,0,0,0.0,0.0,0.0,0.0,0,0,0.0,0,0.0,-1,0.0,0.0,0,0.0,0.1606
9674,0,0.1612,,-0.01,0.02,-0.04,-0,1,0,0.05,0.06,81,,,,,,,,,,,,,,,,,,,,,,,,,,,,,,,,,,,,,,,,,,,,,,,,,,,,,,,,,,,,,,,,,,,,,,,,,,,,,,,,,,,,,,,,,,,,,,,,,,,,,,,,,,,,,,,,,,,
9714,0,0.1619,,-0.01,0.02,-0.04,-0,1,0,0.05,0.06,81,,,,,,,,,,,,,,,,,,,,,,,,,,,,,,,,,,,,,,,,,,,,,,,,,,,,,,,,,,,,,,,,,,,,,,,,,,,,,,,,,,,,,,,,,,,,,,,,,,,,,,,,,,,,,,,,,,,
9734,0,0.1622,,,,,,,,,,,0,0,0,0,32,0,0,1,0,0,0,0,0,9,7,1,12,0,0,151,0,0,138,13,13,0,0,17,0,0,2,1,1,0,53,52,51,0,0,0,0,0,0,0,0,4,4,4,0,390,389,0,0,0,0,0,0,0,0,0,0,0,0,0,0,1,1,0,0,51,51,50,0,0,0,0,0,0,0,0,0,0,0,0,0,0,0,0,0,0,0,0,0,0,0,0,0,0,0,0,0.0,0.0,0.0,0.0,0,0,0.0,0,0.0,-1,0.0,,0,0.0,0.1622
9754,0,0.1626,,-0.01,0.02,-0.04,0,1,0,0.05,0.06,82,,,,,,,,,,,,,,,,,,,,,,,,,,,,,,,,,,,,,,,,,,,,,,,,,,,,,,,,,,,,,,,,,,,,,,,,,,,,,,,,,,,,,,,,,,,,,,,,,,,,,,,,,,,,,,,,,,,
9794,0,0.1632,,-0.01,0.02,-0.04,0,1,0,0.05,0.06,82,,,,,,,,,,,,,,,,,,,,,,,,,,,,,,,,,,,,,,,,,,,,,,,,,,,,,,,,,,,,,,,,,,,,,,,,,,,,,,,,,,,,,,,,,,,,,,,,,,,,,,,,,,,,,,,,,,,
9834,0,0.1639,,-0.01,0.02,-0.04,0,1,0,0.05,0.06,81,0,0,0,0,32,0,0,1,0,0,0,0,0,9,7,1,12,0,0,151,0,0,138,13,13,0,0,16,0,0,2,1,1,0,53,52,51,0,0,0,0,0,0,0,0,4,4,4,0,390,389,0,0,0,0,0,0,0,0,0,0,0,0,0,0,1,1,0,0,51,51,50,0,0,0,0,0,0,0,0,0,0,0,0,0,0,0,0,0,0,0,0,0,0,0,0,0,0,0,0,0.0,0.0,0.0,0.0,0,0,0.0,0,0.0,-1,0.0,0.0,0,0.0,0.1639
9874,0,0.1646,,-0.01,0.02,-0.04,0,1,0,0.05,0.06,80,,,,,,,,,,,,,,,,,,,,,,,,,,,,,,,,,,,,,,,,,,,,,,,,,,,,,,,,,,,,,,,,,,,,,,,,,,,,,,,,,,,,,,,,,,,,,,,,,,,,,,,,,,,,,,,,,,,
9914,0,0.1652,,-0.01,0.02,-0.04,0,1,0,0.05,0.06,80,,,,,,,,,,,,,,,,,,,,,,,,,,,,,,,,,,,,,,,,,,,,,,,,,,,,,,,,,,,,,,,,,,,,,,,,,,,,,,,,,,,,,,,,,,,,,,,,,,,,,,,,,,,,,,,,,,,
9934,0,0.1656,,,,,,,,,,,0,0,0,0,32,0,0,1,0,0,0,0,0,9,7,1,12,0,0,151,0,0,138,13,13,0,0,20,0,0,2,1,1,0,53,52,51,0,0,0,0,0,0,0,0,4,4,4,0,390,389,0,0,0,0,0,0,0,0,0,0,0,0,0,0,1,1,0,0,51,51,50,0,0,0,0,0,0,0,0,0,0,0,0,0,0,0,0,0,0,0,0,0,0,0,0,0,0,0,0,0.0,0.0,0.0,0.0,0,0,0.0,0,0.0,-1,0.0,,0,0.0,0.1656
9954,0,0.1659,,-0.01,0.02,-0.04,0,1,0,0.05,0.06,80,,,,,,,,,,,,,,,,,,,,,,,,,,,,,,,,,,,,,,,,,,,,,,,,,,,,,,,,,,,,,,,,,,,,,,,,,,,,,,,,,,,,,,,,,,,,,,,,,,,,,,,,,,,,,,,,,,,
9994,0,0.1666,,-0.01,0.02,-0.04,0,1,0,0.05,0.06,80,,,,,,,,,,,,,,,,,,,,,,,,,,,,,,,,,,,,,,,,,,,,,,,,,,,,,,,,,,,,,,,,,,,,,,,,,,,,,,,,,,,,,,,,,,,,,,,,,,,,,,,,,,,,,,,,,,,
10034,0,0.1672,,-0.01,0.02,-0.04,0,1,0,0.05,0.06,80,0,0,0,0,32,0,0,1,0,0,0,0,0,9,7,1,12,0,0,151,0,0,138,13,13,0,0,18,0,0,2,1,1,0,53,52,51,0,0,0,0,0,0,0,0,4,4,4,0,390,389,0,0,0,0,0,0,0,0,0,0,0,0,0,0,1,1,0,0,51,51,50,0,0,0,0,0,0,0,0,0,0,0,0,0,0,0,0,0,0,0,0,0,0,0,0,0,0,0,0,0.0,0.0,0.0,0.0,0,0,0.0,0,0.0,-1,0.0,0.0,0,0.0,0.1672
10074,0,0.1679,,-0.01,0.02,-0.04,0,1,0,0.05,0.06,80,,,,,,,,,,,,,,,,,,,,,,,,,,,,,,,,,,,,,,,,,,,,,,,,,,,,,,,,,,,,,,,,,,,,,,,,,,,,,,,,,,,,,,,,,,,,,,,,,,,,,,,,,,,,,,,,,,,
10114,0,0.1686,,-0.01,0.02,-0.04,0,1,0,0.05,0.06,80,,,,,,,,,,,,,,,,,,,,,,,,,,,,,,,,,,,,,,,,,,,,,,,,,,,,,,,,,,,,,,,,,,,,,,,,,,,,,,,,,,,,,,,,,,,,,,,,,,,,,,,,,,,,,,,,,,,
10134,0,0.1689,,,,,,,,,,,0,0,0,0,32,0,0,1,0,0,0,0,0,9,7,1,12,0,0,151,0,0,138,13,13,0,0,20,0,0,2,1,1,0,53,52,51,0,0,0,0,0,0,0,0,4,4,4,0,390,389,0,0,0,0,0,0,0,0,0,0,0,0,0,0,1,1,0,0,51,51,50,0,0,0,0,0,0,0,0,0,0,0,0,0,0,0,0,0,0,0,0,0,0,0,0,0,0,0,0,0.0,0.0,0.0,0.0,0,0,0.0,0,0.0,-1,0.0,,0,0.0,0.1689
10154,0,0.1692,,-0.01,0.02,-0.04,0,1,0,0.05,0.06,79,,,,,,,,,,,,,,,,,,,,,,,,,,,,,,,,,,,,,,,,,,,,,,,,,,,,,,,,,,,,,,,,,,,,,,,,,,,,,,,,,,,,,,,,,,,,,,,,,,,,,,,,,,,,,,,,,,,
10194,0,0.1699,,-0.01,0.02,-0.04,-0,1,0,0.05,0.06,79,,,,,,,,,,,,,,,,,,,,,,,,,,,,,,,,,,,,,,,,,,,,,,,,,,,,,,,,,,,,,,,,,,,,,,,,,,,,,,,,,,,,,,,,,,,,,,,,,,,,,,,,,,,,,,,,,,,
10234,0,0.1706,,-0.01,0.02,-0.04,-0,1,0,0.05,0.06,80,0,0,0,0,32,0,0,1,0,0,0,0,0,9,7,1,12,0,0,151,0,0,138,14,14,0,0,20,0,0,2,1,1,0,53,52,51,0,0,0,0,0,0,0,1,1,0,0,51,51,50,0,0,0,0,0,0,0,0,0,0,0,0,0,0,1,1,0,0,51,51,50,0,0,0,0,0,0,0,0,0,0,0,0,0,0,0,0,0,0,0,0,0,0,0,0,0,0,0,0,0.0,0.0,0.0,0.0,0,0,0.0,0,0.0,-1,0.0,0.0,0,0.0,0.1706
10274,0,0.1712,,-0.01,0.02,-0.04,0,1,0,0.05,0.06,80,,,,,,,,,,,,,,,,,,,,,,,,,,,,,,,,,,,,,,,,,,,,,,,,,,,,,,,,,,,,,,,,,,,,,,,,,,,,,,,,,,,,,,,,,,,,,,,,,,,,,,,,,,,,,,,,,,,
10314,0,0.1719,,-0.01,0.02,-0.04,-0,1,0,0.05,0.06,80,,,,,,,,,,,,,,,,,,,,,,,,,,,,,,,,,,,,,,,,,,,,,,,,,,,,,,,,,,,,,,,,,,,,,,,,,,,,,,,,,,,,,,,,,,,,,,,,,,,,,,,,,,,,,,,,,,,
10334,0,0.1722,,,,,,,,,,,0,0,0,0,32,0,0,1,0,0,0,0,0,9,7,1,12,0,0,151,0,0,138,14,14,0,0,18,0,0,2,1,1,0,53,52,51,0,0,0,0,0,0,0,1,1,0,0,51,51,50,0,0,0,0,0,0,0,0,0,0,0,0,0,0,1,1,0,0,51,51,50,0,0,0,0,0,0,0,0,0,0,0,0,0,0,0,0,0,0,0,0,0,0,0,0,0,0,0,0,0.0,0.0,0.0,0.0,0,0,0.0,0,0.0,-1,0.0,,0,0.0,0.1722
10354,0,0.1726,,-0.01,0.02,-0.04,0,1,0,0.05,0.06,80,,,,,,,,,,,,,,,,,,,,,,,,,,,,,,,,,,,,,,,,,,,,,,,,,,,,,,,,,,,,,,,,,,,,,,,,,,,,,,,,,,,,,,,,,,,,,,,,,,,,,,,,,,,,,,,,,,,
10394,0,0.1732,,-0.01,0.02,-0.04,0,1,0,0.05,0.06,80,,,,,,,,,,,,,,,,,,,,,,,,,,,,,,,,,,,,,,,,,,,,,,,,,,,,,,,,,,,,,,,,,,,,,,,,,,,,,,,,,,,,,,,,,,,,,,,,,,,,,,,,,,,,,,,,,,,
10434,0,0.1739,12.46,-0.01,0.02,-0.04,-0,1,0,0.05,0.06,82,0,0,0,0,32,0,0,1,0,0,0,0,0,9,7,1,12,0,0,151,0,0,138,14,14,0,0,17,0,0,2,1,1,0,53,52,51,0,0,0,0,0,0,0,1,1,0,0,51,51,50,0,0,0,0,0,0,0,0,0,0,0,0,0,0,1,1,0,0,51,51,50,0,0,0,0,0,0,0,0,0,0,0,0,0,0,0,0,0,0,0,0,0,0,0,0,0,0,0,0,0.0,0.0,0.0,0.0,0,0,0.0,0,0.0,-1,0.0,0.0,0,0.0,0.1739
10474,0,0.1746,,-0.01,0.02,-0.04,0,1,0,0.05,0.06,82,,,,,,,,,,,,,,,,,,,,,,,,,,,,,,,,,,,,,,,,,,,,,,,,,,,,,,,,,,,,,,,,,,,,,,,,,,,,,,,,,,,,,,,,,,,,,,,,,,,,,,,,,,,,,,,,,,,
