"Interval"|"ms"|0|0|1,"Utc"|"ms"|0|0|1,"ElapsedTime"|"Min"|0.0|0.0|10,"Battery"|"Volts"|0.0|20.0|1,"AccelX"|"G"|-3.0|3.0|25,"AccelY"|"G"|-3.0|3.0|25,"AccelZ"|"G"|-3.0|3.0|25,"Yaw"|"Deg/Sec"|-120|120|25,"Pitch"|"Deg/Sec"|-120|120|25,"Roll"|"Deg/Sec"|-120|120|25,"Gsum"|"G"|0.0|3.0|25,"GsumMax"|"G"|0.0|3.0|25,"GsumPct"|"%"|0|100|25,"INV_Command"|""|-3277|3277|10,"VCU_INV_Inv"|""|0|1|10,"VCU_INV_Tor"|""|-3277|3277|10,"INV_Run_Fau"|""|0|65535|10,"INV_Post_Fa"|""|0|65535|10,"INV_Run_Fau"|""|0|65535|10,"INV_Post_Fa"|""|0|65535|10,"INV_Directi"|""|0|1|10,"INV_Inverte"|""|0|1|10,"INV_Relay_2"|""|0|1|10,"INV_Inverte"|""|0|1|10,"INV_Inverte"|""|0|1|10,"INV_Relay_1"|""|0|1|10,"INV_Inverte"|""|0|255|10,"INV_VSM_Sta"|""|0|15|10,"INV_Inverte"|""|0|1|10,"INV_PWM_Fre"|""|0|255|10,"INV_DC_Bus_"|""|-3277|3277|10,"INV_DC_Bus_"|""|-3277|3277|10,"INV_Delta_R"|""|-3277|3277|10,"INV_Motor_S"|""|-32768|32767|10,"INV_Torque_"|""|-3277|3277|10,"INV_Motor_T"|""|-3277|3277|10,"INV_Hot_Spo"|""|-3277|3277|10,"INV_Coolant"|""|-3277|3277|10,"INV_Fast_DC"|""|-3277|3277|10,"APPS1"|""|-32768|32767|10,"APPS2"|""|-32768|32767|10,"c_apps"|""|-32768|32767|10,"Faultcode"|""|0|4|10,"Multiplexor"|""|0|0|10,"BMS_1_1_Vol"|""|0|10|10,"BMS_1_1_Vol"|""|0|10|10,"BMS_1_1_Vol"|""|0|10|10,"BMS_1_1_Tem"|""|0|200|10,"BMS_1_1_Tem"|""|0|200|10,"BMS_1_1_Tem"|""|0|200|10,"Multiplexor"|""|0|0|10,"BMS_1_2_Vol"|""|0|10|10,"BMS_1_2_Vol"|""|0|10|10,"BMS_1_2_Vol"|""|0|10|10,"BMS_1_2_Tem"|""|0|200|10,"BMS_1_2_Tem"|""|0|200|10,"BMS_1_2_Tem"|""|0|200|10,"Multiplexor"|""|0|0|10,"BMS_2_1_Vol"|""|0|10|10,"BMS_2_1_Vol"|""|0|10|10,"BMS_2_1_Vol"|""|0|10|10,"BMS_2_1_Tem"|""|0|200|10,"BMS_2_1_Tem"|""|0|200|10,"BMS_2_1_Tem"|""|0|200|10,"Multiplexor"|""|0|0|10,"BMS_2_2_Vol"|""|0|10|10,"BMS_2_2_Vol"|""|0|10|10,"BMS_2_2_Vol"|""|0|10|10,"BMS_2_2_Tem"|""|0|200|10,"BMS_2_2_Tem"|""|0|200|10,"BMS_2_2_Tem"|""|0|200|10,"Multiplexor"|""|0|0|10,"BMS_3_1_Vol"|""|0|10|10,"BMS_3_1_Vol"|""|0|10|10,"BMS_3_1_Vol"|""|0|10|10,"BMS_3_1_Tem"|""|0|200|10,"BMS_3_1_Tem"|""|0|200|10,"BMS_3_1_Tem"|""|0|200|10,"Multiplexor"|""|0|0|10,"BMS_3_2_Vol"|""|0|10|10,"BMS_3_2_Vol"|""|0|10|10,"BMS_3_2_Vol"|""|0|10|10,"BMS_3_2_Tem"|""|0|200|10,"BMS_3_2_Tem"|""|0|200|10,"BMS_3_2_Tem"|""|0|200|10,"Multiplexor"|""|0|0|10,"BMS_4_1_Vol"|""|0|10|10,"BMS_4_1_Vol"|""|0|10|10,"BMS_4_1_Vol"|""|0|10|10,"BMS_4_1_Tem"|""|0|200|10,"BMS_4_1_Tem"|""|0|200|10,"BMS_4_1_Tem"|""|0|200|10,"Multiplexor"|""|0|0|10,"BMS_4_2_Vol"|""|0|10|10,"BMS_4_2_Vol"|""|0|10|10,"BMS_4_2_Vol"|""|0|10|10,"BMS_4_2_Tem"|""|0|200|10,"BMS_4_2_Tem"|""|0|200|10,"BMS_4_2_Tem"|""|0|200|10,"HS_MaxVolta"|""|0|655|10,"HS_MinVolta"|""|0|655|10,"HS_AverageV"|""|0|655|10,"HS_MaxTemp"|""|0|6553|10,"HS_MinTemp"|""|0|6553|10,"HS_AverageT"|""|0|6553|10,"HS_MaxTemp"|""|0|6553|10,"HS_MinTemp"|""|0|6553|10,"HS_AverageT"|""|0|6553|10,"HS_MaxTemp"|""|0|6553|10,"HS_MinTemp"|""|0|6553|10,"HS_AverageT"|""|0|6553|10,"HS_MaxTemp"|""|0|6553|10,"HS_MinTemp"|""|0|6553|10,"Latitude"|"Degrees"|-180.0|180.0|10,"Longitude"|"Degrees"|-180.0|180.0|10,"Speed"|"mph"|0.0|150.0|10,"Altitude"|"ft"|0.0|4000.0|10,"GPSSats"|""|0|20|10,"GPSQual"|""|0|5|10,"GPSDOP"|""|0.0|20.0|10,"LapCount"|""|0|0|10,"LapTime"|"Min"|0.0|0.0|10,"Sector"|""|0|0|10,"SectorTime"|"Min"|0.0|0.0|10,"PredTime"|"Min"|0.0|0.0|5,"CurrentLap"|""|0|0|10,"Distance"|"mi"|0.0|0.0|10,"SessionTime"|"Min"|0.0|0.0|10
1646,0,0.0274,,-0.01,0.03,-0.04,-0,1,-0,0.06,0.06,94,,,,,,,,,,,,,,,,,,,,,,,,,,,,,,,,,,,,,,,,,,,,,,,,,,,,,,,,,,,,,,,,,,,,,,,,,,,,,,,,,,,,,,,,,,,,,,,,,,,,,,,,,,,,,,,,,,,
1686,0,0.0281,,-0.01,0.03,-0.04,-0,0,-0,0.05,0.06,93,,,,,,,,,,,,,,,,,,,,,,,,,,,,,,,,,,,,,,,,,,,,,,,,,,,,,,,,,,,,,,,,,,,,,,,,,,,,,,,,,,,,,,,,,,,,,,,,,,,,,,,,,,,,,,,,,,,
1706,0,0.0284,,,,,,,,,,,0,0,0,0,0,0,0,1,0,0,0,0,1,9,2,1,12,0,0,-16,0,0,138,3,3,0,0,0,0,0,0,0,0,0,0,0,0,0,0,0,0,0,0,0,2,1,1,0,59,58,55,0,0,0,0,0,0,0,0,0,0,0,0,0,0,0,4,4,4,1,382,382,0,0,0,0,0,0,0,0,0,0,0,0,0,0,0,0,0,0,0,0,0,0,0,0,0,0,0,0,0.0,0.0,0.0,0.0,0,0,0.0,0,0.0,-1,0.0,,0,0.0,0.0284
1726,0,0.0288,,-0.01,0.03,-0.04,-0,0,-0,0.05,0.06,90,,,,,,,,,,,,,,,,,,,,,,,,,,,,,,,,,,,,,,,,,,,,,,,,,,,,,,,,,,,,,,,,,,,,,,,,,,,,,,,,,,,,,,,,,,,,,,,,,,,,,,,,,,,,,,,,,,,
1766,0,0.0294,,-0.01,0.03,-0.04,-0,0,-0,0.05,0.06,89,,,,,,,,,,,,,,,,,,,,,,,,,,,,,,,,,,,,,,,,,,,,,,,,,,,,,,,,,,,,,,,,,,,,,,,,,,,,,,,,,,,,,,,,,,,,,,,,,,,,,,,,,,,,,,,,,,,
1806,0,0.0301,,-0.01,0.03,-0.04,-0,0,-0,0.05,0.06,86,0,0,0,0,0,0,0,1,0,0,0,0,1,9,2,1,12,0,0,-16,0,0,138,3,3,0,0,0,0,0,0,0,0,0,0,0,0,0,0,0,0,0,0,0,2,1,1,0,59,58,55,0,0,0,0,0,0,0,0,0,0,0,0,0,0,0,4,4,4,1,382,382,0,0,0,0,0,0,0,0,0,0,0,0,0,0,0,0,0,0,0,0,0,0,0,0,0,0,0,0,0.0,0.0,0.0,0.0,0,0,0.0,0,0.0,-1,0.0,0.0,0,0.0,0.0301
1846,0,0.0308,,-0.01,0.03,-0.04,-0,0,-0,0.05,0.06,87,,,,,,,,,,,,,,,,,,,,,,,,,,,,,,,,,,,,,,,,,,,,,,,,,,,,,,,,,,,,,,,,,,,,,,,,,,,,,,,,,,,,,,,,,,,,,,,,,,,,,,,,,,,,,,,,,,,
1886,0,0.0314,,-0.01,0.03,-0.04,-0,0,-0,0.05,0.06,87,,,,,,,,,,,,,,,,,,,,,,,,,,,,,,,,,,,,,,,,,,,,,,,,,,,,,,,,,,,,,,,,,,,,,,,,,,,,,,,,,,,,,,,,,,,,,,,,,,,,,,,,,,,,,,,,,,,
1906,0,0.0318,,,,,,,,,,,0,0,0,0,0,0,0,1,0,0,0,0,1,9,2,1,12,0,0,-16,0,0,138,4,4,0,0,0,0,0,0,0,0,0,0,0,0,0,0,0,0,0,0,0,2,1,1,0,59,58,55,0,0,0,0,0,0,0,0,0,0,0,0,0,0,0,4,4,4,1,382,382,0,0,0,0,0,0,0,0,0,0,0,0,0,0,0,0,0,0,0,0,0,0,0,0,0,0,0,0,0.0,0.0,0.0,0.0,0,0,0.0,0,0.0,-1,0.0,,0,0.0,0.0318
1926,0,0.0321,,-0.01,0.03,-0.04,-0,0,-0,0.05,0.06,86,,,,,,,,,,,,,,,,,,,,,,,,,,,,,,,,,,,,,,,,,,,,,,,,,,,,,,,,,,,,,,,,,,,,,,,,,,,,,,,,,,,,,,,,,,,,,,,,,,,,,,,,,,,,,,,,,,,
1966,0,0.0328,,-0.01,0.03,-0.04,-0,0,-0,0.05,0.06,90,,,,,,,,,,,,,,,,,,,,,,,,,,,,,,,,,,,,,,,,,,,,,,,,,,,,,,,,,,,,,,,,,,,,,,,,,,,,,,,,,,,,,,,,,,,,,,,,,,,,,,,,,,,,,,,,,,,
2006,0,0.0334,,-0.01,0.03,-0.04,-0,0,-0,0.05,0.06,89,0,0,0,0,0,0,0,1,0,0,0,0,1,9,2,1,12,0,0,-16,0,0,138,4,4,0,0,0,0,0,0,0,0,0,0,0,0,0,0,0,0,0,0,0,2,1,1,0,59,58,55,0,0,0,0,0,0,0,0,0,0,0,0,0,0,0,4,4,4,1,382,382,0,0,0,0,0,0,0,0,0,0,0,0,0,0,0,0,0,0,0,0,0,0,0,0,0,0,0,0,0.0,0.0,0.0,0.0,0,0,0.0,0,0.0,-1,0.0,0.0,0,0.0,0.0334
2046,0,0.0341,,-0.01,0.03,-0.04,-0,0,-0,0.05,0.06,90,,,,,,,,,,,,,,,,,,,,,,,,,,,,,,,,,,,,,,,,,,,,,,,,,,,,,,,,,,,,,,,,,,,,,,,,,,,,,,,,,,,,,,,,,,,,,,,,,,,,,,,,,,,,,,,,,,,
2086,0,0.0348,,-0.01,0.03,-0.04,-0,0,-0,0.05,0.06,89,,,,,,,,,,,,,,,,,,,,,,,,,,,,,,,,,,,,,,,,,,,,,,,,,,,,,,,,,,,,,,,,,,,,,,,,,,,,,,,,,,,,,,,,,,,,,,,,,,,,,,,,,,,,,,,,,,,
2106,0,0.0351,,,,,,,,,,,0,0,0,0,0,0,0,1,0,0,0,0,1,9,2,1,12,0,0,-16,0,0,138,4,4,0,0,0,0,0,0,0,0,0,0,0,0,0,0,0,0,0,0,0,2,1,1,0,59,58,55,0,0,0,0,0,0,0,0,0,0,0,0,0,0,0,4,4,4,1,382,382,0,0,0,0,0,0,0,0,0,0,0,0,0,0,0,0,0,0,0,0,0,0,0,0,0,0,0,0,0.0,0.0,0.0,0.0,0,0,0.0,0,0.0,-1,0.0,,0,0.0,0.0351
2126,0,0.0354,,-0.01,0.03,-0.04,-0,0,-0,0.05,0.06,92,,,,,,,,,,,,,,,,,,,,,,,,,,,,,,,,,,,,,,,,,,,,,,,,,,,,,,,,,,,,,,,,,,,,,,,,,,,,,,,,,,,,,,,,,,,,,,,,,,,,,,,,,,,,,,,,,,,
2166,0,0.0361,,-0.01,0.03,-0.04,-0,0,-0,0.05,0.06,89,,,,,,,,,,,,,,,,,,,,,,,,,,,,,,,,,,,,,,,,,,,,,,,,,,,,,,,,,,,,,,,,,,,,,,,,,,,,,,,,,,,,,,,,,,,,,,,,,,,,,,,,,,,,,,,,,,,
2206,0,0.0368,,-0.01,0.03,-0.04,-0,0,-0,0.05,0.06,91,0,0,0,0,0,0,0,1,0,0,0,0,1,9,2,1,12,0,0,-16,0,0,138,4,4,0,0,0,0,0,0,0,0,0,0,0,0,0,0,0,0,0,0,0,2,1,1,0,59,58,55,0,0,0,0,0,0,0,0,0,0,0,0,0,0,0,4,4,4,1,382,382,0,0,0,0,0,0,0,0,0,0,0,0,0,0,0,0,0,0,0,0,0,0,0,0,0,0,0,0,0.0,0.0,0.0,0.0,0,0,0.0,0,0.0,-1,0.0,0.0,0,0.0,0.0368
2246,0,0.0374,,-0.01,0.03,-0.04,-0,0,-0,0.05,0.06,89,,,,,,,,,,,,,,,,,,,,,,,,,,,,,,,,,,,,,,,,,,,,,,,,,,,,,,,,,,,,,,,,,,,,,,,,,,,,,,,,,,,,,,,,,,,,,,,,,,,,,,,,,,,,,,,,,,,
2286,0,0.0381,,-0.01,0.03,-0.04,-0,0,-0,0.05,0.06,88,,,,,,,,,,,,,,,,,,,,,,,,,,,,,,,,,,,,,,,,,,,,,,,,,,,,,,,,,,,,,,,,,,,,,,,,,,,,,,,,,,,,,,,,,,,,,,,,,,,,,,,,,,,,,,,,,,,
2306,0,0.0384,,,,,,,,,,,0,0,0,0,0,0,0,1,0,0,0,0,1,9,2,1,12,0,0,-16,0,0,138,5,5,0,0,0,0,0,0,0,0,0,0,0,0,0,0,0,0,0,0,0,2,1,1,0,59,58,55,0,0,0,0,0,0,0,0,0,0,0,0,0,0,0,4,4,4,1,382,382,0,0,0,0,0,0,0,0,0,0,0,0,0,0,0,0,0,0,0,0,0,0,0,0,0,0,0,0,0.0,0.0,0.0,0.0,0,0,0.0,0,0.0,-1,0.0,,0,0.0,0.0384
2326,0,0.0388,,-0.01,0.03,-0.04,-0,0,-0,0.05,0.06,89,,,,,,,,,,,,,,,,,,,,,,,,,,,,,,,,,,,,,,,,,,,,,,,,,,,,,,,,,,,,,,,,,,,,,,,,,,,,,,,,,,,,,,,,,,,,,,,,,,,,,,,,,,,,,,,,,,,
2366,0,0.0394,,-0.01,0.03,-0.04,-0,0,-0,0.05,0.06,89,,,,,,,,,,,,,,,,,,,,,,,,,,,,,,,,,,,,,,,,,,,,,,,,,,,,,,,,,,,,,,,,,,,,,,,,,,,,,,,,,,,,,,,,,,,,,,,,,,,,,,,,,,,,,,,,,,,
2406,0,0.0401,12.07,-0.01,0.03,-0.04,-0,1,-0,0.05,0.06,88,0,0,0,0,0,0,0,1,0,0,0,0,1,9,2,1,12,0,0,-16,0,0,138,5,5,0,0,0,0,0,0,0,0,0,0,0,0,0,0,0,0,0,0,0,2,1,1,0,59,58,55,0,0,0,0,0,0,0,0,0,0,0,0,0,0,0,4,4,4,1,382,382,0,0,0,0,0,0,0,0,0,0,0,0,0,0,0,0,0,0,0,0,0,0,0,0,0,0,0,0,0.0,0.0,0.0,0.0,0,0,0.0,0,0.0,-1,0.0,0.0,0,0.0,0.0401
2446,0,0.0408,,-0.01,0.03,-0.04,-0,1,-0,0.05,0.06,87,,,,,,,,,,,,,,,,,,,,,,,,,,,,,,,,,,,,,,,,,,,,,,,,,,,,,,,,,,,,,,,,,,,,,,,,,,,,,,,,,,,,,,,,,,,,,,,,,,,,,,,,,,,,,,,,,,,
2486,0,0.0414,,-0.01,0.03,-0.04,-0,1,-0,0.05,0.06,87,,,,,,,,,,,,,,,,,,,,,,,,,,,,,,,,,,,,,,,,,,,,,,,,,,,,,,,,,,,,,,,,,,,,,,,,,,,,,,,,,,,,,,,,,,,,,,,,,,,,,,,,,,,,,,,,,,,
2506,0,0.0418,,,,,,,,,,,0,0,0,0,0,0,0,1,0,0,0,0,1,9,2,1,12,0,0,-16,0,0,138,5,5,0,0,0,0,0,0,0,0,0,0,0,0,0,0,0,0,0,0,0,2,1,1,0,59,58,55,0,0,0,0,0,0,0,0,0,0,0,0,0,0,2,1,1,0,59,58,57,0,0,0,0,0,0,0,0,0,0,0,0,0,0,0,0,0,0,0,0,0,0,0,0,0,0,0,0,0.0,0.0,0.0,0.0,0,0,0.0,0,0.0,-1,0.0,,0,0.0,0.0418
2526,0,0.0421,,-0.01,0.03,-0.04,-0,0,-0,0.05,0.06,87,,,,,,,,,,,,,,,,,,,,,,,,,,,,,,,,,,,,,,,,,,,,,,,,,,,,,,,,,,,,,,,,,,,,,,,,,,,,,,,,,,,,,,,,,,,,,,,,,,,,,,,,,,,,,,,,,,,
2566,0,0.0428,,-0.01,0.03,-0.04,-0,0,-0,0.05,0.06,88,,,,,,,,,,,,,,,,,,,,,,,,,,,,,,,,,,,,,,,,,,,,,,,,,,,,,,,,,,,,,,,,,,,,,,,,,,,,,,,,,,,,,,,,,,,,,,,,,,,,,,,,,,,,,,,,,,,
2606,0,0.0434,,-0.01,0.03,-0.04,-0,0,-0,0.05,0.06,87,0,0,0,0,0,0,0,1,0,0,0,0,1,9,2,1,12,0,0,-16,0,0,138,5,5,0,0,0,0,0,0,0,0,0,0,0,0,0,0,0,0,0,0,0,2,1,1,0,59,58,55,0,0,0,0,0,0,0,0,0,0,0,0,0,0,2,1,1,0,59,58,57,0,0,0,0,0,0,0,0,0,0,0,0,0,0,0,0,0,0,0,0,0,0,0,0,0,0,0,0,0.0,0.0,0.0,0.0,0,0,0.0,0,0.0,-1,0.0,0.0,0,0.0,0.0434
2646,0,0.0441,,-0.01,0.03,-0.04,-0,0,-0,0.05,0.06,88,,,,,,,,,,,,,,,,,,,,,,,,,,,,,,,,,,,,,,,,,,,,,,,,,,,,,,,,,,,,,,,,,,,,,,,,,,,,,,,,,,,,,,,,,,,,,,,,,,,,,,,,,,,,,,,,,,,
2686,0,0.0448,,-0.01,0.03,-0.04,-0,0,-0,0.05,0.06,87,,,,,,,,,,,,,,,,,,,,,,,,,,,,,,,,,,,,,,,,,,,,,,,,,,,,,,,,,,,,,,,,,,,,,,,,,,,,,,,,,,,,,,,,,,,,,,,,,,,,,,,,,,,,,,,,,,,
2706,0,0.0451,,,,,,,,,,,0,0,0,0,0,0,0,1,0,0,0,0,1,9,2,1,12,0,0,-16,0,0,138,6,6,0,0,0,0,0,0,0,0,0,0,0,0,0,0,0,0,0,0,0,2,1,1,0,59,58,55,0,0,0,0,0,0,0,0,0,0,0,0,0,0,2,1,1,0,59,58,57,0,0,0,0,0,0,0,0,0,0,0,0,0,0,0,0,0,0,0,0,0,0,0,0,0,0,0,0,0.0,0.0,0.0,0.0,0,0,0.0,0,0.0,-1,0.0,,0,0.0,0.0451
2726,0,0.0454,,-0.01,0.03,-0.04,-0,0,-0,0.05,0.06,87,,,,,,,,,,,,,,,,,,,,,,,,,,,,,,,,,,,,,,,,,,,,,,,,,,,,,,,,,,,,,,,,,,,,,,,,,,,,,,,,,,,,,,,,,,,,,,,,,,,,,,,,,,,,,,,,,,,
2766,0,0.0461,,-0.01,0.03,-0.04,-0,1,-0,0.05,0.06,88,,,,,,,,,,,,,,,,,,,,,,,,,,,,,,,,,,,,,,,,,,,,,,,,,,,,,,,,,,,,,,,,,,,,,,,,,,,,,,,,,,,,,,,,,,,,,,,,,,,,,,,,,,,,,,,,,,,
2806,0,0.0468,,-0.01,0.03,-0.04,-0,1,-0,0.05,0.06,88,0,0,0,0,0,0,0,1,0,0,0,0,1,9,2,1,12,0,0,-16,0,0,138,6,6,0,0,0,0,0,0,0,0,0,0,0,0,0,0,0,0,0,0,0,2,1,1,0,59,58,55,0,0,0,0,0,0,0,0,0,0,0,0,0,0,2,1,1,0,59,58,57,0,0,0,0,0,0,0,0,0,0,0,0,0,0,0,0,0,0,0,0,0,0,0,0,0,0,0,0,0.0,0.0,0.0,0.0,0,0,0.0,0,0.0,-1,0.0,0.0,0,0.0,0.0468
2846,0,0.0474,,-0.01,0.03,-0.04,-0,0,-0,0.05,0.06,87,,,,,,,,,,,,,,,,,,,,,,,,,,,,,,,,,,,,,,,,,,,,,,,,,,,,,,,,,,,,,,,,,,,,,,,,,,,,,,,,,,,,,,,,,,,,,,,,,,,,,,,,,,,,,,,,,,,
2886,0,0.0481,,-0.01,0.03,-0.04,-0,0,-0,0.05,0.06,87,,,,,,,,,,,,,,,,,,,,,,,,,,,,,,,,,,,,,,,,,,,,,,,,,,,,,,,,,,,,,,,,,,,,,,,,,,,,,,,,,,,,,,,,,,,,,,,,,,,,,,,,,,,,,,,,,,,
2906,0,0.0484,,,,,,,,,,,0,0,0,0,0,0,0,1,0,0,0,0,1,9,2,1,12,0,0,-16,0,0,138,6,6,0,0,0,0,0,0,0,0,0,0,0,0,0,0,0,0,0,0,0,2,1,1,0,59,58,55,0,0,0,0,0,0,0,0,0,0,0,0,0,0,2,1,1,0,59,58,57,0,0,0,0,0,0,0,0,0,0,0,0,0,0,0,0,0,0,0,0,0,0,0,0,0,0,0,0,0.0,0.0,0.0,0.0,0,0,0.0,0,0.0,-1,0.0,,0,0.0,0.0484
2926,0,0.0488,,-0.01,0.03,-0.04,-0,0,0,0.05,0.06,88,,,,,,,,,,,,,,,,,,,,,,,,,,,,,,,,,,,,,,,,,,,,,,,,,,,,,,,,,,,,,,,,,,,,,,,,,,,,,,,,,,,,,,,,,,,,,,,,,,,,,,,,,,,,,,,,,,,
2966,0,0.0494,,-0.01,0.03,-0.04,-0,0,0,0.05,0.06,90,,,,,,,,,,,,,,,,,,,,,,,,,,,,,,,,,,,,,,,,,,,,,,,,,,,,,,,,,,,,,,,,,,,,,,,,,,,,,,,,,,,,,,,,,,,,,,,,,,,,,,,,,,,,,,,,,,,
3006,0,0.0501,,-0.01,0.03,-0.04,-0,0,0,0.05,0.06,89,0,0,0,0,0,0,0,1,0,0,0,0,1,9,2,1,12,0,0,-16,0,0,138,6,6,0,0,0,0,0,2,1,1,0,60,59,59,0,0,0,0,0,0,0,2,1,1,0,59,58,55,0,0,0,0,0,0,0,0,0,0,0,0,0,0,2,1,1,0,59,58,57,0,0,0,0,0,0,0,0,0,0,0,0,0,0,0,0,0,0,0,0,0,0,0,0,0,0,0,0,0.0,0.0,0.0,0.0,0,0,0.0,0,0.0,-1,0.0,0.0,0,0.0,0.0501
3046,0,0.0508,,-0.01,0.03,-0.04,-0,0,0,0.05,0.06,88,,,,,,,,,,,,,,,,,,,,,,,,,,,,,,,,,,,,,,,,,,,,,,,,,,,,,,,,,,,,,,,,,,,,,,,,,,,,,,,,,,,,,,,,,,,,,,,,,,,,,,,,,,,,,,,,,,,
3086,0,0.0514,,-0.01,0.03,-0.04,-0,1,-0,0.05,0.06,89,,,,,,,,,,,,,,,,,,,,,,,,,,,,,,,,,,,,,,,,,,,,,,,,,,,,,,,,,,,,,,,,,,,,,,,,,,,,,,,,,,,,,,,,,,,,,,,,,,,,,,,,,,,,,,,,,,,
3106,0,0.0518,,,,,,,,,,,0,0,0,0,0,0,0,1,0,0,0,0,1,9,2,1,12,0,0,-16,0,0,138,7,7,0,0,0,0,0,2,1,1,0,60,59,59,0,0,0,0,0,0,0,2,1,1,0,59,58,55,0,0,0,0,0,0,0,0,0,0,0,0,0,0,2,1,1,0,59,58,57,0,0,0,0,0,0,0,0,0,0,0,0,0,0,0,0,0,0,0,0,0,0,0,0,0,0,0,0,0.0,0.0,0.0,0.0,0,0,0.0,0,0.0,-1,0.0,,0,0.0,0.0518
3126,0,0.0521,,-0.01,0.03,-0.04,-0,1,-0,0.05,0.06,88,,,,,,,,,,,,,,,,,,,,,,,,,,,,,,,,,,,,,,,,,,,,,,,,,,,,,,,,,,,,,,,,,,,,,,,,,,,,,,,,,,,,,,,,,,,,,,,,,,,,,,,,,,,,,,,,,,,
3166,0,0.0528,,-0.01,0.03,-0.04,-0,0,-0,0.05,0.06,87,,,,,,,,,,,,,,,,,,,,,,,,,,,,,,,,,,,,,,,,,,,,,,,,,,,,,,,,,,,,,,,,,,,,,,,,,,,,,,,,,,,,,,,,,,,,,,,,,,,,,,,,,,,,,,,,,,,
3206,0,0.0534,,-0.01,0.03,-0.04,-0,1,-0,0.05,0.06,86,0,0,0,0,0,0,0,1,0,0,0,0,1,9,2,1,12,0,0,-16,0,0,138,7,7,0,0,0,0,0,2,1,1,0,60,59,59,0,0,0,0,0,0,0,0,4,4,4,0,382,381,0,0,0,0,0,0,0,0,0,0,0,0,0,0,2,1,1,0,59,58,57,0,0,0,0,0,0,0,0,0,0,0,0,0,0,0,0,0,0,0,0,0,0,0,0,0,0,0,0,0.0,0.0,0.0,0.0,0,0,0.0,0,0.0,-1,0.0,0.0,0,0.0,0.0534
3246,0,0.0541,,-0.01,0.03,-0.04,-0,1,-0,0.05,0.06,87,,,,,,,,,,,,,,,,,,,,,,,,,,,,,,,,,,,,,,,,,,,,,,,,,,,,,,,,,,,,,,,,,,,,,,,,,,,,,,,,,,,,,,,,,,,,,,,,,,,,,,,,,,,,,,,,,,,
3286,0,0.0548,,-0.01,0.03,-0.04,-0,0,0,0.05,0.06,86,,,,,,,,,,,,,,,,,,,,,,,,,,,,,,,,,,,,,,,,,,,,,,,,,,,,,,,,,,,,,,,,,,,,,,,,,,,,,,,,,,,,,,,,,,,,,,,,,,,,,,,,,,,,,,,,,,,
3306,0,0.0551,,,,,,,,,,,0,0,0,0,32,0,0,1,0,0,0,0,0,9,7,1,12,0,0,-16,0,0,138,7,7,0,0,0,0,0,2,1,1,0,60,59,59,0,0,0,0,0,0,0,0,4,4,4,0,382,381,0,0,0,0,0,0,0,0,0,0,0,0,0,0,2,1,1,0,59,58,57,0,0,0,0,0,0,0,0,0,0,0,0,0,0,0,0,0,0,0,0,0,0,0,0,0,0,0,0,0.0,0.0,0.0,0.0,0,0,0.0,0,0.0,-1,0.0,,0,0.0,0.0551
3326,0,0.0554,,-0.01,0.03,-0.04,-0,0,0,0.05,0.06,84,,,,,,,,,,,,,,,,,,,,,,,,,,,,,,,,,,,,,,,,,,,,,,,,,,,,,,,,,,,,,,,,,,,,,,,,,,,,,,,,,,,,,,,,,,,,,,,,,,,,,,,,,,,,,,,,,,,
3366,0,0.0561,,-0.01,0.03,-0.04,-0,0,-0,0.05,0.06,84,,,,,,,,,,,,,,,,,,,,,,,,,,,,,,,,,,,,,,,,,,,,,,,,,,,,,,,,,,,,,,,,,,,,,,,,,,,,,,,,,,,,,,,,,,,,,,,,,,,,,,,,,,,,,,,,,,,
3406,0,0.0568,12.05,-0.01,0.03,-0.04,-0,0,-0,0.05,0.06,88,0,0,0,0,32,0,0,1,0,0,0,0,0,9,7,1,12,0,0,-16,0,0,138,7,7,0,0,0,0,0,2,1,1,0,60,59,59,0,0,0,0,0,0,0,0,4,4,4,0,382,381,0,0,0,0,0,0,0,0,0,0,0,0,0,0,2,1,1,0,59,58,57,0,0,0,0,0,0,0,0,0,0,0,0,0,0,0,0,0,0,0,0,0,0,0,0,0,0,0,0,0.0,0.0,0.0,0.0,0,0,0.0,0,0.0,-1,0.0,0.0,0,0.0,0.0568
3446,0,0.0574,,-0.01,0.03,-0.04,-0,0,-0,0.05,0.06,86,,,,,,,,,,,,,,,,,,,,,,,,,,,,,,,,,,,,,,,,,,,,,,,,,,,,,,,,,,,,,,,,,,,,,,,,,,,,,,,,,,,,,,,,,,,,,,,,,,,,,,,,,,,,,,,,,,,
3486,0,0.0581,,-0.01,0.03,-0.04,-0,0,-0,0.05,0.06,85,,,,,,,,,,,,,,,,,,,,,,,,,,,,,,,,,,,,,,,,,,,,,,,,,,,,,,,,,,,,,,,,,,,,,,,,,,,,,,,,,,,,,,,,,,,,,,,,,,,,,,,,,,,,,,,,,,,
3506,0,0.0584,,,,,,,,,,,0,0,0,0,32,0,0,1,0,0,0,0,0,9,7,1,12,0,0,-16,0,0,138,8,8,0,0,0,0,0,2,1,1,0,60,59,59,0,0,0,0,0,0,0,0,4,4,4,0,382,381,0,0,0,0,0,0,0,0,0,0,0,0,0,0,2,1,1,0,59,58,57,0,0,0,0,0,0,0,0,0,0,0,0,0,0,0,0,0,0,0,0,0,0,0,0,0,0,0,0,0.0,0.0,0.0,0.0,0,0,0.0,0,0.0,-1,0.0,,0,0.0,0.0584
3526,0,0.0588,,-0.01,0.03,-0.04,-0,0,0,0.05,0.06,84,,,,,,,,,,,,,,,,,,,,,,,,,,,,,,,,,,,,,,,,,,,,,,,,,,,,,,,,,,,,,,,,,,,,,,,,,,,,,,,,,,,,,,,,,,,,,,,,,,,,,,,,,,,,,,,,,,,
3566,0,0.0594,,-0.01,0.03,-0.04,-0,0,-0,0.05,0.06,85,,,,,,,,,,,,,,,,,,,,,,,,,,,,,,,,,,,,,,,,,,,,,,,,,,,,,,,,,,,,,,,,,,,,,,,,,,,,,,,,,,,,,,,,,,,,,,,,,,,,,,,,,,,,,,,,,,,
3606,0,0.0601,,-0.01,0.03,-0.04,-0,0,-0,0.05,0.06,86,0,0,0,0,32,0,0,1,0,0,0,0,0,9,7,1,12,0,0,-16,0,0,138,8,8,0,0,0,0,0,2,1,1,0,60,59,59,0,0,0,0,0,0,0,0,4,4,4,0,382,381,0,0,0,0,0,0,0,0,0,0,0,0,0,0,2,1,1,0,59,58,57,0,0,0,0,0,0,0,0,0,0,0,0,0,0,0,0,0,0,0,0,0,0,0,0,0,0,0,0,0.0,0.0,0.0,0.0,0,0,0.0,0,0.0,-1,0.0,0.0,0,0.0,0.0601
3646,0,0.0608,,-0.01,0.03,-0.04,-0,0,-0,0.05,0.06,89,,,,,,,,,,,,,,,,,,,,,,,,,,,,,,,,,,,,,,,,,,,,,,,,,,,,,,,,,,,,,,,,,,,,,,,,,,,,,,,,,,,,,,,,,,,,,,,,,,,,,,,,,,,,,,,,,,,
3686,0,0.0614,,-0.01,0.03,-0.04,-0,0,-0,0.05,0.06,89,,,,,,,,,,,,,,,,,,,,,,,,,,,,,,,,,,,,,,,,,,,,,,,,,,,,,,,,,,,,,,,,,,,,,,,,,,,,,,,,,,,,,,,,,,,,,,,,,,,,,,,,,,,,,,,,,,,
3706,0,0.0618,,,,,,,,,,,0,0,0,0,32,0,0,1,0,0,0,0,0,9,7,1,12,0,0,-16,0,0,138,8,8,0,0,0,0,0,2,1,1,0,60,59,59,0,0,0,0,0,0,0,0,4,4,4,0,382,381,0,0,0,0,0,0,0,0,0,0,0,0,0,0,2,1,1,0,59,58,57,0,0,0,0,0,0,0,0,0,0,0,0,0,0,0,0,0,0,0,0,0,0,0,0,0,0,0,0,0.0,0.0,0.0,0.0,0,0,0.0,0,0.0,-1,0.0,,0,0.0,0.0618
3726,0,0.0621,,-0.01,0.03,-0.04,-0,0,-0,0.06,0.06,94,,,,,,,,,,,,,,,,,,,,,,,,,,,,,,,,,,,,,,,,,,,,,,,,,,,,,,,,,,,,,,,,,,,,,,,,,,,,,,,,,,,,,,,,,,,,,,,,,,,,,,,,,,,,,,,,,,,
3766,0,0.0628,,-0.01,0.03,-0.04,-0,0,-0,0.05,0.06,90,,,,,,,,,,,,,,,,,,,,,,,,,,,,,,,,,,,,,,,,,,,,,,,,,,,,,,,,,,,,,,,,,,,,,,,,,,,,,,,,,,,,,,,,,,,,,,,,,,,,,,,,,,,,,,,,,,,
3806,0,0.0634,,-0.01,0.03,-0.04,-0,0,-0,0.05,0.06,90,0,0,0,0,32,0,0,1,0,0,0,0,0,9,7,1,12,0,0,-16,0,0,138,8,8,0,0,0,0,0,2,1,1,0,60,59,59,0,0,0,0,0,0,0,0,4,4,4,0,382,381,0,0,0,0,0,0,0,0,0,0,0,0,0,0,2,1,1,0,59,58,57,0,0,0,0,0,0,0,0,0,0,0,0,0,0,0,0,0,0,0,0,0,0,0,0,0,0,0,0,0.0,0.0,0.0,0.0,0,0,0.0,0,0.0,-1,0.0,0.0,0,0.0,0.0634
3846,0,0.0641,,-0.01,0.03,-0.04,-0,0,0,0.05,0.06,88,,,,,,,,,,,,,,,,,,,,,,,,,,,,,,,,,,,,,,,,,,,,,,,,,,,,,,,,,,,,,,,,,,,,,,,,,,,,,,,,,,,,,,,,,,,,,,,,,,,,,,,,,,,,,,,,,,,
3886,0,0.0648,,-0.01,0.03,-0.04,-0,0,-0,0.05,0.06,88,,,,,,,,,,,,,,,,,,,,,,,,,,,,,,,,,,,,,,,,,,,,,,,,,,,,,,,,,,,,,,,,,,,,,,,,,,,,,,,,,,,,,,,,,,,,,,,,,,,,,,,,,,,,,,,,,,,
3906,0,0.0651,,,,,,,,,,,0,0,0,0,32,0,0,1,0,0,0,0,0,9,7,1,12,0,0,-16,0,0,138,8,8,0,0,0,0,0,2,1,1,0,60,59,59,0,0,0,0,0,0,0,0,4,4,4,0,382,381,0,0,0,0,0,0,0,0,0,0,0,0,0,0,2,1,1,0,59,58,57,0,0,0,0,0,0,0,0,0,0,0,0,0,0,0,0,0,0,0,0,0,0,0,0,0,0,0,0,0.0,0.0,0.0,0.0,0,0,0.0,0,0.0,-1,0.0,,0,0.0,0.0651
3926,0,0.0654,,-0.01,0.03,-0.04,-0,0,-0,0.05,0.06,90,,,,,,,,,,,,,,,,,,,,,,,,,,,,,,,,,,,,,,,,,,,,,,,,,,,,,,,,,,,,,,,,,,,,,,,,,,,,,,,,,,,,,,,,,,,,,,,,,,,,,,,,,,,,,,,,,,,
3966,0,0.0661,,-0.01,0.03,-0.04,-0,0,-0,0.05,0.06,91,,,,,,,,,,,,,,,,,,,,,,,,,,,,,,,,,,,,,,,,,,,,,,,,,,,,,,,,,,,,,,,,,,,,,,,,,,,,,,,,,,,,,,,,,,,,,,,,,,,,,,,,,,,,,,,,,,,
4006,0,0.0668,,-0.01,0.03,-0.04,-0,0,-0,0.05,0.06,90,0,0,0,0,32,0,0,1,0,0,0,0,0,9,7,1,12,0,0,-16,0,0,138,8,8,0,0,0,0,0,2,1,1,0,60,59,59,0,0,0,0,0,0,0,0,4,4,4,0,382,381,0,0,0,0,0,0,0,0,0,0,0,0,0,0,2,1,1,0,59,58,57,0,0,0,0,0,0,0,0,0,0,0,0,0,0,0,0,0,0,0,0,0,0,0,0,0,0,0,0,0.0,0.0,0.0,0.0,0,0,0.0,0,0.0,-1,0.0,0.0,0,0.0,0.0668
4046,0,0.0674,,-0.01,0.03,-0.04,-0,0,-0,0.05,0.06,88,,,,,,,,,,,,,,,,,,,,,,,,,,,,,,,,,,,,,,,,,,,,,,,,,,,,,,,,,,,,,,,,,,,,,,,,,,,,,,,,,,,,,,,,,,,,,,,,,,,,,,,,,,,,,,,,,,,
4086,0,0.0681,,-0.01,0.03,-0.04,-0,1,-0,0.05,0.06,89,,,,,,,,,,,,,,,,,,,,,,,,,,,,,,,,,,,,,,,,,,,,,,,,,,,,,,,,,,,,,,,,,,,,,,,,,,,,,,,,,,,,,,,,,,,,,,,,,,,,,,,,,,,,,,,,,,,
4106,0,0.0684,,,,,,,,,,,0,0,0,0,32,0,0,1,0,0,0,0,0,9,7,1,12,0,0,-16,0,0,138,8,8,0,0,0,0,0,2,1,1,0,60,59,59,0,0,0,0,0,0,0,0,4,4,4,0,382,381,0,0,0,0,0,0,0,0,0,0,0,0,0,0,2,1,1,0,59,58,57,0,0,0,0,0,0,0,0,0,0,0,0,0,0,0,0,0,0,0,0,0,0,0,0,0,0,0,0,0.0,0.0,0.0,0.0,0,0,0.0,0,0.0,-1,0.0,,0,0.0,0.0684
4126,0,0.0688,,-0.01,0.03,-0.04,-0,1,-0,0.05,0.06,89,,,,,,,,,,,,,,,,,,,,,,,,,,,,,,,,,,,,,,,,,,,,,,,,,,,,,,,,,,,,,,,,,,,,,,,,,,,,,,,,,,,,,,,,,,,,,,,,,,,,,,,,,,,,,,,,,,,
4166,0,0.0694,,-0.01,0.03,-0.04,-0,0,-0,0.05,0.06,89,,,,,,,,,,,,,,,,,,,,,,,,,,,,,,,,,,,,,,,,,,,,,,,,,,,,,,,,,,,,,,,,,,,,,,,,,,,,,,,,,,,,,,,,,,,,,,,,,,,,,,,,,,,,,,,,,,,
4206,0,0.0701,,-0.01,0.03,-0.04,-0,0,-0,0.05,0.06,89,0,0,0,0,32,0,0,1,0,0,0,0,0,9,7,1,12,0,0,-16,0,0,138,9,9,0,0,0,0,0,2,1,1,0,60,59,59,0,0,0,0,0,0,0,2,1,1,0,59,57,55,0,0,0,0,0,0,0,0,0,0,0,0,0,0,2,1,1,0,59,58,57,0,0,0,0,0,0,0,0,0,0,0,0,0,0,0,0,0,0,0,0,0,0,0,0,0,0,0,0,0.0,0.0,0.0,0.0,0,0,0.0,0,0.0,-1,0.0,0.0,0,0.0,0.0701
4246,0,0.0708,,-0.01,0.03,-0.04,-0,0,-0,0.05,0.06,89,,,,,,,,,,,,,,,,,,,,,,,,,,,,,,,,,,,,,,,,,,,,,,,,,,,,,,,,,,,,,,,,,,,,,,,,,,,,,,,,,,,,,,,,,,,,,,,,,,,,,,,,,,,,,,,,,,,
4286,0,0.0714,,-0.01,0.03,-0.04,-0,1,-0,0.05,0.06,89,,,,,,,,,,,,,,,,,,,,,,,,,,,,,,,,,,,,,,,,,,,,,,,,,,,,,,,,,,,,,,,,,,,,,,,,,,,,,,,,,,,,,,,,,,,,,,,,,,,,,,,,,,,,,,,,,,,
4306,0,0.0718,,,,,,,,,,,0,0,0,0,32,0,0,1,0,0,0,0,0,9,7,1,12,0,0,-16,0,0,138,9,9,0,0,0,0,0,2,1,1,0,60,59,59,0,0,0,0,0,0,0,2,1,1,0,59,57,55,0,0,0,0,0,0,0,0,0,0,0,0,0,0,2,1,1,0,59,58,57,0,0,0,0,0,0,0,0,0,0,0,0,0,0,0,0,0,0,0,0,0,0,0,0,0,0,0,0,0.0,0.0,0.0,0.0,0,0,0.0,0,0.0,-1,0.0,,0,0.0,0.0718
4326,0,0.0721,,-0.01,0.03,-0.04,-0,0,-0,0.05,0.06,90,,,,,,,,,,,,,,,,,,,,,,,,,,,,,,,,,,,,,,,,,,,,,,,,,,,,,,,,,,,,,,,,,,,,,,,,,,,,,,,,,,,,,,,,,,,,,,,,,,,,,,,,,,,,,,,,,,,
4366,0,0.0728,,-0.01,0.03,-0.04,-0,0,-0,0.05,0.06,89,,,,,,,,,,,,,,,,,,,,,,,,,,,,,,,,,,,,,,,,,,,,,,,,,,,,,,,,,,,,,,,,,,,,,,,,,,,,,,,,,,,,,,,,,,,,,,,,,,,,,,,,,,,,,,,,,,,
4406,0,0.0734,12.07,-0.01,0.03,-0.04,-0,0,-0,0.05,0.06,88,0,0,0,0,32,0,0,1,0,0,0,0,0,9,7,1,12,0,0,-16,0,0,138,9,9,0,0,0,0,0,2,1,1,0,60,59,59,0,0,0,0,0,0,0,2,1,1,0,59,57,55,0,0,0,0,0,0,0,0,0,0,0,0,0,0,2,1,1,0,59,58,57,0,0,0,0,0,0,0,0,0,0,0,0,0,0,0,0,0,0,0,0,0,0,0,0,0,0,0,0,0.0,0.0,0.0,0.0,0,0,0.0,0,0.0,-1,0.0,0.0,0,0.0,0.0734
4446,0,0.0741,,-0.01,0.03,-0.04,-0,0,-0,0.05,0.06,90,,,,,,,,,,,,,,,,,,,,,,,,,,,,,,,,,,,,,,,,,,,,,,,,,,,,,,,,,,,,,,,,,,,,,,,,,,,,,,,,,,,,,,,,,,,,,,,,,,,,,,,,,,,,,,,,,,,
4486,0,0.0748,,-0.01,0.03,-0.04,-0,0,0,0.05,0.06,90,,,,,,,,,,,,,,,,,,,,,,,,,,,,,,,,,,,,,,,,,,,,,,,,,,,,,,,,,,,,,,,,,,,,,,,,,,,,,,,,,,,,,,,,,,,,,,,,,,,,,,,,,,,,,,,,,,,
4506,0,0.0751,,,,,,,,,,,0,0,0,0,32,0,0,1,0,0,0,0,0,9,7,1,12,0,0,-16,0,0,138,9,9,0,0,0,0,0,2,1,1,0,60,59,59,0,0,0,0,0,0,0,2,1,1,0,59,57,55,0,0,0,0,0,0,0,0,0,0,0,0,0,0,0,4,4,4,1,382,382,0,0,0,0,0,0,0,0,0,0,0,0,0,0,0,0,0,0,0,0,0,0,0,0,0,0,0,0,0.0,0.0,0.0,0.0,0,0,0.0,0,0.0,-1,0.0,,0,0.0,0.0751
4526,0,0.0754,,-0.01,0.03,-0.04,-0,0,-0,0.05,0.06,87,,,,,,,,,,,,,,,,,,,,,,,,,,,,,,,,,,,,,,,,,,,,,,,,,,,,,,,,,,,,,,,,,,,,,,,,,,,,,,,,,,,,,,,,,,,,,,,,,,,,,,,,,,,,,,,,,,,
4566,0,0.0761,,-0.01,0.03,-0.04,-0,0,-0,0.05,0.06,90,,,,,,,,,,,,,,,,,,,,,,,,,,,,,,,,,,,,,,,,,,,,,,,,,,,,,,,,,,,,,,,,,,,,,,,,,,,,,,,,,,,,,,,,,,,,,,,,,,,,,,,,,,,,,,,,,,,
4606,0,0.0768,,-0.01,0.03,-0.04,-0,1,-0,0.05,0.06,87,0,0,0,0,32,0,0,1,0,0,0,0,0,9,7,1,12,0,0,-16,0,0,138,10,10,0,0,0,0,0,2,1,1,0,60,59,59,0,0,0,0,0,0,0,2,1,1,0,59,57,55,0,0,0,0,0,0,0,0,0,0,0,0,0,0,0,4,4,4,1,382,382,0,0,0,0,0,0,0,0,0,0,0,0,0,0,0,0,0,0,0,0,0,0,0,0,0,0,0,0,0.0,0.0,0.0,0.0,0,0,0.0,0,0.0,-1,0.0,0.0,0,0.0,0.0768
4646,0,0.0774,,-0.01,0.03,-0.04,-0,1,-0,0.05,0.06,91,,,,,,,,,,,,,,,,,,,,,,,,,,,,,,,,,,,,,,,,,,,,,,,,,,,,,,,,,,,,,,,,,,,,,,,,,,,,,,,,,,,,,,,,,,,,,,,,,,,,,,,,,,,,,,,,,,,
4686,0,0.0781,,-0.01,0.03,-0.04,-0,1,-0,0.06,0.06,94,,,,,,,,,,,,,,,,,,,,,,,,,,,,,,,,,,,,,,,,,,,,,,,,,,,,,,,,,,,,,,,,,,,,,,,,,,,,,,,,,,,,,,,,,,,,,,,,,,,,,,,,,,,,,,,,,,,
4706,0,0.0784,,,,,,,,,,,0,0,0,0,32,0,0,1,0,0,0,0,0,9,7,1,12,0,0,-16,0,0,138,10,10,0,0,0,0,0,2,1,1,0,60,59,59,0,0,0,0,0,0,0,2,1,1,0,59,57,55,0,0,0,0,0,0,0,0,0,0,0,0,0,0,0,4,4,4,1,382,382,0,0,0,0,0,0,0,0,0,0,0,0,0,0,0,0,0,0,0,0,0,0,0,0,0,0,0,0,0.0,0.0,0.0,0.0,0,0,0.0,0,0.0,-1,0.0,,0,0.0,0.0784
4726,0,0.0788,,-0.01,0.03,-0.04,-0,1,-0,0.06,0.06,96,,,,,,,,,,,,,,,,,,,,,,,,,,,,,,,,,,,,,,,,,,,,,,,,,,,,,,,,,,,,,,,,,,,,,,,,,,,,,,,,,,,,,,,,,,,,,,,,,,,,,,,,,,,,,,,,,,,
4766,0,0.0794,,-0.01,0.03,-0.04,-0,1,0,0.06,0.06,94,,,,,,,,,,,,,,,,,,,,,,,,,,,,,,,,,,,,,,,,,,,,,,,,,,,,,,,,,,,,,,,,,,,,,,,,,,,,,,,,,,,,,,,,,,,,,,,,,,,,,,,,,,,,,,,,,,,
4806,0,0.0801,,-0.01,0.03,-0.04,-0,1,-0,0.05,0.06,92,0,0,0,0,32,0,0,1,0,0,0,0,0,9,7,1,12,0,0,-16,0,0,138,10,10,0,0,0,0,0,2,1,1,0,60,59,59,0,0,0,0,0,0,0,2,1,1,0,59,57,55,0,0,0,0,0,0,0,0,0,0,0,0,0,0,0,4,4,4,1,382,382,0,0,0,0,0,0,0,0,0,0,0,0,0,0,0,0,0,0,0,0,0,0,0,0,0,0,0,0,0.0,0.0,0.0,0.0,0,0,0.0,0,0.0,-1,0.0,0.0,0,0.0,0.0801
4846,0,0.0808,,-0.01,0.03,-0.04,-0,1,-0,0.05,0.06,86,,,,,,,,,,,,,,,,,,,,,,,,,,,,,,,,,,,,,,,,,,,,,,,,,,,,,,,,,,,,,,,,,,,,,,,,,,,,,,,,,,,,,,,,,,,,,,,,,,,,,,,,,,,,,,,,,,,
4886,0,0.0814,,-0.01,0.03,-0.03,-0,1,-0,0.05,0.06,84,,,,,,,,,,,,,,,,,,,,,,,,,,,,,,,,,,,,,,,,,,,,,,,,,,,,,,,,,,,,,,,,,,,,,,,,,,,,,,,,,,,,,,,,,,,,,,,,,,,,,,,,,,,,,,,,,,,
4906,0,0.0818,,,,,,,,,,,0,0,0,0,32,0,0,1,0,0,0,0,0,9,7,1,12,0,0,-16,0,0,138,10,10,0,0,0,0,0,2,1,1,0,60,59,59,0,0,0,0,0,0,0,2,1,1,0,59,57,55,0,0,0,0,0,0,0,0,0,0,0,0,0,0,0,4,4,4,1,382,382,0,0,0,0,0,0,0,0,0,0,0,0,0,0,0,0,0,0,0,0,0,0,0,0,0,0,0,0,0.0,0.0,0.0,0.0,0,0,0.0,0,0.0,-1,0.0,,0,0.0,0.0818
4926,0,0.0821,,-0.01,0.03,-0.03,-0,0,-0,0.05,0.06,85,,,,,,,,,,,,,,,,,,,,,,,,,,,,,,,,,,,,,,,,,,,,,,,,,,,,,,,,,,,,,,,,,,,,,,,,,,,,,,,,,,,,,,,,,,,,,,,,,,,,,,,,,,,,,,,,,,,
4966,0,0.0828,,-0.01,0.03,-0.03,-0,0,-0,0.05,0.06,83,,,,,,,,,,,,,,,,,,,,,,,,,,,,,,,,,,,,,,,,,,,,,,,,,,,,,,,,,,,,,,,,,,,,,,,,,,,,,,,,,,,,,,,,,,,,,,,,,,,,,,,,,,,,,,,,,,,
5006,0,0.0834,,-0.01,0.03,-0.04,-0,0,-0,0.05,0.06,85,0,0,0,0,32,0,0,1,0,0,0,0,0,9,7,1,12,0,0,-16,0,0,138,10,10,0,0,0,0,0,2,1,1,0,60,59,59,0,0,0,0,0,0,0,2,1,1,0,59,57,55,0,0,0,0,0,0,0,0,0,0,0,0,0,0,0,4,4,4,1,382,382,0,0,0,0,0,0,0,0,0,0,0,0,0,0,0,0,0,0,0,0,0,0,0,0,0,0,0,0,0.0,0.0,0.0,0.0,0,0,0.0,0,0.0,-1,0.0,0.0,0,0.0,0.0834
5046,0,0.0841,,-0.01,0.03,-0.04,-0,0,-0,0.05,0.06,87,,,,,,,,,,,,,,,,,,,,,,,,,,,,,,,,,,,,,,,,,,,,,,,,,,,,,,,,,,,,,,,,,,,,,,,,,,,,,,,,,,,,,,,,,,,,,,,,,,,,,,,,,,,,,,,,,,,
5086,0,0.0848,,-0.01,0.03,-0.04,-0,0,-0,0.05,0.06,89,,,,,,,,,,,,,,,,,,,,,,,,,,,,,,,,,,,,,,,,,,,,,,,,,,,,,,,,,,,,,,,,,,,,,,,,,,,,,,,,,,,,,,,,,,,,,,,,,,,,,,,,,,,,,,,,,,,
5106,0,0.0851,,,,,,,,,,,0,0,0,0,32,0,0,1,0,0,0,0,0,9,7,1,12,0,0,-16,0,0,138,10,10,0,0,0,0,0,2,1,1,0,60,59,59,0,0,0,0,0,0,0,2,1,1,0,59,57,55,0,0,0,0,0,0,0,0,0,0,0,0,0,0,0,4,4,4,1,382,382,0,0,0,0,0,0,0,0,0,0,0,0,0,0,0,0,0,0,0,0,0,0,0,0,0,0,0,0,0.0,0.0,0.0,0.0,0,0,0.0,0,0.0,-1,0.0,,0,0.0,0.0851
5126,0,0.0854,,-0.01,0.03,-0.04,-0,0,-0,0.05,0.06,87,,,,,,,,,,,,,,,,,,,,,,,,,,,,,,,,,,,,,,,,,,,,,,,,,,,,,,,,,,,,,,,,,,,,,,,,,,,,,,,,,,,,,,,,,,,,,,,,,,,,,,,,,,,,,,,,,,,
5166,0,0.0861,,-0.01,0.03,-0.04,-0,0,-0,0.05,0.06,87,,,,,,,,,,,,,,,,,,,,,,,,,,,,,,,,,,,,,,,,,,,,,,,,,,,,,,,,,,,,,,,,,,,,,,,,,,,,,,,,,,,,,,,,,,,,,,,,,,,,,,,,,,,,,,,,,,,
5206,0,0.0868,,-0.01,0.03,-0.04,-0,0,-0,0.05,0.06,87,0,0,0,0,32,0,0,1,0,0,0,0,0,9,7,1,12,0,0,-16,0,0,138,11,11,0,0,0,0,0,2,1,1,0,60,59,59,0,0,0,0,0,0,0,2,1,1,0,59,57,55,0,0,0,0,0,0,0,0,0,0,0,0,0,0,0,4,4,4,1,382,382,0,0,0,0,0,0,0,0,0,0,0,0,0,0,0,0,0,0,0,0,0,0,0,0,0,0,0,0,0.0,0.0,0.0,0.0,0,0,0.0,0,0.0,-1,0.0,0.0,0,0.0,0.0868
5246,0,0.0874,,-0.01,0.03,-0.04,-0,0,-0,0.05,0.06,88,,,,,,,,,,,,,,,,,,,,,,,,,,,,,,,,,,,,,,,,,,,,,,,,,,,,,,,,,,,,,,,,,,,,,,,,,,,,,,,,,,,,,,,,,,,,,,,,,,,,,,,,,,,,,,,,,,,
5286,0,0.0881,,-0.01,0.03,-0.04,-0,0,-0,0.05,0.06,91,,,,,,,,,,,,,,,,,,,,,,,,,,,,,,,,,,,,,,,,,,,,,,,,,,,,,,,,,,,,,,,,,,,,,,,,,,,,,,,,,,,,,,,,,,,,,,,,,,,,,,,,,,,,,,,,,,,
5306,0,0.0884,,,,,,,,,,,0,0,0,0,32,0,0,1,0,0,0,0,0,9,7,1,12,0,0,-16,0,0,138,11,11,0,0,0,0,0,2,1,1,0,60,59,59,0,0,0,0,0,0,0,2,1,1,0,59,57,55,0,0,0,0,0,0,0,0,0,0,0,0,0,0,0,4,4,4,1,382,382,0,0,0,0,0,0,0,0,0,0,0,0,0,0,0,0,0,0,0,0,0,0,0,0,0,0,0,0,0.0,0.0,0.0,0.0,0,0,0.0,0,0.0,-1,0.0,,0,0.0,0.0884
5326,0,0.0888,,-0.01,0.03,-0.04,-0,0,-0,0.05,0.06,86,,,,,,,,,,,,,,,,,,,,,,,,,,,,,,,,,,,,,,,,,,,,,,,,,,,,,,,,,,,,,,,,,,,,,,,,,,,,,,,,,,,,,,,,,,,,,,,,,,,,,,,,,,,,,,,,,,,
5366,0,0.0894,,-0.01,0.03,-0.03,-0,0,-0,0.05,0.06,80,,,,,,,,,,,,,,,,,,,,,,,,,,,,,,,,,,,,,,,,,,,,,,,,,,,,,,,,,,,,,,,,,,,,,,,,,,,,,,,,,,,,,,,,,,,,,,,,,,,,,,,,,,,,,,,,,,,
5406,0,0.0901,12.05,-0.01,0.03,-0.04,-0,0,-0,0.05,0.06,85,0,0,0,0,32,0,0,1,0,0,0,0,0,9,7,1,12,0,0,-16,0,0,138,11,11,0,0,0,0,0,2,1,1,0,60,59,59,0,0,0,0,0,0,0,2,1,1,0,59,57,55,0,0,0,0,0,0,0,0,0,0,0,0,0,0,0,4,4,4,1,382,382,0,0,0,0,0,0,0,0,0,0,0,0,0,0,0,0,0,0,0,0,0,0,0,0,0,0,0,0,0.0,0.0,0.0,0.0,0,0,0.0,0,0.0,-1,0.0,0.0,0,0.0,0.0901
5446,0,0.0908,,-0.01,0.03,-0.04,-0,0,-0,0.05,0.06,84,,,,,,,,,,,,,,,,,,,,,,,,,,,,,,,,,,,,,,,,,,,,,,,,,,,,,,,,,,,,,,,,,,,,,,,,,,,,,,,,,,,,,,,,,,,,,,,,,,,,,,,,,,,,,,,,,,,
5486,0,0.0914,,-0.01,0.03,-0.04,-0,0,-0,0.05,0.06,84,,,,,,,,,,,,,,,,,,,,,,,,,,,,,,,,,,,,,,,,,,,,,,,,,,,,,,,,,,,,,,,,,,,,,,,,,,,,,,,,,,,,,,,,,,,,,,,,,,,,,,,,,,,,,,,,,,,
5506,0,0.0918,,,,,,,,,,,0,0,0,0,32,0,0,1,0,0,0,0,0,9,7,1,12,0,0,-16,0,0,138,11,11,0,0,0,0,0,2,1,1,0,60,59,59,0,0,0,0,0,0,0,2,1,1,0,59,57,55,0,0,0,0,0,0,0,0,0,0,0,0,0,0,2,1,1,0,59,58,57,0,0,0,0,0,0,0,0,0,0,0,0,0,0,0,0,0,0,0,0,0,0,0,0,0,0,0,0,0.0,0.0,0.0,0.0,0,0,0.0,0,0.0,-1,0.0,,0,0.0,0.0918
5526,0,0.0921,,-0.01,0.03,-0.04,-0,0,-0,0.05,0.06,84,,,,,,,,,,,,,,,,,,,,,,,,,,,,,,,,,,,,,,,,,,,,,,,,,,,,,,,,,,,,,,,,,,,,,,,,,,,,,,,,,,,,,,,,,,,,,,,,,,,,,,,,,,,,,,,,,,,
5566,0,0.0928,,-0.01,0.03,-0.04,-0,0,-0,0.05,0.06,86,,,,,,,,,,,,,,,,,,,,,,,,,,,,,,,,,,,,,,,,,,,,,,,,,,,,,,,,,,,,,,,,,,,,,,,,,,,,,,,,,,,,,,,,,,,,,,,,,,,,,,,,,,,,,,,,,,,
5606,0,0.0934,,-0.01,0.03,-0.04,-0,0,-0,0.05,0.06,86,0,0,0,0,32,0,0,1,0,0,0,0,0,9,7,1,12,0,0,-16,0,0,138,11,11,0,0,0,0,0,2,1,1,0,60,59,59,0,0,0,0,0,0,0,2,1,1,0,59,57,55,0,0,0,0,0,0,0,0,0,0,0,0,0,0,2,1,1,0,59,58,57,0,0,0,0,0,0,0,0,0,0,0,0,0,0,0,0,0,0,0,0,0,0,0,0,0,0,0,0,0.0,0.0,0.0,0.0,0,0,0.0,0,0.0,-1,0.0,0.0,0,0.0,0.0934
5646,0,0.0941,,-0.01,0.03,-0.04,-0,0,-0,0.05,0.06,86,,,,,,,,,,,,,,,,,,,,,,,,,,,,,,,,,,,,,,,,,,,,,,,,,,,,,,,,,,,,,,,,,,,,,,,,,,,,,,,,,,,,,,,,,,,,,,,,,,,,,,,,,,,,,,,,,,,
5686,0,0.0948,,-0.01,0.03,-0.04,-0,0,-0,0.05,0.06,85,,,,,,,,,,,,,,,,,,,,,,,,,,,,,,,,,,,,,,,,,,,,,,,,,,,,,,,,,,,,,,,,,,,,,,,,,,,,,,,,,,,,,,,,,,,,,,,,,,,,,,,,,,,,,,,,,,,
5706,0,0.0951,,,,,,,,,,,0,0,0,0,32,0,0,1,0,0,0,0,0,9,7,1,12,0,0,-16,0,0,138,11,11,0,0,0,0,0,2,1,1,0,60,59,59,0,0,0,0,0,0,0,2,1,1,0,59,57,55,0,0,0,0,0,0,0,0,0,0,0,0,0,0,2,1,1,0,59,58,57,0,0,0,0,0,0,0,0,0,0,0,0,0,0,0,0,0,0,0,0,0,0,0,0,0,0,0,0,0.0,0.0,0.0,0.0,0,0,0.0,0,0.0,-1,0.0,,0,0.0,0.0951
5726,0,0.0954,,-0.01,0.03,-0.04,-0,0,-0,0.05,0.06,85,,,,,,,,,,,,,,,,,,,,,,,,,,,,,,,,,,,,,,,,,,,,,,,,,,,,,,,,,,,,,,,,,,,,,,,,,,,,,,,,,,,,,,,,,,,,,,,,,,,,,,,,,,,,,,,,,,,
5766,0,0.0961,,-0.01,0.03,-0.04,-0,0,-0,0.05,0.06,86,,,,,,,,,,,,,,,,,,,,,,,,,,,,,,,,,,,,,,,,,,,,,,,,,,,,,,,,,,,,,,,,,,,,,,,,,,,,,,,,,,,,,,,,,,,,,,,,,,,,,,,,,,,,,,,,,,,
5806,0,0.0968,,-0.01,0.03,-0.04,-0,0,-0,0.05,0.06,87,0,0,0,0,32,0,0,1,0,0,0,0,0,9,7,1,12,0,0,-16,0,0,138,12,12,0,0,0,0,0,2,1,1,0,60,59,59,0,0,0,0,0,0,0,2,1,1,0,59,57,55,0,0,0,0,0,0,0,0,0,0,0,0,0,0,2,1,1,0,59,58,57,0,0,0,0,0,0,0,0,0,0,0,0,0,0,0,0,0,0,0,0,0,0,0,0,0,0,0,0,0.0,0.0,0.0,0.0,0,0,0.0,0,0.0,-1,0.0,0.0,0,0.0,0.0968
5846,0,0.0974,,-0.01,0.03,-0.04,-0,0,-0,0.05,0.06,87,,,,,,,,,,,,,,,,,,,,,,,,,,,,,,,,,,,,,,,,,,,,,,,,,,,,,,,,,,,,,,,,,,,,,,,,,,,,,,,,,,,,,,,,,,,,,,,,,,,,,,,,,,,,,,,,,,,
5886,0,0.0981,,-0.01,0.03,-0.04,-0,0,-0,0.05,0.06,85,,,,,,,,,,,,,,,,,,,,,,,,,,,,,,,,,,,,,,,,,,,,,,,,,,,,,,,,,,,,,,,,,,,,,,,,,,,,,,,,,,,,,,,,,,,,,,,,,,,,,,,,,,,,,,,,,,,
5906,0,0.0984,,,,,,,,,,,0,0,0,0,32,0,0,1,0,0,0,0,0,9,7,1,12,0,0,-16,0,0,138,12,12,0,0,0,0,0,2,1,1,0,60,59,59,0,0,0,0,0,0,0,2,1,1,0,59,57,55,0,0,0,0,0,0,0,0,0,0,0,0,0,0,2,1,1,0,59,58,57,0,0,0,0,0,0,0,0,0,0,0,0,0,0,0,0,0,0,0,0,0,0,0,0,0,0,0,0,0.0,0.0,0.0,0.0,0,0,0.0,0,0.0,-1,0.0,,0,0.0,0.0984
5926,0,0.0988,,-0.01,0.03,-0.04,-0,0,-0,0.05,0.06,86,,,,,,,,,,,,,,,,,,,,,,,,,,,,,,,,,,,,,,,,,,,,,,,,,,,,,,,,,,,,,,,,,,,,,,,,,,,,,,,,,,,,,,,,,,,,,,,,,,,,,,,,,,,,,,,,,,,
5966,0,0.0994,,-0.01,0.03,-0.04,-0,0,-0,0.05,0.06,88,,,,,,,,,,,,,,,,,,,,,,,,,,,,,,,,,,,,,,,,,,,,,,,,,,,,,,,,,,,,,,,,,,,,,,,,,,,,,,,,,,,,,,,,,,,,,,,,,,,,,,,,,,,,,,,,,,,
6006,0,0.1001,,-0.01,0.03,-0.04,-0,0,-0,0.05,0.06,87,0,0,0,0,32,0,0,1,0,0,0,0,0,9,7,1,12,0,0,-16,0,0,138,12,12,0,0,0,0,0,2,1,1,0,60,59,59,0,0,0,0,0,0,0,2,1,1,0,59,57,55,0,0,0,0,0,0,0,0,0,0,0,0,0,0,2,1,1,0,59,58,57,0,0,0,0,0,0,0,0,0,0,0,0,0,0,0,0,0,0,0,0,0,0,0,0,0,0,0,0,0.0,0.0,0.0,0.0,0,0,0.0,0,0.0,-1,0.0,0.0,0,0.0,0.1001
6046,0,0.1008,,-0.01,0.03,-0.04,-0,0,-0,0.05,0.06,88,,,,,,,,,,,,,,,,,,,,,,,,,,,,,,,,,,,,,,,,,,,,,,,,,,,,,,,,,,,,,,,,,,,,,,,,,,,,,,,,,,,,,,,,,,,,,,,,,,,,,,,,,,,,,,,,,,,
6086,0,0.1014,,-0.01,0.03,-0.04,-0,0,-0,0.05,0.06,88,,,,,,,,,,,,,,,,,,,,,,,,,,,,,,,,,,,,,,,,,,,,,,,,,,,,,,,,,,,,,,,,,,,,,,,,,,,,,,,,,,,,,,,,,,,,,,,,,,,,,,,,,,,,,,,,,,,
6106,0,0.1018,,,,,,,,,,,0,0,0,0,32,0,0,1,0,0,0,0,0,9,7,1,12,0,0,-16,0,0,138,12,12,0,0,0,0,0,2,1,1,0,60,59,59,0,0,0,0,0,0,0,2,1,1,0,59,57,55,0,0,0,0,0,0,0,0,0,0,0,0,0,0,2,1,1,0,59,58,57,0,0,0,0,0,0,0,0,0,0,0,0,0,0,0,0,0,0,0,0,0,0,0,0,0,0,0,0,0.0,0.0,0.0,0.0,0,0,0.0,0,0.0,-1,0.0,,0,0.0,0.1018
6126,0,0.1021,,-0.01,0.03,-0.04,-0,0,-0,0.05,0.06,87,,,,,,,,,,,,,,,,,,,,,,,,,,,,,,,,,,,,,,,,,,,,,,,,,,,,,,,,,,,,,,,,,,,,,,,,,,,,,,,,,,,,,,,,,,,,,,,,,,,,,,,,,,,,,,,,,,,
6166,0,0.1028,,-0.01,0.03,-0.04,-0,0,-0,0.05,0.06,88,,,,,,,,,,,,,,,,,,,,,,,,,,,,,,,,,,,,,,,,,,,,,,,,,,,,,,,,,,,,,,,,,,,,,,,,,,,,,,,,,,,,,,,,,,,,,,,,,,,,,,,,,,,,,,,,,,,
6206,0,0.1034,,-0.01,0.03,-0.04,-0,1,-0,0.05,0.06,87,0,0,0,0,32,0,0,1,0,0,0,0,0,9,7,1,12,0,0,-16,0,0,138,12,12,0,0,0,0,0,2,1,1,0,60,59,59,0,0,0,0,0,0,0,0,4,4,4,0,382,381,0,0,0,0,0,0,0,0,0,0,0,0,0,0,2,1,1,0,59,58,57,0,0,0,0,0,0,0,0,0,0,0,0,0,0,0,0,0,0,0,0,0,0,0,0,0,0,0,0,0.0,0.0,0.0,0.0,0,0,0.0,0,0.0,-1,0.0,0.0,0,0.0,0.1034
6246,0,0.1041,,-0.01,0.03,-0.04,-0,1,-0,0.05,0.06,87,,,,,,,,,,,,,,,,,,,,,,,,,,,,,,,,,,,,,,,,,,,,,,,,,,,,,,,,,,,,,,,,,,,,,,,,,,,,,,,,,,,,,,,,,,,,,,,,,,,,,,,,,,,,,,,,,,,
6286,0,0.1048,,-0.01,0.03,-0.04,-0,1,-0,0.05,0.06,87,,,,,,,,,,,,,,,,,,,,,,,,,,,,,,,,,,,,,,,,,,,,,,,,,,,,,,,,,,,,,,,,,,,,,,,,,,,,,,,,,,,,,,,,,,,,,,,,,,,,,,,,,,,,,,,,,,,
6306,0,0.1051,,,,,,,,,,,0,0,0,0,32,0,0,1,0,0,0,0,0,9,7,1,12,0,0,-16,0,0,138,12,12,0,0,0,0,0,2,1,1,0,60,59,59,0,0,0,0,0,0,0,0,4,4,4,0,382,381,0,0,0,0,0,0,0,0,0,0,0,0,0,0,2,1,1,0,59,58,57,0,0,0,0,0,0,0,0,0,0,0,0,0,0,0,0,0,0,0,0,0,0,0,0,0,0,0,0,0.0,0.0,0.0,0.0,0,0,0.0,0,0.0,-1,0.0,,0,0.0,0.1051
6326,0,0.1054,,-0.01,0.03,-0.04,-0,1,-0,0.05,0.06,87,,,,,,,,,,,,,,,,,,,,,,,,,,,,,,,,,,,,,,,,,,,,,,,,,,,,,,,,,,,,,,,,,,,,,,,,,,,,,,,,,,,,,,,,,,,,,,,,,,,,,,,,,,,,,,,,,,,
6366,0,0.1061,,-0.01,0.03,-0.04,-0,1,-0,0.05,0.06,87,,,,,,,,,,,,,,,,,,,,,,,,,,,,,,,,,,,,,,,,,,,,,,,,,,,,,,,,,,,,,,,,,,,,,,,,,,,,,,,,,,,,,,,,,,,,,,,,,,,,,,,,,,,,,,,,,,,
6406,0,0.1068,12.09,-0.01,0.03,-0.04,-0,1,-0,0.05,0.06,87,0,0,0,0,32,0,0,1,0,0,0,0,0,9,7,1,12,0,0,-16,0,0,138,12,12,0,0,0,0,0,2,1,1,0,60,59,59,0,0,0,0,0,0,0,0,4,4,4,0,382,381,0,0,0,0,0,0,0,0,0,0,0,0,0,0,2,1,1,0,59,58,57,0,0,0,0,0,0,0,0,0,0,0,0,0,0,0,0,0,0,0,0,0,0,0,0,0,0,0,0,0.0,0.0,0.0,0.0,0,0,0.0,0,0.0,-1,0.0,0.0,0,0.0,0.1068
6446,0,0.1074,,-0.01,0.03,-0.04,-0,1,-0,0.05,0.06,86,,,,,,,,,,,,,,,,,,,,,,,,,,,,,,,,,,,,,,,,,,,,,,,,,,,,,,,,,,,,,,,,,,,,,,,,,,,,,,,,,,,,,,,,,,,,,,,,,,,,,,,,,,,,,,,,,,,
6486,0,0.1081,,-0.01,0.03,-0.04,-0,1,-0,0.05,0.06,87,,,,,,,,,,,,,,,,,,,,,,,,,,,,,,,,,,,,,,,,,,,,,,,,,,,,,,,,,,,,,,,,,,,,,,,,,,,,,,,,,,,,,,,,,,,,,,,,,,,,,,,,,,,,,,,,,,,
6506,0,0.1084,,,,,,,,,,,0,0,0,0,32,0,0,1,0,0,0,0,0,9,7,1,12,0,0,-16,0,0,138,12,12,0,0,0,0,0,2,1,1,0,60,59,59,0,0,0,0,0,0,0,0,4,4,4,0,382,381,0,0,0,0,0,0,0,0,0,0,0,0,0,0,2,1,1,0,59,58,57,0,0,0,0,0,0,0,0,0,0,0,0,0,0,0,0,0,0,0,0,0,0,0,0,0,0,0,0,0.0,0.0,0.0,0.0,0,0,0.0,0,0.0,-1,0.0,,0,0.0,0.1084
6526,0,0.1088,,-0.01,0.03,-0.04,-0,0,0,0.05,0.06,88,,,,,,,,,,,,,,,,,,,,,,,,,,,,,,,,,,,,,,,,,,,,,,,,,,,,,,,,,,,,,,,,,,,,,,,,,,,,,,,,,,,,,,,,,,,,,,,,,,,,,,,,,,,,,,,,,,,
6566,0,0.1094,,-0.01,0.03,-0.04,-0,0,0,0.05,0.06,88,,,,,,,,,,,,,,,,,,,,,,,,,,,,,,,,,,,,,,,,,,,,,,,,,,,,,,,,,,,,,,,,,,,,,,,,,,,,,,,,,,,,,,,,,,,,,,,,,,,,,,,,,,,,,,,,,,,
6606,0,0.1101,,-0.02,0.03,-0.04,-0,0,0,0.05,0.06,91,0,0,0,0,32,0,0,1,0,0,0,0,0,9,7,1,12,0,0,-16,0,0,138,13,13,0,0,0,0,0,2,1,1,0,60,59,59,0,0,0,0,0,0,0,0,4,4,4,0,382,381,0,0,0,0,0,0,0,0,0,0,0,0,0,0,2,1,1,0,59,58,57,0,0,0,0,0,0,0,0,0,0,0,0,0,0,0,0,0,0,0,0,0,0,0,0,0,0,0,0,0.0,0.0,0.0,0.0,0,0,0.0,0,0.0,-1,0.0,0.0,0,0.0,0.1101
6646,0,0.1108,,-0.01,0.03,-0.04,-0,1,0,0.05,0.06,88,,,,,,,,,,,,,,,,,,,,,,,,,,,,,,,,,,,,,,,,,,,,,,,,,,,,,,,,,,,,,,,,,,,,,,,,,,,,,,,,,,,,,,,,,,,,,,,,,,,,,,,,,,,,,,,,,,,
6686,0,0.1114,,-0.01,0.03,-0.03,-0,1,-0,0.05,0.06,84,,,,,,,,,,,,,,,,,,,,,,,,,,,,,,,,,,,,,,,,,,,,,,,,,,,,,,,,,,,,,,,,,,,,,,,,,,,,,,,,,,,,,,,,,,,,,,,,,,,,,,,,,,,,,,,,,,,
6706,0,0.1118,,,,,,,,,,,0,0,0,0,32,0,0,1,0,0,0,0,0,9,7,1,12,0,0,-16,0,0,138,13,13,0,0,0,0,0,2,1,1,0,60,59,59,0,0,0,0,0,0,0,0,4,4,4,0,382,381,0,0,0,0,0,0,0,0,0,0,0,0,0,0,2,1,1,0,59,58,57,0,0,0,0,0,0,0,0,0,0,0,0,0,0,0,0,0,0,0,0,0,0,0,0,0,0,0,0,0.0,0.0,0.0,0.0,0,0,0.0,0,0.0,-1,0.0,,0,0.0,0.1118
6726,0,0.1121,,-0.01,0.03,-0.03,-0,1,-0,0.05,0.06,84,,,,,,,,,,,,,,,,,,,,,,,,,,,,,,,,,,,,,,,,,,,,,,,,,,,,,,,,,,,,,,,,,,,,,,,,,,,,,,,,,,,,,,,,,,,,,,,,,,,,,,,,,,,,,,,,,,,
6766,0,0.1128,,-0.01,0.03,-0.03,-0,0,0,0.05,0.06,83,,,,,,,,,,,,,,,,,,,,,,,,,,,,,,,,,,,,,,,,,,,,,,,,,,,,,,,,,,,,,,,,,,,,,,,,,,,,,,,,,,,,,,,,,,,,,,,,,,,,,,,,,,,,,,,,,,,
6806,0,0.1134,,-0.01,0.03,-0.04,-0,0,-0,0.05,0.06,85,0,0,0,0,32,0,0,1,0,0,0,0,0,9,7,1,12,0,0,-16,0,0,138,13,13,0,0,0,0,0,2,1,1,0,60,59,59,0,0,0,0,0,0,0,0,4,4,4,0,382,381,0,0,0,0,0,0,0,0,0,0,0,0,0,0,2,1,1,0,59,58,57,0,0,0,0,0,0,0,0,0,0,0,0,0,0,0,0,0,0,0,0,0,0,0,0,0,0,0,0,0.0,0.0,0.0,0.0,0,0,0.0,0,0.0,-1,0.0,0.0,0,0.0,0.1134
6846,0,0.1141,,-0.01,0.03,-0.04,-0,1,-0,0.05,0.06,85,,,,,,,,,,,,,,,,,,,,,,,,,,,,,,,,,,,,,,,,,,,,,,,,,,,,,,,,,,,,,,,,,,,,,,,,,,,,,,,,,,,,,,,,,,,,,,,,,,,,,,,,,,,,,,,,,,,
6886,0,0.1148,,-0.01,0.03,-0.03,-0,1,0,0.05,0.06,82,,,,,,,,,,,,,,,,,,,,,,,,,,,,,,,,,,,,,,,,,,,,,,,,,,,,,,,,,,,,,,,,,,,,,,,,,,,,,,,,,,,,,,,,,,,,,,,,,,,,,,,,,,,,,,,,,,,
6906,0,0.1151,,,,,,,,,,,0,0,0,0,32,0,0,1,0,0,0,0,0,9,7,1,12,0,0,-16,0,0,138,13,13,0,0,0,0,0,2,1,1,0,60,59,59,0,0,0,0,0,0,0,0,4,4,4,0,382,381,0,0,0,0,0,0,0,0,0,0,0,0,0,0,2,1,1,0,59,58,57,0,0,0,0,0,0,0,0,0,0,0,0,0,0,0,0,0,0,0,0,0,0,0,0,0,0,0,0,0.0,0.0,0.0,0.0,0,0,0.0,0,0.0,-1,0.0,,0,0.0,0.1151
6926,0,0.1154,,-0.01,0.03,-0.04,-0,1,-0,0.05,0.06,86,,,,,,,,,,,,,,,,,,,,,,,,,,,,,,,,,,,,,,,,,,,,,,,,,,,,,,,,,,,,,,,,,,,,,,,,,,,,,,,,,,,,,,,,,,,,,,,,,,,,,,,,,,,,,,,,,,,
6966,0,0.1161,,-0.01,0.03,-0.04,-0,1,-0,0.05,0.06,85,,,,,,,,,,,,,,,,,,,,,,,,,,,,,,,,,,,,,,,,,,,,,,,,,,,,,,,,,,,,,,,,,,,,,,,,,,,,,,,,,,,,,,,,,,,,,,,,,,,,,,,,,,,,,,,,,,,
7006,0,0.1168,,-0.01,0.03,-0.04,-0,1,0,0.05,0.06,90,0,0,0,0,32,0,0,1,0,0,0,0,0,9,7,1,12,0,0,-16,0,0,138,13,13,0,0,0,0,0,2,1,1,0,60,59,59,0,0,0,0,0,0,0,0,4,4,4,0,382,381,0,0,0,0,0,0,0,0,0,0,0,0,0,0,2,1,1,0,59,58,57,0,0,0,0,0,0,0,0,0,0,0,0,0,0,0,0,0,0,0,0,0,0,0,0,0,0,0,0,0.0,0.0,0.0,0.0,0,0,0.0,0,0.0,-1,0.0,0.0,0,0.0,0.1168
7046,0,0.1174,,-0.01,0.03,-0.04,-0,1,0,0.06,0.06,96,,,,,,,,,,,,,,,,,,,,,,,,,,,,,,,,,,,,,,,,,,,,,,,,,,,,,,,,,,,,,,,,,,,,,,,,,,,,,,,,,,,,,,,,,,,,,,,,,,,,,,,,,,,,,,,,,,,
7086,0,0.1181,,-0.01,0.03,-0.05,-0,0,0,0.06,0.06,100,,,,,,,,,,,,,,,,,,,,,,,,,,,,,,,,,,,,,,,,,,,,,,,,,,,,,,,,,,,,,,,,,,,,,,,,,,,,,,,,,,,,,,,,,,,,,,,,,,,,,,,,,,,,,,,,,,,
7106,0,0.1184,,,,,,,,,,,0,0,0,0,32,0,0,1,0,0,0,0,0,9,7,1,12,0,0,-16,0,0,138,13,13,0,0,0,0,0,2,1,1,0,60,59,59,0,0,0,0,0,0,0,0,4,4,4,0,382,381,0,0,0,0,0,0,0,0,0,0,0,0,0,0,2,1,1,0,59,58,57,0,0,0,0,0,0,0,0,0,0,0,0,0,0,0,0,0,0,0,0,0,0,0,0,0,0,0,0,0.0,0.0,0.0,0.0,0,0,0.0,0,0.0,-1,0.0,,0,0.0,0.1184
7126,0,0.1188,,-0.01,0.03,-0.05,-0,0,0,0.06,0.06,100,,,,,,,,,,,,,,,,,,,,,,,,,,,,,,,,,,,,,,,,,,,,,,,,,,,,,,,,,,,,,,,,,,,,,,,,,,,,,,,,,,,,,,,,,,,,,,,,,,,,,,,,,,,,,,,,,,,
7166,0,0.1194,,-0.01,0.03,-0.05,-0,0,-0,0.06,0.06,96,,,,,,,,,,,,,,,,,,,,,,,,,,,,,,,,,,,,,,,,,,,,,,,,,,,,,,,,,,,,,,,,,,,,,,,,,,,,,,,,,,,,,,,,,,,,,,,,,,,,,,,,,,,,,,,,,,,
7206,0,0.1201,,-0.01,0.03,-0.05,-0,0,-0,0.06,0.06,93,0,0,0,0,32,0,0,1,0,0,0,0,0,9,7,1,12,0,0,-16,0,0,138,14,14,0,0,0,0,0,2,1,1,0,60,59,59,0,0,0,0,0,0,0,2,1,1,0,59,57,55,0,0,0,0,0,0,0,0,0,0,0,0,0,0,2,1,1,0,59,58,57,0,0,0,0,0,0,0,0,0,0,0,0,0,0,0,0,0,0,0,0,0,0,0,0,0,0,0,0,0.0,0.0,0.0,0.0,0,0,0.0,0,0.0,-1,0.0,0.0,0,0.0,0.1201
7246,0,0.1208,,-0.01,0.03,-0.04,-0,0,-0,0.06,0.06,91,,,,,,,,,,,,,,,,,,,,,,,,,,,,,,,,,,,,,,,,,,,,,,,,,,,,,,,,,,,,,,,,,,,,,,,,,,,,,,,,,,,,,,,,,,,,,,,,,,,,,,,,,,,,,,,,,,,
7286,0,0.1214,,-0.01,0.03,-0.04,-0,0,-0,0.06,0.06,91,,,,,,,,,,,,,,,,,,,,,,,,,,,,,,,,,,,,,,,,,,,,,,,,,,,,,,,,,,,,,,,,,,,,,,,,,,,,,,,,,,,,,,,,,,,,,,,,,,,,,,,,,,,,,,,,,,,
7306,0,0.1218,,,,,,,,,,,0,0,0,0,32,0,0,1,0,0,0,0,0,9,7,1,12,0,0,-16,0,0,138,14,14,0,0,0,0,0,2,1,1,0,60,59,59,0,0,0,0,0,0,0,2,1,1,0,59,57,55,0,0,0,0,0,0,0,0,0,0,0,0,0,0,2,1,1,0,59,58,57,0,0,0,0,0,0,0,0,0,0,0,0,0,0,0,0,0,0,0,0,0,0,0,0,0,0,0,0,0.0,0.0,0.0,0.0,0,0,0.0,0,0.0,-1,0.0,,0,0.0,0.1218
7326,0,0.1221,,-0.01,0.03,-0.04,-0,0,0,0.06,0.06,89,,,,,,,,,,,,,,,,,,,,,,,,,,,,,,,,,,,,,,,,,,,,,,,,,,,,,,,,,,,,,,,,,,,,,,,,,,,,,,,,,,,,,,,,,,,,,,,,,,,,,,,,,,,,,,,,,,,
7366,0,0.1228,,-0.01,0.03,-0.04,-0,0,0,0.05,0.06,85,,,,,,,,,,,,,,,,,,,,,,,,,,,,,,,,,,,,,,,,,,,,,,,,,,,,,,,,,,,,,,,,,,,,,,,,,,,,,,,,,,,,,,,,,,,,,,,,,,,,,,,,,,,,,,,,,,,
7406,0,0.1234,12.09,-0.01,0.03,-0.04,-0,0,0,0.05,0.06,85,0,0,0,0,32,0,0,1,0,0,0,0,0,9,7,1,12,0,0,-16,0,0,138,14,14,0,0,0,0,0,2,1,1,0,60,59,59,0,0,0,0,0,0,0,2,1,1,0,59,57,55,0,0,0,0,0,0,0,0,0,0,0,0,0,0,2,1,1,0,59,58,57,0,0,0,0,0,0,0,0,0,0,0,0,0,0,0,0,0,0,0,0,0,0,0,0,0,0,0,0,0.0,0.0,0.0,0.0,0,0,0.0,0,0.0,-1,0.0,0.0,0,0.0,0.1234
7446,0,0.1241,,-0.01,0.03,-0.04,-0,0,-0,0.06,0.06,90,,,,,,,,,,,,,,,,,,,,,,,,,,,,,,,,,,,,,,,,,,,,,,,,,,,,,,,,,,,,,,,,,,,,,,,,,,,,,,,,,,,,,,,,,,,,,,,,,,,,,,,,,,,,,,,,,,,
7486,0,0.1248,,-0.01,0.03,-0.04,-0,0,-0,0.06,0.06,91,,,,,,,,,,,,,,,,,,,,,,,,,,,,,,,,,,,,,,,,,,,,,,,,,,,,,,,,,,,,,,,,,,,,,,,,,,,,,,,,,,,,,,,,,,,,,,,,,,,,,,,,,,,,,,,,,,,
7506,0,0.1251,,,,,,,,,,,0,0,0,0,32,0,0,1,0,0,0,0,0,9,7,1,12,0,0,-16,0,0,138,14,14,0,0,0,0,0,2,1,1,0,60,59,59,0,0,0,0,0,0,0,2,1,1,0,59,57,55,0,0,0,0,0,0,0,0,0,0,0,0,0,0,0,4,4,4,1,382,382,0,0,0,0,0,0,0,0,0,0,0,0,0,0,0,0,0,0,0,0,0,0,0,0,0,0,0,0,0.0,0.0,0.0,0.0,0,0,0.0,0,0.0,-1,0.0,,0,0.0,0.1251
7526,0,0.1254,,-0.01,0.03,-0.04,-0,0,0,0.05,0.06,86,,,,,,,,,,,,,,,,,,,,,,,,,,,,,,,,,,,,,,,,,,,,,,,,,,,,,,,,,,,,,,,,,,,,,,,,,,,,,,,,,,,,,,,,,,,,,,,,,,,,,,,,,,,,,,,,,,,
7566,0,0.1261,,-0.01,0.03,-0.04,-0,1,0,0.05,0.06,85,,,,,,,,,,,,,,,,,,,,,,,,,,,,,,,,,,,,,,,,,,,,,,,,,,,,,,,,,,,,,,,,,,,,,,,,,,,,,,,,,,,,,,,,,,,,,,,,,,,,,,,,,,,,,,,,,,,
7606,0,0.1268,,-0.01,0.03,-0.04,-0,1,0,0.05,0.06,87,0,0,0,0,32,0,0,1,0,0,0,0,0,9,7,1,12,0,0,-16,0,0,138,14,14,0,0,0,0,0,2,1,1,0,60,59,59,0,0,0,0,0,0,0,2,1,1,0,59,57,55,0,0,0,0,0,0,0,0,0,0,0,0,0,0,0,4,4,4,1,382,382,0,0,0,0,0,0,0,0,0,0,0,0,0,0,0,0,0,0,0,0,0,0,0,0,0,0,0,0,0.0,0.0,0.0,0.0,0,0,0.0,0,0.0,-1,0.0,0.0,0,0.0,0.1268
7646,0,0.1274,,-0.01,0.03,-0.04,-0,1,-0,0.06,0.06,88,,,,,,,,,,,,,,,,,,,,,,,,,,,,,,,,,,,,,,,,,,,,,,,,,,,,,,,,,,,,,,,,,,,,,,,,,,,,,,,,,,,,,,,,,,,,,,,,,,,,,,,,,,,,,,,,,,,
7686,0,0.1281,,-0.01,0.03,-0.04,-0,1,-0,0.06,0.06,87,,,,,,,,,,,,,,,,,,,,,,,,,,,,,,,,,,,,,,,,,,,,,,,,,,,,,,,,,,,,,,,,,,,,,,,,,,,,,,,,,,,,,,,,,,,,,,,,,,,,,,,,,,,,,,,,,,,
7706,0,0.1284,,,,,,,,,,,0,0,0,0,32,0,0,1,0,0,0,0,0,9,7,1,12,0,0,-16,0,0,138,14,14,0,0,0,0,0,2,1,1,0,60,59,59,0,0,0,0,0,0,0,2,1,1,0,59,57,55,0,0,0,0,0,0,0,0,0,0,0,0,0,0,0,4,4,4,1,382,382,0,0,0,0,0,0,0,0,0,0,0,0,0,0,0,0,0,0,0,0,0,0,0,0,0,0,0,0,0.0,0.0,0.0,0.0,0,0,0.0,0,0.0,-1,0.0,,0,0.0,0.1284
7726,0,0.1288,,-0.01,0.03,-0.04,-0,0,-0,0.05,0.06,85,,,,,,,,,,,,,,,,,,,,,,,,,,,,,,,,,,,,,,,,,,,,,,,,,,,,,,,,,,,,,,,,,,,,,,,,,,,,,,,,,,,,,,,,,,,,,,,,,,,,,,,,,,,,,,,,,,,
7766,0,0.1294,,-0.01,0.03,-0.04,-0,1,-0,0.05,0.06,84,,,,,,,,,,,,,,,,,,,,,,,,,,,,,,,,,,,,,,,,,,,,,,,,,,,,,,,,,,,,,,,,,,,,,,,,,,,,,,,,,,,,,,,,,,,,,,,,,,,,,,,,,,,,,,,,,,,
7806,0,0.1301,,-0.01,0.03,-0.04,-0,0,-0,0.05,0.06,84,0,0,0,0,32,0,0,1,0,0,0,0,0,9,7,1,12,0,0,-16,0,0,138,14,14,0,0,0,0,0,2,1,1,0,60,59,59,0,0,0,0,0,0,0,2,1,1,0,59,57,55,0,0,0,0,0,0,0,0,0,0,0,0,0,0,0,4,4,4,1,382,382,0,0,0,0,0,0,0,0,0,0,0,0,0,0,0,0,0,0,0,0,0,0,0,0,0,0,0,0,0.0,0.0,0.0,0.0,0,0,0.0,0,0.0,-1,0.0,0.0,0,0.0,0.1301
7846,0,0.1308,,-0.01,0.03,-0.04,-0,0,-0,0.05,0.06,83,,,,,,,,,,,,,,,,,,,,,,,,,,,,,,,,,,,,,,,,,,,,,,,,,,,,,,,,,,,,,,,,,,,,,,,,,,,,,,,,,,,,,,,,,,,,,,,,,,,,,,,,,,,,,,,,,,,
7886,0,0.1314,,-0.01,0.03,-0.04,-0,1,-0,0.05,0.06,82,,,,,,,,,,,,,,,,,,,,,,,,,,,,,,,,,,,,,,,,,,,,,,,,,,,,,,,,,,,,,,,,,,,,,,,,,,,,,,,,,,,,,,,,,,,,,,,,,,,,,,,,,,,,,,,,,,,
7906,0,0.1318,,,,,,,,,,,0,0,0,0,32,0,0,1,0,0,0,0,0,9,7,1,12,0,0,-16,0,0,138,14,14,0,0,0,0,0,2,1,1,0,60,59,59,0,0,0,0,0,0,0,2,1,1,0,59,57,55,0,0,0,0,0,0,0,0,0,0,0,0,0,0,0,4,4,4,1,382,382,0,0,0,0,0,0,0,0,0,0,0,0,0,0,0,0,0,0,0,0,0,0,0,0,0,0,0,0,0.0,0.0,0.0,0.0,0,0,0.0,0,0.0,-1,0.0,,0,0.0,0.1318
7926,0,0.1321,,-0.01,0.03,-0.04,-0,1,-0,0.05,0.06,83,,,,,,,,,,,,,,,,,,,,,,,,,,,,,,,,,,,,,,,,,,,,,,,,,,,,,,,,,,,,,,,,,,,,,,,,,,,,,,,,,,,,,,,,,,,,,,,,,,,,,,,,,,,,,,,,,,,
7966,0,0.1328,,-0.01,0.03,-0.04,-0,1,-0,0.05,0.06,83,,,,,,,,,,,,,,,,,,,,,,,,,,,,,,,,,,,,,,,,,,,,,,,,,,,,,,,,,,,,,,,,,,,,,,,,,,,,,,,,,,,,,,,,,,,,,,,,,,,,,,,,,,,,,,,,,,,
8006,0,0.1334,,-0.01,0.03,-0.04,-0,1,-0,0.05,0.06,83,0,0,0,0,32,0,0,1,0,0,0,0,0,9,7,1,12,0,0,-16,0,0,138,15,15,0,0,0,0,0,2,1,1,0,60,59,59,0,0,0,0,0,0,0,2,1,1,0,59,57,55,0,0,0,0,0,0,0,0,0,0,0,0,0,0,0,4,4,4,1,382,382,0,0,0,0,0,0,0,0,0,0,0,0,0,0,0,0,0,0,0,0,0,0,0,0,0,0,0,0,0.0,0.0,0.0,0.0,0,0,0.0,0,0.0,-1,0.0,0.0,0,0.0,0.1334
8046,0,0.1341,,-0.01,0.03,-0.04,-0,1,-0,0.05,0.06,84,,,,,,,,,,,,,,,,,,,,,,,,,,,,,,,,,,,,,,,,,,,,,,,,,,,,,,,,,,,,,,,,,,,,,,,,,,,,,,,,,,,,,,,,,,,,,,,,,,,,,,,,,,,,,,,,,,,
8086,0,0.1348,,-0.01,0.03,-0.04,-0,1,0,0.05,0.06,82,,,,,,,,,,,,,,,,,,,,,,,,,,,,,,,,,,,,,,,,,,,,,,,,,,,,,,,,,,,,,,,,,,,,,,,,,,,,,,,,,,,,,,,,,,,,,,,,,,,,,,,,,,,,,,,,,,,
8106,0,0.1351,,,,,,,,,,,0,0,0,0,32,0,0,1,0,0,0,0,0,9,7,1,12,0,0,-16,0,0,138,15,15,0,0,0,0,0,2,1,1,0,60,59,59,0,0,0,0,0,0,0,2,1,1,0,59,57,55,0,0,0,0,0,0,0,0,0,0,0,0,0,0,0,4,4,4,1,382,382,0,0,0,0,0,0,0,0,0,0,0,0,0,0,0,0,0,0,0,0,0,0,0,0,0,0,0,0,0.0,0.0,0.0,0.0,0,0,0.0,0,0.0,-1,0.0,,0,0.0,0.1351
8126,0,0.1354,,-0.01,0.03,-0.04,-0,1,0,0.05,0.06,82,,,,,,,,,,,,,,,,,,,,,,,,,,,,,,,,,,,,,,,,,,,,,,,,,,,,,,,,,,,,,,,,,,,,,,,,,,,,,,,,,,,,,,,,,,,,,,,,,,,,,,,,,,,,,,,,,,,
8166,0,0.1361,,-0.01,0.03,-0.04,-0,1,0,0.05,0.06,81,,,,,,,,,,,,,,,,,,,,,,,,,,,,,,,,,,,,,,,,,,,,,,,,,,,,,,,,,,,,,,,,,,,,,,,,,,,,,,,,,,,,,,,,,,,,,,,,,,,,,,,,,,,,,,,,,,,
8206,0,0.1368,,-0.01,0.03,-0.04,-0,1,0,0.05,0.06,80,0,0,0,0,32,0,0,1,0,0,0,0,0,9,7,1,12,0,0,-16,0,0,138,15,15,0,0,0,0,0,2,1,1,0,60,59,59,0,0,0,0,0,0,0,2,1,1,0,59,57,55,0,0,0,0,0,0,0,0,0,0,0,0,0,0,0,4,4,4,1,382,382,0,0,0,0,0,0,0,0,0,0,0,0,0,0,0,0,0,0,0,0,0,0,0,0,0,0,0,0,0.0,0.0,0.0,0.0,0,0,0.0,0,0.0,-1,0.0,0.0,0,0.0,0.1368
8246,0,0.1374,,-0.01,0.03,-0.03,-0,1,0,0.05,0.06,79,,,,,,,,,,,,,,,,,,,,,,,,,,,,,,,,,,,,,,,,,,,,,,,,,,,,,,,,,,,,,,,,,,,,,,,,,,,,,,,,,,,,,,,,,,,,,,,,,,,,,,,,,,,,,,,,,,,
8286,0,0.1381,,-0.01,0.03,-0.04,-0,1,0,0.05,0.06,79,,,,,,,,,,,,,,,,,,,,,,,,,,,,,,,,,,,,,,,,,,,,,,,,,,,,,,,,,,,,,,,,,,,,,,,,,,,,,,,,,,,,,,,,,,,,,,,,,,,,,,,,,,,,,,,,,,,
8306,0,0.1384,,,,,,,,,,,0,0,0,0,32,0,0,1,0,0,0,0,0,9,7,1,12,0,0,-16,0,0,138,15,15,0,0,0,0,0,2,1,1,0,60,59,59,0,0,0,0,0,0,0,2,1,1,0,59,57,55,0,0,0,0,0,0,0,0,0,0,0,0,0,0,0,4,4,4,1,382,382,0,0,0,0,0,0,0,0,0,0,0,0,0,0,0,0,0,0,0,0,0,0,0,0,0,0,0,0,0.0,0.0,0.0,0.0,0,0,0.0,0,0.0,-1,0.0,,0,0.0,0.1384
8326,0,0.1388,,-0.01,0.03,-0.04,-0,1,0,0.05,0.06,81,,,,,,,,,,,,,,,,,,,,,,,,,,,,,,,,,,,,,,,,,,,,,,,,,,,,,,,,,,,,,,,,,,,,,,,,,,,,,,,,,,,,,,,,,,,,,,,,,,,,,,,,,,,,,,,,,,,
8366,0,0.1394,,-0.01,0.03,-0.04,-0,1,0,0.05,0.06,81,,,,,,,,,,,,,,,,,,,,,,,,,,,,,,,,,,,,,,,,,,,,,,,,,,,,,,,,,,,,,,,,,,,,,,,,,,,,,,,,,,,,,,,,,,,,,,,,,,,,,,,,,,,,,,,,,,,
8406,0,0.1401,12.05,-0.01,0.03,-0.04,-0,1,0,0.05,0.06,82,0,0,0,0,32,0,0,1,0,0,0,0,0,9,7,1,12,0,0,-16,0,0,138,15,15,0,0,0,0,0,2,1,1,0,60,59,59,0,0,0,0,0,0,0,2,1,1,0,59,57,55,0,0,0,0,0,0,0,0,0,0,0,0,0,0,0,4,4,4,1,382,382,0,0,0,0,0,0,0,0,0,0,0,0,0,0,0,0,0,0,0,0,0,0,0,0,0,0,0,0,0.0,0.0,0.0,0.0,0,0,0.0,0,0.0,-1,0.0,0.0,0,0.0,0.1401
8446,0,0.1408,,-0.01,0.03,-0.04,-0,1,0,0.05,0.06,81,,,,,,,,,,,,,,,,,,,,,,,,,,,,,,,,,,,,,,,,,,,,,,,,,,,,,,,,,,,,,,,,,,,,,,,,,,,,,,,,,,,,,,,,,,,,,,,,,,,,,,,,,,,,,,,,,,,
8486,0,0.1414,,-0.01,0.03,-0.04,-0,1,0,0.05,0.06,81,,,,,,,,,,,,,,,,,,,,,,,,,,,,,,,,,,,,,,,,,,,,,,,,,,,,,,,,,,,,,,,,,,,,,,,,,,,,,,,,,,,,,,,,,,,,,,,,,,,,,,,,,,,,,,,,,,,
8506,0,0.1418,,,,,,,,,,,0,0,0,0,32,0,0,1,0,0,0,0,0,9,7,1,12,0,0,-16,0,0,138,15,15,0,0,0,0,0,2,1,1,0,60,59,59,0,0,0,0,0,0,0,2,1,1,0,59,57,55,0,0,0,0,0,0,0,0,0,0,0,0,0,0,2,1,1,0,59,58,57,0,0,0,0,0,0,0,0,0,0,0,0,0,0,0,0,0,0,0,0,0,0,0,0,0,0,0,0,0.0,0.0,0.0,0.0,0,0,0.0,0,0.0,-1,0.0,,0,0.0,0.1418
8526,0,0.1421,,-0.01,0.03,-0.04,-0,1,0,0.05,0.06,81,,,,,,,,,,,,,,,,,,,,,,,,,,,,,,,,,,,,,,,,,,,,,,,,,,,,,,,,,,,,,,,,,,,,,,,,,,,,,,,,,,,,,,,,,,,,,,,,,,,,,,,,,,,,,,,,,,,
8566,0,0.1428,,-0.01,0.03,-0.04,-0,1,0,0.05,0.06,80,,,,,,,,,,,,,,,,,,,,,,,,,,,,,,,,,,,,,,,,,,,,,,,,,,,,,,,,,,,,,,,,,,,,,,,,,,,,,,,,,,,,,,,,,,,,,,,,,,,,,,,,,,,,,,,,,,,
8606,0,0.1434,,-0.01,0.03,-0.04,-0,1,-0,0.05,0.06,82,0,0,0,0,32,0,0,1,0,0,0,0,0,9,7,1,12,0,0,-16,0,0,138,15,15,0,0,0,0,0,2,1,1,0,60,59,59,0,0,0,0,0,0,0,2,1,1,0,59,57,55,0,0,0,0,0,0,0,0,0,0,0,0,0,0,2,1,1,0,59,58,57,0,0,0,0,0,0,0,0,0,0,0,0,0,0,0,0,0,0,0,0,0,0,0,0,0,0,0,0,0.0,0.0,0.0,0.0,0,0,0.0,0,0.0,-1,0.0,0.0,0,0.0,0.1434
8646,0,0.1441,,-0.01,0.03,-0.04,-0,1,0,0.05,0.06,81,,,,,,,,,,,,,,,,,,,,,,,,,,,,,,,,,,,,,,,,,,,,,,,,,,,,,,,,,,,,,,,,,,,,,,,,,,,,,,,,,,,,,,,,,,,,,,,,,,,,,,,,,,,,,,,,,,,
8686,0,0.1448,,-0.01,0.03,-0.04,-0,1,-0,0.05,0.06,82,,,,,,,,,,,,,,,,,,,,,,,,,,,,,,,,,,,,,,,,,,,,,,,,,,,,,,,,,,,,,,,,,,,,,,,,,,,,,,,,,,,,,,,,,,,,,,,,,,,,,,,,,,,,,,,,,,,
8706,0,0.1451,,,,,,,,,,,0,0,0,0,32,0,0,1,0,0,0,0,0,9,7,1,12,0,0,-16,0,0,138,15,15,0,0,0,0,0,2,1,1,0,60,59,59,0,0,0,0,0,0,0,2,1,1,0,59,57,55,0,0,0,0,0,0,0,0,0,0,0,0,0,0,2,1,1,0,59,58,57,0,0,0,0,0,0,0,0,0,0,0,0,0,0,0,0,0,0,0,0,0,0,0,0,0,0,0,0,0.0,0.0,0.0,0.0,0,0,0.0,0,0.0,-1,0.0,,0,0.0,0.1451
8726,0,0.1454,,-0.01,0.03,-0.04,-0,1,-0,0.05,0.06,82,,,,,,,,,,,,,,,,,,,,,,,,,,,,,,,,,,,,,,,,,,,,,,,,,,,,,,,,,,,,,,,,,,,,,,,,,,,,,,,,,,,,,,,,,,,,,,,,,,,,,,,,,,,,,,,,,,,
8766,0,0.1461,,-0.01,0.03,-0.04,-0,1,-0,0.05,0.06,82,,,,,,,,,,,,,,,,,,,,,,,,,,,,,,,,,,,,,,,,,,,,,,,,,,,,,,,,,,,,,,,,,,,,,,,,,,,,,,,,,,,,,,,,,,,,,,,,,,,,,,,,,,,,,,,,,,,
8806,0,0.1468,,-0.01,0.03,-0.04,-0,0,-0,0.05,0.06,85,0,0,0,0,32,0,0,1,0,0,0,0,0,9,7,1,12,0,0,-16,0,0,138,15,15,0,0,0,0,0,2,1,1,0,60,59,59,0,0,0,0,0,0,0,2,1,1,0,59,57,55,0,0,0,0,0,0,0,0,0,0,0,0,0,0,2,1,1,0,59,58,57,0,0,0,0,0,0,0,0,0,0,0,0,0,0,0,0,0,0,0,0,0,0,0,0,0,0,0,0,0.0,0.0,0.0,0.0,0,0,0.0,0,0.0,-1,0.0,0.0,0,0.0,0.1468
8846,0,0.1474,,-0.01,0.03,-0.04,-0,1,-0,0.05,0.06,82,,,,,,,,,,,,,,,,,,,,,,,,,,,,,,,,,,,,,,,,,,,,,,,,,,,,,,,,,,,,,,,,,,,,,,,,,,,,,,,,,,,,,,,,,,,,,,,,,,,,,,,,,,,,,,,,,,,
8886,0,0.1481,,-0.01,0.03,-0.04,-0,1,0,0.05,0.06,81,,,,,,,,,,,,,,,,,,,,,,,,,,,,,,,,,,,,,,,,,,,,,,,,,,,,,,,,,,,,,,,,,,,,,,,,,,,,,,,,,,,,,,,,,,,,,,,,,,,,,,,,,,,,,,,,,,,
8906,0,0.1484,,,,,,,,,,,0,0,0,0,32,0,0,1,0,0,0,0,0,9,7,1,12,0,0,-16,0,0,138,16,16,0,0,0,0,0,2,1,1,0,60,59,59,0,0,0,0,0,0,0,2,1,1,0,59,57,55,0,0,0,0,0,0,0,0,0,0,0,0,0,0,2,1,1,0,59,58,57,0,0,0,0,0,0,0,0,0,0,0,0,0,0,0,0,0,0,0,0,0,0,0,0,0,0,0,0,0.0,0.0,0.0,0.0,0,0,0.0,0,0.0,-1,0.0,,0,0.0,0.1484
8926,0,0.1488,,-0.01,0.03,-0.04,-0,1,0,0.05,0.06,80,,,,,,,,,,,,,,,,,,,,,,,,,,,,,,,,,,,,,,,,,,,,,,,,,,,,,,,,,,,,,,,,,,,,,,,,,,,,,,,,,,,,,,,,,,,,,,,,,,,,,,,,,,,,,,,,,,,
8966,0,0.1494,,-0.01,0.03,-0.04,-0,1,-0,0.05,0.06,80,,,,,,,,,,,,,,,,,,,,,,,,,,,,,,,,,,,,,,,,,,,,,,,,,,,,,,,,,,,,,,,,,,,,,,,,,,,,,,,,,,,,,,,,,,,,,,,,,,,,,,,,,,,,,,,,,,,
9006,0,0.1501,,-0.01,0.03,-0.04,-0,1,-0,0.05,0.06,81,0,0,0,0,32,0,0,1,0,0,0,0,0,9,7,1,12,0,0,-16,0,0,138,16,16,0,0,0,0,0,2,1,1,0,60,59,59,0,0,0,0,0,0,0,2,1,1,0,59,57,55,0,0,0,0,0,0,0,0,0,0,0,0,0,0,2,1,1,0,59,58,57,0,0,0,0,0,0,0,0,0,0,0,0,0,0,0,0,0,0,0,0,0,0,0,0,0,0,0,0,0.0,0.0,0.0,0.0,0,0,0.0,0,0.0,-1,0.0,0.0,0,0.0,0.1501
9046,0,0.1508,,-0.01,0.03,-0.04,-0,1,-0,0.05,0.06,82,,,,,,,,,,,,,,,,,,,,,,,,,,,,,,,,,,,,,,,,,,,,,,,,,,,,,,,,,,,,,,,,,,,,,,,,,,,,,,,,,,,,,,,,,,,,,,,,,,,,,,,,,,,,,,,,,,,
9086,0,0.1514,,-0.02,0.03,-0.04,-0,1,-0,0.05,0.06,85,,,,,,,,,,,,,,,,,,,,,,,,,,,,,,,,,,,,,,,,,,,,,,,,,,,,,,,,,,,,,,,,,,,,,,,,,,,,,,,,,,,,,,,,,,,,,,,,,,,,,,,,,,,,,,,,,,,
9106,0,0.1518,,,,,,,,,,,0,0,0,0,32,0,0,1,0,0,0,0,0,9,7,1,12,0,0,-16,0,0,138,16,16,0,0,0,0,0,2,1,1,0,60,59,59,0,0,0,0,0,0,0,2,1,1,0,59,57,55,0,0,0,0,0,0,0,0,0,0,0,0,0,0,2,1,1,0,59,58,57,0,0,0,0,0,0,0,0,0,0,0,0,0,0,0,0,0,0,0,0,0,0,0,0,0,0,0,0,0.0,0.0,0.0,0.0,0,0,0.0,0,0.0,-1,0.0,,0,0.0,0.1518
9126,0,0.1521,,-0.01,0.03,-0.05,-0,1,-0,0.06,0.06,90,,,,,,,,,,,,,,,,,,,,,,,,,,,,,,,,,,,,,,,,,,,,,,,,,,,,,,,,,,,,,,,,,,,,,,,,,,,,,,,,,,,,,,,,,,,,,,,,,,,,,,,,,,,,,,,,,,,
9166,0,0.1528,,-0.01,0.03,-0.04,-0,1,-0,0.05,0.06,86,,,,,,,,,,,,,,,,,,,,,,,,,,,,,,,,,,,,,,,,,,,,,,,,,,,,,,,,,,,,,,,,,,,,,,,,,,,,,,,,,,,,,,,,,,,,,,,,,,,,,,,,,,,,,,,,,,,
9206,0,0.1534,,-0.01,0.03,-0.04,-0,0,-0,0.05,0.06,87,0,0,0,0,32,0,0,1,0,0,0,0,0,9,7,1,12,0,0,-16,0,0,138,16,16,0,0,0,0,0,2,1,1,0,60,59,59,0,0,0,0,0,0,0,0,4,4,4,0,381,381,0,0,0,0,0,0,0,0,0,0,0,0,0,0,2,1,1,0,59,58,57,0,0,0,0,0,0,0,0,0,0,0,0,0,0,0,0,0,0,0,0,0,0,0,0,0,0,0,0,0.0,0.0,0.0,0.0,0,0,0.0,0,0.0,-1,0.0,0.0,0,0.0,0.1534
9246,0,0.1541,,-0.01,0.03,-0.04,-0,0,-0,0.06,0.06,88,,,,,,,,,,,,,,,,,,,,,,,,,,,,,,,,,,,,,,,,,,,,,,,,,,,,,,,,,,,,,,,,,,,,,,,,,,,,,,,,,,,,,,,,,,,,,,,,,,,,,,,,,,,,,,,,,,,
9286,0,0.1548,,-0.01,0.03,-0.04,-0,1,0,0.06,0.06,87,,,,,,,,,,,,,,,,,,,,,,,,,,,,,,,,,,,,,,,,,,,,,,,,,,,,,,,,,,,,,,,,,,,,,,,,,,,,,,,,,,,,,,,,,,,,,,,,,,,,,,,,,,,,,,,,,,,
9306,0,0.1551,,,,,,,,,,,0,0,0,0,32,0,0,1,0,0,0,0,0,9,7,1,12,0,0,-16,0,0,138,16,16,0,0,0,0,0,2,1,1,0,60,59,59,0,0,0,0,0,0,0,0,4,4,4,0,381,381,0,0,0,0,0,0,0,0,0,0,0,0,0,0,2,1,1,0,59,58,57,0,0,0,0,0,0,0,0,0,0,0,0,0,0,0,0,0,0,0,0,0,0,0,0,0,0,0,0,0.0,0.0,0.0,0.0,0,0,0.0,0,0.0,-1,0.0,,0,0.0,0.1551
9326,0,0.1554,,-0.01,0.03,-0.04,-0,0,-0,0.06,0.06,88,,,,,,,,,,,,,,,,,,,,,,,,,,,,,,,,,,,,,,,,,,,,,,,,,,,,,,,,,,,,,,,,,,,,,,,,,,,,,,,,,,,,,,,,,,,,,,,,,,,,,,,,,,,,,,,,,,,
9366,0,0.1561,,-0.01,0.03,-0.04,-0,1,-0,0.05,0.06,84,,,,,,,,,,,,,,,,,,,,,,,,,,,,,,,,,,,,,,,,,,,,,,,,,,,,,,,,,,,,,,,,,,,,,,,,,,,,,,,,,,,,,,,,,,,,,,,,,,,,,,,,,,,,,,,,,,,
9406,0,0.1568,12.1,-0.01,0.03,-0.04,-0,1,-0,0.05,0.06,87,0,0,0,0,32,0,0,1,0,0,0,0,0,9,7,1,12,0,0,-16,0,0,138,16,16,0,0,0,0,0,2,1,1,0,60,59,59,0,0,0,0,0,0,0,0,4,4,4,0,381,381,0,0,0,0,0,0,0,0,0,0,0,0,0,0,2,1,1,0,59,58,57,0,0,0,0,0,0,0,0,0,0,0,0,0,0,0,0,0,0,0,0,0,0,0,0,0,0,0,0,0.0,0.0,0.0,0.0,0,0,0.0,0,0.0,-1,0.0,0.0,0,0.0,0.1568
9446,0,0.1574,,-0.01,0.03,-0.04,-0,1,-0,0.05,0.06,85,,,,,,,,,,,,,,,,,,,,,,,,,,,,,,,,,,,,,,,,,,,,,,,,,,,,,,,,,,,,,,,,,,,,,,,,,,,,,,,,,,,,,,,,,,,,,,,,,,,,,,,,,,,,,,,,,,,
9486,0,0.1581,,-0.01,0.03,-0.04,-0,0,-0,0.05,0.06,86,,,,,,,,,,,,,,,,,,,,,,,,,,,,,,,,,,,,,,,,,,,,,,,,,,,,,,,,,,,,,,,,,,,,,,,,,,,,,,,,,,,,,,,,,,,,,,,,,,,,,,,,,,,,,,,,,,,
9506,0,0.1584,,,,,,,,,,,0,0,0,0,32,0,0,1,0,0,0,0,0,9,7,1,12,0,0,-16,0,0,138,16,16,0,0,0,0,0,2,1,1,0,60,59,59,0,0,0,0,0,0,0,0,4,4,4,0,381,381,0,0,0,0,0,0,0,0,0,0,0,0,0,0,2,1,1,0,59,58,57,0,0,0,0,0,0,0,0,0,0,0,0,0,0,0,0,0,0,0,0,0,0,0,0,0,0,0,0,0.0,0.0,0.0,0.0,0,0,0.0,0,0.0,-1,0.0,,0,0.0,0.1584
9526,0,0.1588,,-0.01,0.03,-0.04,-0,1,-0,0.05,0.06,84,,,,,,,,,,,,,,,,,,,,,,,,,,,,,,,,,,,,,,,,,,,,,,,,,,,,,,,,,,,,,,,,,,,,,,,,,,,,,,,,,,,,,,,,,,,,,,,,,,,,,,,,,,,,,,,,,,,
9566,0,0.1594,,-0.01,0.03,-0.04,-0,1,-0,0.05,0.06,84,,,,,,,,,,,,,,,,,,,,,,,,,,,,,,,,,,,,,,,,,,,,,,,,,,,,,,,,,,,,,,,,,,,,,,,,,,,,,,,,,,,,,,,,,,,,,,,,,,,,,,,,,,,,,,,,,,,
9606,0,0.1601,,-0.01,0.03,-0.04,-0,1,-0,0.05,0.06,81,0,0,0,0,32,0,0,1,0,0,0,0,0,9,7,1,12,0,0,-16,0,0,138,16,16,0,0,0,0,0,2,1,1,0,60,59,59,0,0,0,0,0,0,0,0,4,4,4,0,381,381,0,0,0,0,0,0,0,0,0,0,0,0,0,0,2,1,1,0,59,58,57,0,0,0,0,0,0,0,0,0,0,0,0,0,0,0,0,0,0,0,0,0,0,0,0,0,0,0,0,0.0,0.0,0.0,0.0,0,0,0.0,0,0.0,-1,0.0,0.0,0,0.0,0.1601
9646,0,0.1608,,-0.01,0.03,-0.04,-0,1,-0,0.05,0.06,80,,,,,,,,,,,,,,,,,,,,,,,,,,,,,,,,,,,,,,,,,,,,,,,,,,,,,,,,,,,,,,,,,,,,,,,,,,,,,,,,,,,,,,,,,,,,,,,,,,,,,,,,,,,,,,,,,,,
9686,0,0.1614,,-0.01,0.03,-0.04,-0,1,-0,0.05,0.06,81,,,,,,,,,,,,,,,,,,,,,,,,,,,,,,,,,,,,,,,,,,,,,,,,,,,,,,,,,,,,,,,,,,,,,,,,,,,,,,,,,,,,,,,,,,,,,,,,,,,,,,,,,,,,,,,,,,,
9706,0,0.1618,,,,,,,,,,,0,0,0,0,32,0,0,1,0,0,0,0,0,9,7,1,12,0,0,-16,0,0,138,16,16,0,0,0,0,0,2,1,1,0,60,59,59,0,0,0,0,0,0,0,0,4,4,4,0,381,381,0,0,0,0,0,0,0,0,0,0,0,0,0,0,2,1,1,0,59,58,57,0,0,0,0,0,0,0,0,0,0,0,0,0,0,0,0,0,0,0,0,0,0,0,0,0,0,0,0,0.0,0.0,0.0,0.0,0,0,0.0,0,0.0,-1,0.0,,0,0.0,0.1618
9726,0,0.1621,,-0.01,0.03,-0.04,-0,1,-0,0.05,0.06,81,,,,,,,,,,,,,,,,,,,,,,,,,,,,,,,,,,,,,,,,,,,,,,,,,,,,,,,,,,,,,,,,,,,,,,,,,,,,,,,,,,,,,,,,,,,,,,,,,,,,,,,,,,,,,,,,,,,
9766,0,0.1628,,-0.01,0.03,-0.04,-0,1,-0,0.05,0.06,81,,,,,,,,,,,,,,,,,,,,,,,,,,,,,,,,,,,,,,,,,,,,,,,,,,,,,,,,,,,,,,,,,,,,,,,,,,,,,,,,,,,,,,,,,,,,,,,,,,,,,,,,,,,,,,,,,,,
9806,0,0.1634,,-0.01,0.03,-0.04,-0,1,-0,0.05,0.06,83,0,0,0,0,32,0,0,1,0,0,0,0,0,9,7,1,12,0,0,-16,0,0,138,16,16,0,0,0,0,0,2,1,1,0,60,59,59,0,0,0,0,0,0,0,0,4,4,4,0,381,381,0,0,0,0,0,0,0,0,0,0,0,0,0,0,2,1,1,0,59,58,57,0,0,0,0,0,0,0,0,0,0,0,0,0,0,0,0,0,0,0,0,0,0,0,0,0,0,0,0,0.0,0.0,0.0,0.0,0,0,0.0,0,0.0,-1,0.0,0.0,0,0.0,0.1634
9846,0,0.1641,,-0.01,0.03,-0.04,-0,1,-0,0.05,0.06,81,,,,,,,,,,,,,,,,,,,,,,,,,,,,,,,,,,,,,,,,,,,,,,,,,,,,,,,,,,,,,,,,,,,,,,,,,,,,,,,,,,,,,,,,,,,,,,,,,,,,,,,,,,,,,,,,,,,
9886,0,0.1648,,-0.01,0.03,-0.04,-0,1,-0,0.05,0.06,82,,,,,,,,,,,,,,,,,,,,,,,,,,,,,,,,,,,,,,,,,,,,,,,,,,,,,,,,,,,,,,,,,,,,,,,,,,,,,,,,,,,,,,,,,,,,,,,,,,,,,,,,,,,,,,,,,,,
9906,0,0.1651,,,,,,,,,,,0,0,0,0,32,0,0,1,0,0,0,0,0,9,7,1,12,0,0,-16,0,0,138,17,17,0,0,0,0,0,2,1,1,0,60,59,59,0,0,0,0,0,0,0,0,4,4,4,0,381,381,0,0,0,0,0,0,0,0,0,0,0,0,0,0,2,1,1,0,59,58,57,0,0,0,0,0,0,0,0,0,0,0,0,0,0,0,0,0,0,0,0,0,0,0,0,0,0,0,0,0.0,0.0,0.0,0.0,0,0,0.0,0,0.0,-1,0.0,,0,0.0,0.1651
9926,0,0.1654,,-0.01,0.03,-0.04,-0,1,-0,0.05,0.06,82,,,,,,,,,,,,,,,,,,,,,,,,,,,,,,,,,,,,,,,,,,,,,,,,,,,,,,,,,,,,,,,,,,,,,,,,,,,,,,,,,,,,,,,,,,,,,,,,,,,,,,,,,,,,,,,,,,,
9966,0,0.1661,,-0.01,0.03,-0.04,-0,1,-0,0.05,0.06,82,,,,,,,,,,,,,,,,,,,,,,,,,,,,,,,,,,,,,,,,,,,,,,,,,,,,,,,,,,,,,,,,,,,,,,,,,,,,,,,,,,,,,,,,,,,,,,,,,,,,,,,,,,,,,,,,,,,
10006,0,0.1668,,-0.01,0.03,-0.04,-0,1,-0,0.05,0.06,83,0,0,0,0,32,0,0,1,0,0,0,0,0,9,7,1,12,0,0,-16,0,0,138,17,17,0,0,0,0,0,2,1,1,0,60,59,59,0,0,0,0,0,0,0,0,4,4,4,0,381,381,0,0,0,0,0,0,0,0,0,0,0,0,0,0,2,1,1,0,59,58,57,0,0,0,0,0,0,0,0,0,0,0,0,0,0,0,0,0,0,0,0,0,0,0,0,0,0,0,0,0.0,0.0,0.0,0.0,0,0,0.0,0,0.0,-1,0.0,0.0,0,0.0,0.1668
10046,0,0.1674,,-0.01,0.03,-0.04,-0,1,-0,0.05,0.06,84,,,,,,,,,,,,,,,,,,,,,,,,,,,,,,,,,,,,,,,,,,,,,,,,,,,,,,,,,,,,,,,,,,,,,,,,,,,,,,,,,,,,,,,,,,,,,,,,,,,,,,,,,,,,,,,,,,,
10086,0,0.1681,,-0.01,0.03,-0.04,-0,1,-0,0.05,0.06,83,,,,,,,,,,,,,,,,,,,,,,,,,,,,,,,,,,,,,,,,,,,,,,,,,,,,,,,,,,,,,,,,,,,,,,,,,,,,,,,,,,,,,,,,,,,,,,,,,,,,,,,,,,,,,,,,,,,
10106,0,0.1684,,,,,,,,,,,0,0,0,0,32,0,0,1,0,0,0,0,0,9,7,1,12,0,0,-16,0,0,138,17,17,0,0,0,0,0,2,1,1,0,60,59,59,0,0,0,0,0,0,0,0,4,4,4,0,381,381,0,0,0,0,0,0,0,0,0,0,0,0,0,0,2,1,1,0,59,58,57,0,0,0,0,0,0,0,0,0,0,0,0,0,0,0,0,0,0,0,0,0,0,0,0,0,0,0,0,0.0,0.0,0.0,0.0,0,0,0.0,0,0.0,-1,0.0,,0,0.0,0.1684
10126,0,0.1688,,-0.01,0.03,-0.04,-0,0,0,0.05,0.06,84,,,,,,,,,,,,,,,,,,,,,,,,,,,,,,,,,,,,,,,,,,,,,,,,,,,,,,,,,,,,,,,,,,,,,,,,,,,,,,,,,,,,,,,,,,,,,,,,,,,,,,,,,,,,,,,,,,,
10166,0,0.1694,,-0.01,0.03,-0.04,-0,0,0,0.05,0.06,84,,,,,,,,,,,,,,,,,,,,,,,,,,,,,,,,,,,,,,,,,,,,,,,,,,,,,,,,,,,,,,,,,,,,,,,,,,,,,,,,,,,,,,,,,,,,,,,,,,,,,,,,,,,,,,,,,,,
10206,0,0.1701,,-0.01,0.03,-0.04,-0,1,0,0.05,0.06,83,0,0,0,0,32,0,0,1,0,0,0,0,0,9,7,1,12,0,0,-16,0,0,138,17,17,0,0,0,0,0,2,1,1,0,60,59,59,0,0,0,0,0,0,0,2,1,1,0,59,58,55,0,0,0,0,0,0,0,0,0,0,0,0,0,0,2,1,1,0,59,58,57,0,0,0,0,0,0,0,0,0,0,0,0,0,0,0,0,0,0,0,0,0,0,0,0,0,0,0,0,0.0,0.0,0.0,0.0,0,0,0.0,0,0.0,-1,0.0,0.0,0,0.0,0.1701
10246,0,0.1708,,-0.01,0.03,-0.04,-0,1,0,0.05,0.06,83,,,,,,,,,,,,,,,,,,,,,,,,,,,,,,,,,,,,,,,,,,,,,,,,,,,,,,,,,,,,,,,,,,,,,,,,,,,,,,,,,,,,,,,,,,,,,,,,,,,,,,,,,,,,,,,,,,,
10286,0,0.1714,,-0.01,0.03,-0.04,-0,1,0,0.05,0.06,83,,,,,,,,,,,,,,,,,,,,,,,,,,,,,,,,,,,,,,,,,,,,,,,,,,,,,,,,,,,,,,,,,,,,,,,,,,,,,,,,,,,,,,,,,,,,,,,,,,,,,,,,,,,,,,,,,,,
10306,0,0.1718,,,,,,,,,,,0,0,0,0,32,0,0,1,0,0,0,0,0,9,7,1,12,0,0,-16,0,0,138,17,17,0,0,0,0,0,2,1,1,0,60,59,59,0,0,0,0,0,0,0,2,1,1,0,59,58,55,0,0,0,0,0,0,0,0,0,0,0,0,0,0,2,1,1,0,59,58,57,0,0,0,0,0,0,0,0,0,0,0,0,0,0,0,0,0,0,0,0,0,0,0,0,0,0,0,0,0.0,0.0,0.0,0.0,0,0,0.0,0,0.0,-1,0.0,,0,0.0,0.1718
10326,0,0.1721,,-0.01,0.03,-0.04,-0,1,0,0.05,0.06,84,,,,,,,,,,,,,,,,,,,,,,,,,,,,,,,,,,,,,,,,,,,,,,,,,,,,,,,,,,,,,,,,,,,,,,,,,,,,,,,,,,,,,,,,,,,,,,,,,,,,,,,,,,,,,,,,,,,
10366,0,0.1728,,-0.01,0.03,-0.04,-0,0,0,0.05,0.06,85,,,,,,,,,,,,,,,,,,,,,,,,,,,,,,,,,,,,,,,,,,,,,,,,,,,,,,,,,,,,,,,,,,,,,,,,,,,,,,,,,,,,,,,,,,,,,,,,,,,,,,,,,,,,,,,,,,,
10406,0,0.1734,12.07,-0.01,0.03,-0.04,-0,0,0,0.05,0.06,85,0,0,0,0,32,0,0,1,0,0,0,0,0,9,7,1,12,0,0,-16,0,0,138,17,17,0,0,0,0,0,2,1,1,0,60,59,59,0,0,0,0,0,0,0,2,1,1,0,59,58,55,0,0,0,0,0,0,0,0,0,0,0,0,0,0,2,1,1,0,59,58,57,0,0,0,0,0,0,0,0,0,0,0,0,0,0,0,0,0,0,0,0,0,0,0,0,0,0,0,0,0.0,0.0,0.0,0.0,0,0,0.0,0,0.0,-1,0.0,0.0,0,0.0,0.1734
