"Interval"|"ms"|0|0|1,"Utc"|"ms"|0|0|1,"ElapsedTime"|"Min"|0.0|0.0|10,"Battery"|"Volts"|0.0|20.0|1,"AccelX"|"G"|-3.0|3.0|25,"AccelY"|"G"|-3.0|3.0|25,"AccelZ"|"G"|-3.0|3.0|25,"Yaw"|"Deg/Sec"|-120|120|25,"Pitch"|"Deg/Sec"|-120|120|25,"Roll"|"Deg/Sec"|-120|120|25,"Gsum"|"G"|0.0|3.0|25,"GsumMax"|"G"|0.0|3.0|25,"GsumPct"|"%"|0|100|25,"INV_Command"|""|-3277|3277|10,"VCU_INV_Inv"|""|0|1|10,"VCU_INV_Tor"|""|-3277|3277|10,"INV_Run_Fau"|""|0|65535|10,"INV_Post_Fa"|""|0|65535|10,"INV_Run_Fau"|""|0|65535|10,"INV_Post_Fa"|""|0|65535|10,"INV_Directi"|""|0|1|10,"INV_Inverte"|""|0|1|10,"INV_Relay_2"|""|0|1|10,"INV_Inverte"|""|0|1|10,"INV_Inverte"|""|0|1|10,"INV_Relay_1"|""|0|1|10,"INV_Inverte"|""|0|255|10,"INV_VSM_Sta"|""|0|15|10,"INV_Inverte"|""|0|1|10,"INV_PWM_Fre"|""|0|255|10,"INV_DC_Bus_"|""|-3277|3277|10,"INV_DC_Bus_"|""|-3277|3277|10,"INV_Delta_R"|""|-3277|3277|10,"INV_Motor_S"|""|-32768|32767|10,"INV_Torque_"|""|-3277|3277|10,"INV_Motor_T"|""|-3277|3277|10,"INV_Hot_Spo"|""|-3277|3277|10,"INV_Coolant"|""|-3277|3277|10,"INV_Fast_DC"|""|-3277|3277|10,"APPS1"|""|-32768|32767|10,"APPS2"|""|-32768|32767|10,"c_apps"|""|-32768|32767|10,"Faultcode"|""|0|4|10,"Multiplexor"|""|0|0|10,"BMS_1_1_Vol"|""|0|10|10,"BMS_1_1_Vol"|""|0|10|10,"BMS_1_1_Vol"|""|0|10|10,"BMS_1_1_Tem"|""|0|200|10,"BMS_1_1_Tem"|""|0|200|10,"BMS_1_1_Tem"|""|0|200|10,"Multiplexor"|""|0|0|10,"BMS_1_2_Vol"|""|0|10|10,"BMS_1_2_Vol"|""|0|10|10,"BMS_1_2_Vol"|""|0|10|10,"BMS_1_2_Tem"|""|0|200|10,"BMS_1_2_Tem"|""|0|200|10,"BMS_1_2_Tem"|""|0|200|10,"Multiplexor"|""|0|0|10,"BMS_2_1_Vol"|""|0|10|10,"BMS_2_1_Vol"|""|0|10|10,"BMS_2_1_Vol"|""|0|10|10,"BMS_2_1_Tem"|""|0|200|10,"BMS_2_1_Tem"|""|0|200|10,"BMS_2_1_Tem"|""|0|200|10,"Multiplexor"|""|0|0|10,"BMS_2_2_Vol"|""|0|10|10,"BMS_2_2_Vol"|""|0|10|10,"BMS_2_2_Vol"|""|0|10|10,"BMS_2_2_Tem"|""|0|200|10,"BMS_2_2_Tem"|""|0|200|10,"BMS_2_2_Tem"|""|0|200|10,"Multiplexor"|""|0|0|10,"BMS_3_1_Vol"|""|0|10|10,"BMS_3_1_Vol"|""|0|10|10,"BMS_3_1_Vol"|""|0|10|10,"BMS_3_1_Tem"|""|0|200|10,"BMS_3_1_Tem"|""|0|200|10,"BMS_3_1_Tem"|""|0|200|10,"Multiplexor"|""|0|0|10,"BMS_3_2_Vol"|""|0|10|10,"BMS_3_2_Vol"|""|0|10|10,"BMS_3_2_Vol"|""|0|10|10,"BMS_3_2_Tem"|""|0|200|10,"BMS_3_2_Tem"|""|0|200|10,"BMS_3_2_Tem"|""|0|200|10,"Multiplexor"|""|0|0|10,"BMS_4_1_Vol"|""|0|10|10,"BMS_4_1_Vol"|""|0|10|10,"BMS_4_1_Vol"|""|0|10|10,"BMS_4_1_Tem"|""|0|200|10,"BMS_4_1_Tem"|""|0|200|10,"BMS_4_1_Tem"|""|0|200|10,"Multiplexor"|""|0|0|10,"BMS_4_2_Vol"|""|0|10|10,"BMS_4_2_Vol"|""|0|10|10,"BMS_4_2_Vol"|""|0|10|10,"BMS_4_2_Tem"|""|0|200|10,"BMS_4_2_Tem"|""|0|200|10,"BMS_4_2_Tem"|""|0|200|10,"HS_MaxVolta"|""|0|655|10,"HS_MinVolta"|""|0|655|10,"HS_AverageV"|""|0|655|10,"HS_MaxTemp"|""|0|6553|10,"HS_MinTemp"|""|0|6553|10,"HS_AverageT"|""|0|6553|10,"HS_MaxTemp"|""|0|6553|10,"HS_MinTemp"|""|0|6553|10,"HS_AverageT"|""|0|6553|10,"HS_MaxTemp"|""|0|6553|10,"HS_MinTemp"|""|0|6553|10,"HS_AverageT"|""|0|6553|10,"HS_MaxTemp"|""|0|6553|10,"HS_MinTemp"|""|0|6553|10,"Latitude"|"Degrees"|-180.0|180.0|10,"Longitude"|"Degrees"|-180.0|180.0|10,"Speed"|"mph"|0.0|150.0|10,"Altitude"|"ft"|0.0|4000.0|10,"GPSSats"|""|0|20|10,"GPSQual"|""|0|5|10,"GPSDOP"|""|0.0|20.0|10,"LapCount"|""|0|0|10,"LapTime"|"Min"|0.0|0.0|10,"Sector"|""|0|0|10,"SectorTime"|"Min"|0.0|0.0|10,"PredTime"|"Min"|0.0|0.0|5,"CurrentLap"|""|0|0|10,"Distance"|"mi"|0.0|0.0|10,"SessionTime"|"Min"|0.0|0.0|10
1663,0,0.0277,,-0.01,0.02,-0.04,-0,1,0,0.05,0.05,97,,,,,,,,,,,,,,,,,,,,,,,,,,,,,,,,,,,,,,,,,,,,,,,,,,,,,,,,,,,,,,,,,,,,,,,,,,,,,,,,,,,,,,,,,,,,,,,,,,,,,,,,,,,,,,,,,,,
1703,0,0.0284,,-0.01,0.02,-0.04,-0,1,0,0.05,0.05,98,,,,,,,,,,,,,,,,,,,,,,,,,,,,,,,,,,,,,,,,,,,,,,,,,,,,,,,,,,,,,,,,,,,,,,,,,,,,,,,,,,,,,,,,,,,,,,,,,,,,,,,,,,,,,,,,,,,
1723,0,0.0287,,,,,,,,,,,0,0,0,0,0,0,0,1,0,0,0,0,1,9,2,1,12,0,0,151,0,0,138,3,3,0,50,18,0,0,0,0,0,0,0,0,0,0,0,0,0,0,0,0,0,4,4,4,0,390,389,0,0,0,0,0,0,0,0,0,0,0,0,0,0,0,4,4,4,1,394,392,0,0,0,0,0,0,0,0,0,0,0,0,0,0,0,0,0,0,0,0,0,0,0,0,0,0,0,0,0.0,0.0,0.0,0.0,0,0,0.0,0,0.0,-1,0.0,,0,0.0,0.0287
1743,0,0.029,,-0.01,0.02,-0.04,0,1,0,0.05,0.05,96,,,,,,,,,,,,,,,,,,,,,,,,,,,,,,,,,,,,,,,,,,,,,,,,,,,,,,,,,,,,,,,,,,,,,,,,,,,,,,,,,,,,,,,,,,,,,,,,,,,,,,,,,,,,,,,,,,,
1783,0,0.0297,,-0.01,0.02,-0.04,-0,1,0,0.04,0.05,96,,,,,,,,,,,,,,,,,,,,,,,,,,,,,,,,,,,,,,,,,,,,,,,,,,,,,,,,,,,,,,,,,,,,,,,,,,,,,,,,,,,,,,,,,,,,,,,,,,,,,,,,,,,,,,,,,,,
1823,0,0.0304,,-0.01,0.02,-0.04,0,1,0,0.05,0.05,96,0,0,0,0,0,0,0,1,0,0,0,0,1,9,2,1,12,0,0,151,0,0,138,4,4,0,50,21,0,0,0,0,0,0,0,0,0,0,0,0,0,0,0,0,0,4,4,4,0,390,389,0,0,0,0,0,0,0,0,0,0,0,0,0,0,0,4,4,4,1,394,392,0,0,0,0,0,0,0,0,0,0,0,0,0,0,0,0,0,0,0,0,0,0,0,0,0,0,0,0,0.0,0.0,0.0,0.0,0,0,0.0,0,0.0,-1,0.0,0.0,0,0.0,0.0304
1863,0,0.031,,-0.01,0.02,-0.04,-0,1,0,0.05,0.05,98,,,,,,,,,,,,,,,,,,,,,,,,,,,,,,,,,,,,,,,,,,,,,,,,,,,,,,,,,,,,,,,,,,,,,,,,,,,,,,,,,,,,,,,,,,,,,,,,,,,,,,,,,,,,,,,,,,,
1903,0,0.0317,,-0.01,0.02,-0.04,0,1,0,0.05,0.05,99,,,,,,,,,,,,,,,,,,,,,,,,,,,,,,,,,,,,,,,,,,,,,,,,,,,,,,,,,,,,,,,,,,,,,,,,,,,,,,,,,,,,,,,,,,,,,,,,,,,,,,,,,,,,,,,,,,,
1923,0,0.032,,,,,,,,,,,0,0,0,0,0,0,0,1,0,0,0,0,1,9,2,1,12,0,0,151,0,0,138,4,4,0,48,20,0,0,0,0,0,0,0,0,0,0,0,0,0,0,0,0,0,4,4,4,0,390,389,0,0,0,0,0,0,0,0,0,0,0,0,0,0,0,4,4,4,1,394,392,0,0,0,0,0,0,0,0,0,0,0,0,0,0,0,0,0,0,0,0,0,0,0,0,0,0,0,0,0.0,0.0,0.0,0.0,0,0,0.0,0,0.0,-1,0.0,,0,0.0,0.032
1943,0,0.0324,,-0.01,0.02,-0.04,0,1,0,0.05,0.05,98,,,,,,,,,,,,,,,,,,,,,,,,,,,,,,,,,,,,,,,,,,,,,,,,,,,,,,,,,,,,,,,,,,,,,,,,,,,,,,,,,,,,,,,,,,,,,,,,,,,,,,,,,,,,,,,,,,,
1983,0,0.033,,-0.01,0.02,-0.04,0,1,0,0.05,0.05,98,,,,,,,,,,,,,,,,,,,,,,,,,,,,,,,,,,,,,,,,,,,,,,,,,,,,,,,,,,,,,,,,,,,,,,,,,,,,,,,,,,,,,,,,,,,,,,,,,,,,,,,,,,,,,,,,,,,
2023,0,0.0337,,-0.01,0.02,-0.04,0,1,0,0.05,0.05,98,0,0,0,0,0,0,0,1,0,0,0,0,1,9,2,1,12,0,0,151,0,0,138,4,4,0,51,17,0,0,0,0,0,0,0,0,0,0,0,0,0,0,0,0,0,4,4,4,0,390,389,0,0,0,0,0,0,0,0,0,0,0,0,0,0,0,4,4,4,1,394,392,0,0,0,0,0,0,0,0,0,0,0,0,0,0,0,0,0,0,0,0,0,0,0,0,0,0,0,0,0.0,0.0,0.0,0.0,0,0,0.0,0,0.0,-1,0.0,0.0,0,0.0,0.0337
2063,0,0.0344,,-0.01,0.02,-0.04,0,1,0,0.05,0.05,98,,,,,,,,,,,,,,,,,,,,,,,,,,,,,,,,,,,,,,,,,,,,,,,,,,,,,,,,,,,,,,,,,,,,,,,,,,,,,,,,,,,,,,,,,,,,,,,,,,,,,,,,,,,,,,,,,,,
2103,0,0.035,,-0.01,0.02,-0.04,0,1,0,0.05,0.05,97,,,,,,,,,,,,,,,,,,,,,,,,,,,,,,,,,,,,,,,,,,,,,,,,,,,,,,,,,,,,,,,,,,,,,,,,,,,,,,,,,,,,,,,,,,,,,,,,,,,,,,,,,,,,,,,,,,,
2123,0,0.0354,,,,,,,,,,,0,0,0,0,0,0,0,1,0,0,0,0,1,9,2,1,12,0,0,151,0,0,138,4,4,0,51,18,0,0,0,0,0,0,0,0,0,0,0,0,0,0,0,0,0,4,4,4,0,390,389,0,0,0,0,0,0,0,0,0,0,0,0,0,0,0,4,4,4,1,394,392,0,0,0,0,0,0,0,0,0,0,0,0,0,0,0,0,0,0,0,0,0,0,0,0,0,0,0,0,0.0,0.0,0.0,0.0,0,0,0.0,0,0.0,-1,0.0,,0,0.0,0.0354
2143,0,0.0357,,-0.01,0.02,-0.04,0,1,0,0.05,0.05,98,,,,,,,,,,,,,,,,,,,,,,,,,,,,,,,,,,,,,,,,,,,,,,,,,,,,,,,,,,,,,,,,,,,,,,,,,,,,,,,,,,,,,,,,,,,,,,,,,,,,,,,,,,,,,,,,,,,
2183,0,0.0364,,-0.01,0.02,-0.04,0,1,0,0.05,0.05,97,,,,,,,,,,,,,,,,,,,,,,,,,,,,,,,,,,,,,,,,,,,,,,,,,,,,,,,,,,,,,,,,,,,,,,,,,,,,,,,,,,,,,,,,,,,,,,,,,,,,,,,,,,,,,,,,,,,
2223,0,0.037,,-0.01,0.02,-0.04,0,1,0,0.05,0.05,97,0,0,0,0,0,0,0,1,0,0,0,0,1,9,2,1,12,0,0,151,0,0,138,4,4,0,51,18,0,0,0,0,0,0,0,0,0,0,0,0,0,0,0,0,0,4,4,4,0,390,389,0,0,0,0,0,0,0,0,0,0,0,0,0,0,0,4,4,4,1,394,392,0,0,0,0,0,0,0,0,0,0,0,0,0,0,0,0,0,0,0,0,0,0,0,0,0,0,0,0,0.0,0.0,0.0,0.0,0,0,0.0,0,0.0,-1,0.0,0.0,0,0.0,0.037
2263,0,0.0377,,-0.01,0.02,-0.04,0,1,0,0.05,0.05,97,,,,,,,,,,,,,,,,,,,,,,,,,,,,,,,,,,,,,,,,,,,,,,,,,,,,,,,,,,,,,,,,,,,,,,,,,,,,,,,,,,,,,,,,,,,,,,,,,,,,,,,,,,,,,,,,,,,
2303,0,0.0384,,-0.01,0.02,-0.04,-0,1,0,0.05,0.05,98,,,,,,,,,,,,,,,,,,,,,,,,,,,,,,,,,,,,,,,,,,,,,,,,,,,,,,,,,,,,,,,,,,,,,,,,,,,,,,,,,,,,,,,,,,,,,,,,,,,,,,,,,,,,,,,,,,,
2323,0,0.0387,,,,,,,,,,,0,0,0,0,0,0,0,1,0,0,0,0,1,9,2,1,12,0,0,151,0,0,138,4,4,0,54,18,0,0,0,0,0,0,0,0,0,0,0,0,0,0,0,0,0,4,4,4,0,390,389,0,0,0,0,0,0,0,0,0,0,0,0,0,0,0,4,4,4,1,394,392,0,0,0,0,0,0,0,0,0,0,0,0,0,0,0,0,0,0,0,0,0,0,0,0,0,0,0,0,0.0,0.0,0.0,0.0,0,0,0.0,0,0.0,-1,0.0,,0,0.0,0.0387
2343,0,0.0391,,-0.01,0.02,-0.04,0,1,0,0.05,0.05,97,,,,,,,,,,,,,,,,,,,,,,,,,,,,,,,,,,,,,,,,,,,,,,,,,,,,,,,,,,,,,,,,,,,,,,,,,,,,,,,,,,,,,,,,,,,,,,,,,,,,,,,,,,,,,,,,,,,
2383,0,0.0397,,-0.01,0.02,-0.04,0,1,0,0.05,0.05,96,,,,,,,,,,,,,,,,,,,,,,,,,,,,,,,,,,,,,,,,,,,,,,,,,,,,,,,,,,,,,,,,,,,,,,,,,,,,,,,,,,,,,,,,,,,,,,,,,,,,,,,,,,,,,,,,,,,
2423,0,0.0404,12.12,-0.01,0.02,-0.04,0,1,0,0.04,0.05,94,0,0,0,0,0,0,0,1,0,0,0,0,1,9,2,1,12,0,0,151,0,0,138,4,4,0,47,17,0,0,0,0,0,0,0,0,0,0,0,0,0,0,0,0,0,4,4,4,0,390,389,0,0,0,0,0,0,0,0,0,0,0,0,0,0,0,4,4,4,1,394,392,0,0,0,0,0,0,0,0,0,0,0,0,0,0,0,0,0,0,0,0,0,0,0,0,0,0,0,0,0.0,0.0,0.0,0.0,0,0,0.0,0,0.0,-1,0.0,0.0,0,0.0,0.0404
2463,0,0.041,,-0.01,0.02,-0.04,0,1,0,0.04,0.05,94,,,,,,,,,,,,,,,,,,,,,,,,,,,,,,,,,,,,,,,,,,,,,,,,,,,,,,,,,,,,,,,,,,,,,,,,,,,,,,,,,,,,,,,,,,,,,,,,,,,,,,,,,,,,,,,,,,,
2503,0,0.0417,,-0.01,0.02,-0.04,0,1,0,0.04,0.05,93,,,,,,,,,,,,,,,,,,,,,,,,,,,,,,,,,,,,,,,,,,,,,,,,,,,,,,,,,,,,,,,,,,,,,,,,,,,,,,,,,,,,,,,,,,,,,,,,,,,,,,,,,,,,,,,,,,,
2523,0,0.042,,,,,,,,,,,0,0,0,0,0,0,0,1,0,0,0,0,1,9,2,1,12,0,0,151,0,0,138,5,5,0,51,18,0,0,0,0,0,0,0,0,0,0,0,0,0,0,0,0,0,4,4,4,0,390,389,0,0,0,0,0,0,0,0,0,0,0,0,0,0,2,1,0,0,53,51,50,0,0,0,0,0,0,0,0,0,0,0,0,0,0,0,0,0,0,0,0,0,0,0,0,0,0,0,0,0.0,0.0,0.0,0.0,0,0,0.0,0,0.0,-1,0.0,,0,0.0,0.042
2543,0,0.0424,,-0.01,0.02,-0.04,0,1,0,0.04,0.05,93,,,,,,,,,,,,,,,,,,,,,,,,,,,,,,,,,,,,,,,,,,,,,,,,,,,,,,,,,,,,,,,,,,,,,,,,,,,,,,,,,,,,,,,,,,,,,,,,,,,,,,,,,,,,,,,,,,,
2583,0,0.043,,-0.01,0.02,-0.04,0,1,0,0.04,0.05,96,,,,,,,,,,,,,,,,,,,,,,,,,,,,,,,,,,,,,,,,,,,,,,,,,,,,,,,,,,,,,,,,,,,,,,,,,,,,,,,,,,,,,,,,,,,,,,,,,,,,,,,,,,,,,,,,,,,
2623,0,0.0437,,-0.01,0.02,-0.03,0,1,0,0.04,0.05,92,0,0,0,0,0,0,0,1,0,0,0,0,1,9,2,1,12,0,0,151,0,0,138,5,5,0,52,18,0,0,0,0,0,0,0,0,0,0,0,0,0,0,0,0,0,4,4,4,0,390,389,0,0,0,0,0,0,0,0,0,0,0,0,0,0,2,1,0,0,53,51,50,0,0,0,0,0,0,0,0,0,0,0,0,0,0,0,0,0,0,0,0,0,0,0,0,0,0,0,0,0.0,0.0,0.0,0.0,0,0,0.0,0,0.0,-1,0.0,0.0,0,0.0,0.0437
2663,0,0.0444,,-0.01,0.02,-0.04,0,1,0,0.04,0.05,94,,,,,,,,,,,,,,,,,,,,,,,,,,,,,,,,,,,,,,,,,,,,,,,,,,,,,,,,,,,,,,,,,,,,,,,,,,,,,,,,,,,,,,,,,,,,,,,,,,,,,,,,,,,,,,,,,,,
2703,0,0.045,,-0.01,0.02,-0.04,0,0,0,0.04,0.05,94,,,,,,,,,,,,,,,,,,,,,,,,,,,,,,,,,,,,,,,,,,,,,,,,,,,,,,,,,,,,,,,,,,,,,,,,,,,,,,,,,,,,,,,,,,,,,,,,,,,,,,,,,,,,,,,,,,,
2723,0,0.0454,,,,,,,,,,,0,0,0,0,0,0,0,1,0,0,0,0,1,9,2,1,12,0,0,151,0,0,138,5,5,0,50,18,0,0,0,0,0,0,0,0,0,0,0,0,0,0,0,0,0,4,4,4,0,390,389,0,0,0,0,0,0,0,0,0,0,0,0,0,0,2,1,0,0,53,51,50,0,0,0,0,0,0,0,0,0,0,0,0,0,0,0,0,0,0,0,0,0,0,0,0,0,0,0,0,0.0,0.0,0.0,0.0,0,0,0.0,0,0.0,-1,0.0,,0,0.0,0.0454
2743,0,0.0457,,-0.01,0.02,-0.04,0,1,0,0.04,0.05,95,,,,,,,,,,,,,,,,,,,,,,,,,,,,,,,,,,,,,,,,,,,,,,,,,,,,,,,,,,,,,,,,,,,,,,,,,,,,,,,,,,,,,,,,,,,,,,,,,,,,,,,,,,,,,,,,,,,
2783,0,0.0464,,-0.01,0.02,-0.04,0,1,0,0.05,0.05,96,,,,,,,,,,,,,,,,,,,,,,,,,,,,,,,,,,,,,,,,,,,,,,,,,,,,,,,,,,,,,,,,,,,,,,,,,,,,,,,,,,,,,,,,,,,,,,,,,,,,,,,,,,,,,,,,,,,
2823,0,0.047,,-0.01,0.02,-0.04,0,1,0,0.05,0.05,96,0,0,0,0,0,0,0,1,0,0,0,0,1,9,2,1,12,0,0,151,0,0,138,5,5,0,52,17,0,0,0,0,0,0,0,0,0,0,0,0,0,0,0,0,0,4,4,4,0,390,389,0,0,0,0,0,0,0,0,0,0,0,0,0,0,2,1,0,0,53,51,50,0,0,0,0,0,0,0,0,0,0,0,0,0,0,0,0,0,0,0,0,0,0,0,0,0,0,0,0,0.0,0.0,0.0,0.0,0,0,0.0,0,0.0,-1,0.0,0.0,0,0.0,0.047
2863,0,0.0477,,-0.01,0.02,-0.04,0,1,0,0.05,0.05,96,,,,,,,,,,,,,,,,,,,,,,,,,,,,,,,,,,,,,,,,,,,,,,,,,,,,,,,,,,,,,,,,,,,,,,,,,,,,,,,,,,,,,,,,,,,,,,,,,,,,,,,,,,,,,,,,,,,
2903,0,0.0484,,-0.01,0.02,-0.04,0,1,0,0.05,0.05,96,,,,,,,,,,,,,,,,,,,,,,,,,,,,,,,,,,,,,,,,,,,,,,,,,,,,,,,,,,,,,,,,,,,,,,,,,,,,,,,,,,,,,,,,,,,,,,,,,,,,,,,,,,,,,,,,,,,
2923,0,0.0487,,,,,,,,,,,0,0,0,0,0,0,0,1,0,0,0,0,1,9,2,1,12,0,0,151,0,0,138,5,5,0,48,21,0,0,0,0,0,0,0,0,0,0,0,0,0,0,0,0,0,4,4,4,0,390,389,0,0,0,0,0,0,0,0,0,0,0,0,0,0,2,1,0,0,53,51,50,0,0,0,0,0,0,0,0,0,0,0,0,0,0,0,0,0,0,0,0,0,0,0,0,0,0,0,0,0.0,0.0,0.0,0.0,0,0,0.0,0,0.0,-1,0.0,,0,0.0,0.0487
2943,0,0.049,,-0.01,0.02,-0.04,0,1,0,0.05,0.05,97,,,,,,,,,,,,,,,,,,,,,,,,,,,,,,,,,,,,,,,,,,,,,,,,,,,,,,,,,,,,,,,,,,,,,,,,,,,,,,,,,,,,,,,,,,,,,,,,,,,,,,,,,,,,,,,,,,,
2983,0,0.0497,,-0.01,0.02,-0.04,-0,1,0,0.04,0.05,95,,,,,,,,,,,,,,,,,,,,,,,,,,,,,,,,,,,,,,,,,,,,,,,,,,,,,,,,,,,,,,,,,,,,,,,,,,,,,,,,,,,,,,,,,,,,,,,,,,,,,,,,,,,,,,,,,,,
3023,0,0.0504,,-0.01,0.02,-0.04,-0,1,0,0.04,0.05,96,0,0,0,0,0,0,0,1,0,0,0,0,1,9,2,1,12,0,0,151,0,0,138,5,5,0,52,18,0,0,2,1,1,0,53,52,51,0,0,0,0,0,0,0,0,4,4,4,0,390,389,0,0,0,0,0,0,0,0,0,0,0,0,0,0,2,1,0,0,53,51,50,0,0,0,0,0,0,0,0,0,0,0,0,0,0,0,0,0,0,0,0,0,0,0,0,0,0,0,0,0.0,0.0,0.0,0.0,0,0,0.0,0,0.0,-1,0.0,0.0,0,0.0,0.0504
3063,0,0.051,,-0.01,0.02,-0.04,-0,1,0,0.05,0.05,97,,,,,,,,,,,,,,,,,,,,,,,,,,,,,,,,,,,,,,,,,,,,,,,,,,,,,,,,,,,,,,,,,,,,,,,,,,,,,,,,,,,,,,,,,,,,,,,,,,,,,,,,,,,,,,,,,,,
3103,0,0.0517,,-0.01,0.02,-0.04,-0,1,0,0.05,0.05,97,,,,,,,,,,,,,,,,,,,,,,,,,,,,,,,,,,,,,,,,,,,,,,,,,,,,,,,,,,,,,,,,,,,,,,,,,,,,,,,,,,,,,,,,,,,,,,,,,,,,,,,,,,,,,,,,,,,
3123,0,0.052,,,,,,,,,,,0,0,0,0,0,0,0,1,0,0,0,0,1,9,2,1,12,0,0,151,0,0,138,6,6,0,51,20,0,0,2,1,1,0,53,52,51,0,0,0,0,0,0,0,0,4,4,4,0,390,389,0,0,0,0,0,0,0,0,0,0,0,0,0,0,2,1,0,0,53,51,50,0,0,0,0,0,0,0,0,0,0,0,0,0,0,0,0,0,0,0,0,0,0,0,0,0,0,0,0,0.0,0.0,0.0,0.0,0,0,0.0,0,0.0,-1,0.0,,0,0.0,0.052
3143,0,0.0524,,-0.01,0.02,-0.04,-0,1,0,0.04,0.05,96,,,,,,,,,,,,,,,,,,,,,,,,,,,,,,,,,,,,,,,,,,,,,,,,,,,,,,,,,,,,,,,,,,,,,,,,,,,,,,,,,,,,,,,,,,,,,,,,,,,,,,,,,,,,,,,,,,,
3183,0,0.053,,-0.01,0.02,-0.04,-0,1,0,0.04,0.05,96,,,,,,,,,,,,,,,,,,,,,,,,,,,,,,,,,,,,,,,,,,,,,,,,,,,,,,,,,,,,,,,,,,,,,,,,,,,,,,,,,,,,,,,,,,,,,,,,,,,,,,,,,,,,,,,,,,,
3223,0,0.0537,,-0.01,0.02,-0.04,-0,1,0,0.05,0.05,96,0,0,0,0,32,0,0,1,0,0,0,0,0,9,7,1,12,0,0,151,0,0,138,6,6,0,51,17,0,0,2,1,1,0,53,52,51,0,0,0,0,0,0,0,0,4,4,4,0,390,390,0,0,0,0,0,0,0,0,0,0,0,0,0,0,2,1,0,0,53,51,50,0,0,0,0,0,0,0,0,0,0,0,0,0,0,0,0,0,0,0,0,0,0,0,0,0,0,0,0,0.0,0.0,0.0,0.0,0,0,0.0,0,0.0,-1,0.0,0.0,0,0.0,0.0537
3263,0,0.0544,,-0.01,0.02,-0.04,-0,1,0,0.04,0.05,96,,,,,,,,,,,,,,,,,,,,,,,,,,,,,,,,,,,,,,,,,,,,,,,,,,,,,,,,,,,,,,,,,,,,,,,,,,,,,,,,,,,,,,,,,,,,,,,,,,,,,,,,,,,,,,,,,,,
3303,0,0.055,,-0.01,0.02,-0.04,-0,1,0,0.04,0.05,95,,,,,,,,,,,,,,,,,,,,,,,,,,,,,,,,,,,,,,,,,,,,,,,,,,,,,,,,,,,,,,,,,,,,,,,,,,,,,,,,,,,,,,,,,,,,,,,,,,,,,,,,,,,,,,,,,,,
3323,0,0.0554,,,,,,,,,,,0,0,0,0,32,0,0,1,0,0,0,0,0,9,7,1,12,0,0,151,0,0,138,6,6,0,50,18,0,0,2,1,1,0,53,52,51,0,0,0,0,0,0,0,0,4,4,4,0,390,390,0,0,0,0,0,0,0,0,0,0,0,0,0,0,2,1,0,0,53,51,50,0,0,0,0,0,0,0,0,0,0,0,0,0,0,0,0,0,0,0,0,0,0,0,0,0,0,0,0,0.0,0.0,0.0,0.0,0,0,0.0,0,0.0,-1,0.0,,0,0.0,0.0554
3343,0,0.0557,,-0.01,0.02,-0.04,-0,1,0,0.05,0.05,96,,,,,,,,,,,,,,,,,,,,,,,,,,,,,,,,,,,,,,,,,,,,,,,,,,,,,,,,,,,,,,,,,,,,,,,,,,,,,,,,,,,,,,,,,,,,,,,,,,,,,,,,,,,,,,,,,,,
3383,0,0.0564,,-0.01,0.02,-0.04,-0,0,0,0.04,0.05,95,,,,,,,,,,,,,,,,,,,,,,,,,,,,,,,,,,,,,,,,,,,,,,,,,,,,,,,,,,,,,,,,,,,,,,,,,,,,,,,,,,,,,,,,,,,,,,,,,,,,,,,,,,,,,,,,,,,
3423,0,0.057,12.24,-0.01,0.02,-0.04,-0,1,0,0.04,0.05,93,0,0,0,0,32,0,0,1,0,0,0,0,0,9,7,1,12,0,0,151,0,0,138,6,6,0,51,18,0,0,2,1,1,0,53,52,51,0,0,0,0,0,0,0,0,4,4,4,0,390,390,0,0,0,0,0,0,0,0,0,0,0,0,0,0,2,1,0,0,53,51,50,0,0,0,0,0,0,0,0,0,0,0,0,0,0,0,0,0,0,0,0,0,0,0,0,0,0,0,0,0.0,0.0,0.0,0.0,0,0,0.0,0,0.0,-1,0.0,0.0,0,0.0,0.057
3463,0,0.0577,,-0.01,0.02,-0.04,-0,0,0,0.04,0.05,95,,,,,,,,,,,,,,,,,,,,,,,,,,,,,,,,,,,,,,,,,,,,,,,,,,,,,,,,,,,,,,,,,,,,,,,,,,,,,,,,,,,,,,,,,,,,,,,,,,,,,,,,,,,,,,,,,,,
3503,0,0.0584,,-0.01,0.02,-0.04,-0,1,0,0.04,0.05,94,,,,,,,,,,,,,,,,,,,,,,,,,,,,,,,,,,,,,,,,,,,,,,,,,,,,,,,,,,,,,,,,,,,,,,,,,,,,,,,,,,,,,,,,,,,,,,,,,,,,,,,,,,,,,,,,,,,
3523,0,0.0587,,,,,,,,,,,0,0,0,0,32,0,0,1,0,0,0,0,0,9,7,1,12,0,0,151,0,0,138,6,6,0,52,18,0,0,2,1,1,0,53,52,51,0,0,0,0,0,0,0,0,4,4,4,0,390,390,0,0,0,0,0,0,0,0,0,0,0,0,0,0,2,1,0,0,53,51,50,0,0,0,0,0,0,0,0,0,0,0,0,0,0,0,0,0,0,0,0,0,0,0,0,0,0,0,0,0.0,0.0,0.0,0.0,0,0,0.0,0,0.0,-1,0.0,,0,0.0,0.0587
3543,0,0.059,,-0.01,0.02,-0.04,-0,0,0,0.04,0.05,94,,,,,,,,,,,,,,,,,,,,,,,,,,,,,,,,,,,,,,,,,,,,,,,,,,,,,,,,,,,,,,,,,,,,,,,,,,,,,,,,,,,,,,,,,,,,,,,,,,,,,,,,,,,,,,,,,,,
3583,0,0.0597,,-0.01,0.02,-0.04,-0,0,0,0.04,0.05,95,,,,,,,,,,,,,,,,,,,,,,,,,,,,,,,,,,,,,,,,,,,,,,,,,,,,,,,,,,,,,,,,,,,,,,,,,,,,,,,,,,,,,,,,,,,,,,,,,,,,,,,,,,,,,,,,,,,
3623,0,0.0604,,-0.01,0.02,-0.04,-0,0,0,0.04,0.05,95,0,0,0,0,32,0,0,1,0,0,0,0,0,9,7,1,12,0,0,151,0,0,138,6,6,0,50,18,0,0,2,1,1,0,53,52,51,0,0,0,0,0,0,0,0,4,4,4,0,390,390,0,0,0,0,0,0,0,0,0,0,0,0,0,0,2,1,0,0,53,51,50,0,0,0,0,0,0,0,0,0,0,0,0,0,0,0,0,0,0,0,0,0,0,0,0,0,0,0,0,0.0,0.0,0.0,0.0,0,0,0.0,0,0.0,-1,0.0,0.0,0,0.0,0.0604
3663,0,0.061,,-0.01,0.02,-0.04,-0,1,0,0.05,0.05,96,,,,,,,,,,,,,,,,,,,,,,,,,,,,,,,,,,,,,,,,,,,,,,,,,,,,,,,,,,,,,,,,,,,,,,,,,,,,,,,,,,,,,,,,,,,,,,,,,,,,,,,,,,,,,,,,,,,
3703,0,0.0617,,-0.01,0.02,-0.04,-0,1,0,0.05,0.05,96,,,,,,,,,,,,,,,,,,,,,,,,,,,,,,,,,,,,,,,,,,,,,,,,,,,,,,,,,,,,,,,,,,,,,,,,,,,,,,,,,,,,,,,,,,,,,,,,,,,,,,,,,,,,,,,,,,,
3723,0,0.062,,,,,,,,,,,0,0,0,0,32,0,0,1,0,0,0,0,0,9,7,1,12,0,0,151,0,0,138,6,6,0,51,20,0,0,2,1,1,0,53,52,51,0,0,0,0,0,0,0,0,4,4,4,0,390,390,0,0,0,0,0,0,0,0,0,0,0,0,0,0,2,1,0,0,53,51,50,0,0,0,0,0,0,0,0,0,0,0,0,0,0,0,0,0,0,0,0,0,0,0,0,0,0,0,0,0.0,0.0,0.0,0.0,0,0,0.0,0,0.0,-1,0.0,,0,0.0,0.062
3743,0,0.0624,,-0.01,0.02,-0.04,-0,1,0,0.05,0.05,96,,,,,,,,,,,,,,,,,,,,,,,,,,,,,,,,,,,,,,,,,,,,,,,,,,,,,,,,,,,,,,,,,,,,,,,,,,,,,,,,,,,,,,,,,,,,,,,,,,,,,,,,,,,,,,,,,,,
3783,0,0.063,,-0.01,0.02,-0.04,-0,0,0,0.05,0.05,96,,,,,,,,,,,,,,,,,,,,,,,,,,,,,,,,,,,,,,,,,,,,,,,,,,,,,,,,,,,,,,,,,,,,,,,,,,,,,,,,,,,,,,,,,,,,,,,,,,,,,,,,,,,,,,,,,,,
3823,0,0.0637,,-0.01,0.02,-0.04,-0,0,0,0.05,0.05,97,0,0,0,0,32,0,0,1,0,0,0,0,0,9,7,1,12,0,0,151,0,0,138,7,7,0,48,18,0,0,2,1,1,0,53,52,51,0,0,0,0,0,0,0,0,4,4,4,0,390,390,0,0,0,0,0,0,0,0,0,0,0,0,0,0,2,1,0,0,53,51,50,0,0,0,0,0,0,0,0,0,0,0,0,0,0,0,0,0,0,0,0,0,0,0,0,0,0,0,0,0.0,0.0,0.0,0.0,0,0,0.0,0,0.0,-1,0.0,0.0,0,0.0,0.0637
3863,0,0.0644,,-0.01,0.02,-0.04,-0,1,0,0.04,0.05,95,,,,,,,,,,,,,,,,,,,,,,,,,,,,,,,,,,,,,,,,,,,,,,,,,,,,,,,,,,,,,,,,,,,,,,,,,,,,,,,,,,,,,,,,,,,,,,,,,,,,,,,,,,,,,,,,,,,
3903,0,0.065,,-0.01,0.02,-0.04,-0,1,0,0.04,0.05,95,,,,,,,,,,,,,,,,,,,,,,,,,,,,,,,,,,,,,,,,,,,,,,,,,,,,,,,,,,,,,,,,,,,,,,,,,,,,,,,,,,,,,,,,,,,,,,,,,,,,,,,,,,,,,,,,,,,
3923,0,0.0654,,,,,,,,,,,0,0,0,0,32,0,0,1,0,0,0,0,0,9,7,1,12,0,0,151,0,0,138,7,7,0,50,20,0,0,2,1,1,0,53,52,51,0,0,0,0,0,0,0,0,4,4,4,0,390,390,0,0,0,0,0,0,0,0,0,0,0,0,0,0,2,1,0,0,53,51,50,0,0,0,0,0,0,0,0,0,0,0,0,0,0,0,0,0,0,0,0,0,0,0,0,0,0,0,0,0.0,0.0,0.0,0.0,0,0,0.0,0,0.0,-1,0.0,,0,0.0,0.0654
3943,0,0.0657,,-0.01,0.02,-0.04,-0,1,0,0.05,0.05,97,,,,,,,,,,,,,,,,,,,,,,,,,,,,,,,,,,,,,,,,,,,,,,,,,,,,,,,,,,,,,,,,,,,,,,,,,,,,,,,,,,,,,,,,,,,,,,,,,,,,,,,,,,,,,,,,,,,
3983,0,0.0664,,-0.01,0.02,-0.04,-0,1,0,0.04,0.05,96,,,,,,,,,,,,,,,,,,,,,,,,,,,,,,,,,,,,,,,,,,,,,,,,,,,,,,,,,,,,,,,,,,,,,,,,,,,,,,,,,,,,,,,,,,,,,,,,,,,,,,,,,,,,,,,,,,,
4023,0,0.067,,-0.01,0.02,-0.03,-0,1,0,0.04,0.05,93,0,0,0,0,32,0,0,1,0,0,0,0,0,9,7,1,12,0,0,151,0,0,138,7,7,0,51,18,0,0,2,1,1,0,53,52,51,0,0,0,0,0,0,0,0,4,4,4,0,390,390,0,0,0,0,0,0,0,0,0,0,0,0,0,0,2,1,0,0,53,51,50,0,0,0,0,0,0,0,0,0,0,0,0,0,0,0,0,0,0,0,0,0,0,0,0,0,0,0,0,0.0,0.0,0.0,0.0,0,0,0.0,0,0.0,-1,0.0,0.0,0,0.0,0.067
4063,0,0.0677,,-0.01,0.02,-0.04,-0,1,0,0.04,0.05,94,,,,,,,,,,,,,,,,,,,,,,,,,,,,,,,,,,,,,,,,,,,,,,,,,,,,,,,,,,,,,,,,,,,,,,,,,,,,,,,,,,,,,,,,,,,,,,,,,,,,,,,,,,,,,,,,,,,
4103,0,0.0684,,-0.01,0.02,-0.04,-0,1,0,0.04,0.05,96,,,,,,,,,,,,,,,,,,,,,,,,,,,,,,,,,,,,,,,,,,,,,,,,,,,,,,,,,,,,,,,,,,,,,,,,,,,,,,,,,,,,,,,,,,,,,,,,,,,,,,,,,,,,,,,,,,,
4123,0,0.0687,,,,,,,,,,,0,0,0,0,32,0,0,1,0,0,0,0,0,9,7,1,12,0,0,151,0,0,138,7,7,0,50,20,0,0,2,1,1,0,53,52,51,0,0,0,0,0,0,0,0,4,4,4,0,390,390,0,0,0,0,0,0,0,0,0,0,0,0,0,0,2,1,0,0,53,51,50,0,0,0,0,0,0,0,0,0,0,0,0,0,0,0,0,0,0,0,0,0,0,0,0,0,0,0,0,0.0,0.0,0.0,0.0,0,0,0.0,0,0.0,-1,0.0,,0,0.0,0.0687
4143,0,0.069,,-0.01,0.02,-0.04,-0,1,0,0.04,0.05,95,,,,,,,,,,,,,,,,,,,,,,,,,,,,,,,,,,,,,,,,,,,,,,,,,,,,,,,,,,,,,,,,,,,,,,,,,,,,,,,,,,,,,,,,,,,,,,,,,,,,,,,,,,,,,,,,,,,
4183,0,0.0697,,-0.01,0.02,-0.03,-0,1,0,0.04,0.05,92,,,,,,,,,,,,,,,,,,,,,,,,,,,,,,,,,,,,,,,,,,,,,,,,,,,,,,,,,,,,,,,,,,,,,,,,,,,,,,,,,,,,,,,,,,,,,,,,,,,,,,,,,,,,,,,,,,,
4223,0,0.0704,,-0.01,0.02,-0.03,-0,1,0,0.04,0.05,92,0,0,0,0,32,0,0,1,0,0,0,0,0,9,7,1,12,0,0,151,0,0,138,7,7,0,51,20,0,0,2,1,1,0,53,52,51,0,0,0,0,0,0,0,1,1,0,0,51,51,50,0,0,0,0,0,0,0,0,0,0,0,0,0,0,2,1,0,0,53,51,50,0,0,0,0,0,0,0,0,0,0,0,0,0,0,0,0,0,0,0,0,0,0,0,0,0,0,0,0,0.0,0.0,0.0,0.0,0,0,0.0,0,0.0,-1,0.0,0.0,0,0.0,0.0704
4263,0,0.0711,,-0.01,0.02,-0.03,-0,1,0,0.04,0.05,93,,,,,,,,,,,,,,,,,,,,,,,,,,,,,,,,,,,,,,,,,,,,,,,,,,,,,,,,,,,,,,,,,,,,,,,,,,,,,,,,,,,,,,,,,,,,,,,,,,,,,,,,,,,,,,,,,,,
4303,0,0.0717,,-0.01,0.02,-0.04,0,1,0,0.04,0.05,94,,,,,,,,,,,,,,,,,,,,,,,,,,,,,,,,,,,,,,,,,,,,,,,,,,,,,,,,,,,,,,,,,,,,,,,,,,,,,,,,,,,,,,,,,,,,,,,,,,,,,,,,,,,,,,,,,,,
4323,0,0.072,,,,,,,,,,,0,0,0,0,32,0,0,1,0,0,0,0,0,9,7,1,12,0,0,151,0,0,138,7,7,0,50,17,0,0,2,1,1,0,53,52,51,0,0,0,0,0,0,0,1,1,0,0,51,51,50,0,0,0,0,0,0,0,0,0,0,0,0,0,0,2,1,0,0,53,51,50,0,0,0,0,0,0,0,0,0,0,0,0,0,0,0,0,0,0,0,0,0,0,0,0,0,0,0,0,0.0,0.0,0.0,0.0,0,0,0.0,0,0.0,-1,0.0,,0,0.0,0.072
4343,0,0.0724,,-0.01,0.02,-0.04,0,0,0,0.04,0.05,94,,,,,,,,,,,,,,,,,,,,,,,,,,,,,,,,,,,,,,,,,,,,,,,,,,,,,,,,,,,,,,,,,,,,,,,,,,,,,,,,,,,,,,,,,,,,,,,,,,,,,,,,,,,,,,,,,,,
4383,0,0.073,,-0.01,0.02,-0.04,0,1,0,0.04,0.05,95,,,,,,,,,,,,,,,,,,,,,,,,,,,,,,,,,,,,,,,,,,,,,,,,,,,,,,,,,,,,,,,,,,,,,,,,,,,,,,,,,,,,,,,,,,,,,,,,,,,,,,,,,,,,,,,,,,,
4423,0,0.0737,12.19,-0.01,0.02,-0.04,0,1,0,0.04,0.05,95,0,0,0,0,32,0,0,1,0,0,0,0,0,9,7,1,12,0,0,151,0,0,138,7,7,0,48,18,0,0,2,1,1,0,53,52,51,0,0,0,0,0,0,0,1,1,0,0,51,51,50,0,0,0,0,0,0,0,0,0,0,0,0,0,0,2,1,0,0,53,51,50,0,0,0,0,0,0,0,0,0,0,0,0,0,0,0,0,0,0,0,0,0,0,0,0,0,0,0,0,0.0,0.0,0.0,0.0,0,0,0.0,0,0.0,-1,0.0,0.0,0,0.0,0.0737
4463,0,0.0744,,-0.01,0.02,-0.04,-0,1,0,0.04,0.05,95,,,,,,,,,,,,,,,,,,,,,,,,,,,,,,,,,,,,,,,,,,,,,,,,,,,,,,,,,,,,,,,,,,,,,,,,,,,,,,,,,,,,,,,,,,,,,,,,,,,,,,,,,,,,,,,,,,,
4503,0,0.075,,-0.01,0.02,-0.04,0,1,0,0.05,0.05,98,,,,,,,,,,,,,,,,,,,,,,,,,,,,,,,,,,,,,,,,,,,,,,,,,,,,,,,,,,,,,,,,,,,,,,,,,,,,,,,,,,,,,,,,,,,,,,,,,,,,,,,,,,,,,,,,,,,
4523,0,0.0754,,,,,,,,,,,0,0,0,0,32,0,0,1,0,0,0,0,0,9,7,1,12,0,0,151,0,0,138,8,8,0,50,23,0,0,2,1,1,0,53,52,51,0,0,0,0,0,0,0,1,1,0,0,51,51,50,0,0,0,0,0,0,0,0,0,0,0,0,0,0,0,4,4,4,1,392,392,0,0,0,0,0,0,0,0,0,0,0,0,0,0,0,0,0,0,0,0,0,0,0,0,0,0,0,0,0.0,0.0,0.0,0.0,0,0,0.0,0,0.0,-1,0.0,,0,0.0,0.0754
4543,0,0.0757,,-0.01,0.02,-0.04,-0,0,0,0.05,0.05,97,,,,,,,,,,,,,,,,,,,,,,,,,,,,,,,,,,,,,,,,,,,,,,,,,,,,,,,,,,,,,,,,,,,,,,,,,,,,,,,,,,,,,,,,,,,,,,,,,,,,,,,,,,,,,,,,,,,
4583,0,0.0764,,-0.01,0.02,-0.04,-0,0,0,0.05,0.05,96,,,,,,,,,,,,,,,,,,,,,,,,,,,,,,,,,,,,,,,,,,,,,,,,,,,,,,,,,,,,,,,,,,,,,,,,,,,,,,,,,,,,,,,,,,,,,,,,,,,,,,,,,,,,,,,,,,,
4623,0,0.077,,-0.01,0.02,-0.04,-0,1,0,0.05,0.05,96,0,0,0,0,32,0,0,1,0,0,0,0,0,9,7,1,12,0,0,151,0,0,138,8,8,0,50,20,0,0,2,1,1,0,53,52,51,0,0,0,0,0,0,0,1,1,0,0,51,51,50,0,0,0,0,0,0,0,0,0,0,0,0,0,0,0,4,4,4,1,392,392,0,0,0,0,0,0,0,0,0,0,0,0,0,0,0,0,0,0,0,0,0,0,0,0,0,0,0,0,0.0,0.0,0.0,0.0,0,0,0.0,0,0.0,-1,0.0,0.0,0,0.0,0.077
4663,0,0.0777,,-0.01,0.02,-0.04,-0,1,0,0.05,0.05,96,,,,,,,,,,,,,,,,,,,,,,,,,,,,,,,,,,,,,,,,,,,,,,,,,,,,,,,,,,,,,,,,,,,,,,,,,,,,,,,,,,,,,,,,,,,,,,,,,,,,,,,,,,,,,,,,,,,
4703,0,0.0784,,-0.01,0.02,-0.04,-0,1,0,0.05,0.05,97,,,,,,,,,,,,,,,,,,,,,,,,,,,,,,,,,,,,,,,,,,,,,,,,,,,,,,,,,,,,,,,,,,,,,,,,,,,,,,,,,,,,,,,,,,,,,,,,,,,,,,,,,,,,,,,,,,,
4723,0,0.0787,,,,,,,,,,,0,0,0,0,32,0,0,1,0,0,0,0,0,9,7,1,12,0,0,151,0,0,138,8,8,0,50,20,0,0,2,1,1,0,53,52,51,0,0,0,0,0,0,0,1,1,0,0,51,51,50,0,0,0,0,0,0,0,0,0,0,0,0,0,0,0,4,4,4,1,392,392,0,0,0,0,0,0,0,0,0,0,0,0,0,0,0,0,0,0,0,0,0,0,0,0,0,0,0,0,0.0,0.0,0.0,0.0,0,0,0.0,0,0.0,-1,0.0,,0,0.0,0.0787
4743,0,0.079,,-0.01,0.02,-0.04,-0,1,0,0.05,0.05,96,,,,,,,,,,,,,,,,,,,,,,,,,,,,,,,,,,,,,,,,,,,,,,,,,,,,,,,,,,,,,,,,,,,,,,,,,,,,,,,,,,,,,,,,,,,,,,,,,,,,,,,,,,,,,,,,,,,
4783,0,0.0797,,-0.01,0.02,-0.04,-0,1,0,0.04,0.05,96,,,,,,,,,,,,,,,,,,,,,,,,,,,,,,,,,,,,,,,,,,,,,,,,,,,,,,,,,,,,,,,,,,,,,,,,,,,,,,,,,,,,,,,,,,,,,,,,,,,,,,,,,,,,,,,,,,,
4823,0,0.0804,,-0.01,0.02,-0.04,0,1,0,0.04,0.05,94,0,0,0,0,32,0,0,1,0,0,0,0,0,9,7,1,12,0,0,151,0,0,138,8,8,0,52,20,0,0,2,1,1,0,53,52,51,0,0,0,0,0,0,0,1,1,0,0,51,51,50,0,0,0,0,0,0,0,0,0,0,0,0,0,0,0,4,4,4,1,392,392,0,0,0,0,0,0,0,0,0,0,0,0,0,0,0,0,0,0,0,0,0,0,0,0,0,0,0,0,0.0,0.0,0.0,0.0,0,0,0.0,0,0.0,-1,0.0,0.0,0,0.0,0.0804
4863,0,0.081,,-0.01,0.02,-0.03,0,0,0,0.04,0.05,93,,,,,,,,,,,,,,,,,,,,,,,,,,,,,,,,,,,,,,,,,,,,,,,,,,,,,,,,,,,,,,,,,,,,,,,,,,,,,,,,,,,,,,,,,,,,,,,,,,,,,,,,,,,,,,,,,,,
4903,0,0.0817,,-0.01,0.02,-0.03,0,0,0,0.04,0.05,93,,,,,,,,,,,,,,,,,,,,,,,,,,,,,,,,,,,,,,,,,,,,,,,,,,,,,,,,,,,,,,,,,,,,,,,,,,,,,,,,,,,,,,,,,,,,,,,,,,,,,,,,,,,,,,,,,,,
4923,0,0.0821,,,,,,,,,,,0,0,0,0,32,0,0,1,0,0,0,0,0,9,7,1,12,0,0,151,0,0,138,8,8,0,48,20,0,0,2,1,1,0,53,52,51,0,0,0,0,0,0,0,1,1,0,0,51,51,50,0,0,0,0,0,0,0,0,0,0,0,0,0,0,0,4,4,4,1,392,392,0,0,0,0,0,0,0,0,0,0,0,0,0,0,0,0,0,0,0,0,0,0,0,0,0,0,0,0,0.0,0.0,0.0,0.0,0,0,0.0,0,0.0,-1,0.0,,0,0.0,0.0821
4943,0,0.0824,,-0.01,0.02,-0.03,0,0,0,0.04,0.05,92,,,,,,,,,,,,,,,,,,,,,,,,,,,,,,,,,,,,,,,,,,,,,,,,,,,,,,,,,,,,,,,,,,,,,,,,,,,,,,,,,,,,,,,,,,,,,,,,,,,,,,,,,,,,,,,,,,,
4983,0,0.083,,-0.01,0.02,-0.04,0,0,0,0.04,0.05,94,,,,,,,,,,,,,,,,,,,,,,,,,,,,,,,,,,,,,,,,,,,,,,,,,,,,,,,,,,,,,,,,,,,,,,,,,,,,,,,,,,,,,,,,,,,,,,,,,,,,,,,,,,,,,,,,,,,
5023,0,0.0837,,-0.01,0.02,-0.04,0,0,0,0.04,0.05,93,0,0,0,0,32,0,0,1,0,0,0,0,0,9,7,1,12,0,0,151,0,0,138,8,8,0,51,21,0,0,2,1,1,0,53,52,51,0,0,0,0,0,0,0,1,1,0,0,51,51,50,0,0,0,0,0,0,0,0,0,0,0,0,0,0,0,4,4,4,1,392,392,0,0,0,0,0,0,0,0,0,0,0,0,0,0,0,0,0,0,0,0,0,0,0,0,0,0,0,0,0.0,0.0,0.0,0.0,0,0,0.0,0,0.0,-1,0.0,0.0,0,0.0,0.0837
5063,0,0.0844,,-0.01,0.02,-0.04,0,0,0,0.04,0.05,95,,,,,,,,,,,,,,,,,,,,,,,,,,,,,,,,,,,,,,,,,,,,,,,,,,,,,,,,,,,,,,,,,,,,,,,,,,,,,,,,,,,,,,,,,,,,,,,,,,,,,,,,,,,,,,,,,,,
5103,0,0.085,,-0.01,0.02,-0.04,-0,1,0,0.04,0.05,95,,,,,,,,,,,,,,,,,,,,,,,,,,,,,,,,,,,,,,,,,,,,,,,,,,,,,,,,,,,,,,,,,,,,,,,,,,,,,,,,,,,,,,,,,,,,,,,,,,,,,,,,,,,,,,,,,,,
5123,0,0.0854,,,,,,,,,,,0,0,0,0,32,0,0,1,0,0,0,0,0,9,7,1,12,0,0,151,0,0,138,8,8,0,50,21,0,0,2,1,1,0,53,52,51,0,0,0,0,0,0,0,1,1,0,0,51,51,50,0,0,0,0,0,0,0,0,0,0,0,0,0,0,0,4,4,4,1,392,392,0,0,0,0,0,0,0,0,0,0,0,0,0,0,0,0,0,0,0,0,0,0,0,0,0,0,0,0,0.0,0.0,0.0,0.0,0,0,0.0,0,0.0,-1,0.0,,0,0.0,0.0854
5143,0,0.0857,,-0.01,0.02,-0.04,-0,1,0,0.04,0.05,95,,,,,,,,,,,,,,,,,,,,,,,,,,,,,,,,,,,,,,,,,,,,,,,,,,,,,,,,,,,,,,,,,,,,,,,,,,,,,,,,,,,,,,,,,,,,,,,,,,,,,,,,,,,,,,,,,,,
5183,0,0.0864,,-0.01,0.02,-0.04,0,1,0,0.04,0.05,94,,,,,,,,,,,,,,,,,,,,,,,,,,,,,,,,,,,,,,,,,,,,,,,,,,,,,,,,,,,,,,,,,,,,,,,,,,,,,,,,,,,,,,,,,,,,,,,,,,,,,,,,,,,,,,,,,,,
5223,0,0.087,,-0.01,0.02,-0.04,0,1,0,0.04,0.05,95,0,0,0,0,32,0,0,1,0,0,0,0,0,9,7,1,12,0,0,151,0,0,138,8,8,0,47,20,0,0,2,1,1,0,53,52,51,0,0,0,0,0,0,0,1,1,0,0,51,51,50,0,0,0,0,0,0,0,0,0,0,0,0,0,0,0,4,4,4,1,392,392,0,0,0,0,0,0,0,0,0,0,0,0,0,0,0,0,0,0,0,0,0,0,0,0,0,0,0,0,0.0,0.0,0.0,0.0,0,0,0.0,0,0.0,-1,0.0,0.0,0,0.0,0.087
5263,0,0.0877,,-0.01,0.02,-0.04,-0,1,0,0.04,0.05,95,,,,,,,,,,,,,,,,,,,,,,,,,,,,,,,,,,,,,,,,,,,,,,,,,,,,,,,,,,,,,,,,,,,,,,,,,,,,,,,,,,,,,,,,,,,,,,,,,,,,,,,,,,,,,,,,,,,
5303,0,0.0884,,-0.01,0.02,-0.04,0,0,0,0.05,0.05,96,,,,,,,,,,,,,,,,,,,,,,,,,,,,,,,,,,,,,,,,,,,,,,,,,,,,,,,,,,,,,,,,,,,,,,,,,,,,,,,,,,,,,,,,,,,,,,,,,,,,,,,,,,,,,,,,,,,
5323,0,0.0887,,,,,,,,,,,0,0,0,0,32,0,0,1,0,0,0,0,0,9,7,1,12,0,0,151,0,0,138,8,8,0,51,18,0,0,2,1,1,0,53,52,51,0,0,0,0,0,0,0,1,1,0,0,51,51,50,0,0,0,0,0,0,0,0,0,0,0,0,0,0,0,4,4,4,1,392,392,0,0,0,0,0,0,0,0,0,0,0,0,0,0,0,0,0,0,0,0,0,0,0,0,0,0,0,0,0.0,0.0,0.0,0.0,0,0,0.0,0,0.0,-1,0.0,,0,0.0,0.0887
5343,0,0.089,,-0.01,0.02,-0.04,0,1,0,0.05,0.05,97,,,,,,,,,,,,,,,,,,,,,,,,,,,,,,,,,,,,,,,,,,,,,,,,,,,,,,,,,,,,,,,,,,,,,,,,,,,,,,,,,,,,,,,,,,,,,,,,,,,,,,,,,,,,,,,,,,,
5383,0,0.0897,,-0.01,0.02,-0.04,0,1,0,0.05,0.05,98,,,,,,,,,,,,,,,,,,,,,,,,,,,,,,,,,,,,,,,,,,,,,,,,,,,,,,,,,,,,,,,,,,,,,,,,,,,,,,,,,,,,,,,,,,,,,,,,,,,,,,,,,,,,,,,,,,,
5423,0,0.0904,12.22,-0.01,0.02,-0.04,0,1,0,0.05,0.05,100,0,0,0,0,32,0,0,1,0,0,0,0,0,9,7,1,12,0,0,151,0,0,138,9,9,0,52,21,0,0,2,1,1,0,53,52,51,0,0,0,0,0,0,0,1,1,0,0,51,51,50,0,0,0,0,0,0,0,0,0,0,0,0,0,0,0,4,4,4,1,392,392,0,0,0,0,0,0,0,0,0,0,0,0,0,0,0,0,0,0,0,0,0,0,0,0,0,0,0,0,0.0,0.0,0.0,0.0,0,0,0.0,0,0.0,-1,0.0,0.0,0,0.0,0.0904
5463,0,0.091,,-0.01,0.02,-0.04,0,1,0,0.05,0.05,100,,,,,,,,,,,,,,,,,,,,,,,,,,,,,,,,,,,,,,,,,,,,,,,,,,,,,,,,,,,,,,,,,,,,,,,,,,,,,,,,,,,,,,,,,,,,,,,,,,,,,,,,,,,,,,,,,,,
5503,0,0.0917,,-0.01,0.02,-0.04,-0,1,0,0.05,0.05,99,,,,,,,,,,,,,,,,,,,,,,,,,,,,,,,,,,,,,,,,,,,,,,,,,,,,,,,,,,,,,,,,,,,,,,,,,,,,,,,,,,,,,,,,,,,,,,,,,,,,,,,,,,,,,,,,,,,
5523,0,0.092,,,,,,,,,,,0,0,0,0,32,0,0,1,0,0,0,0,0,9,7,1,12,0,0,151,0,0,138,9,9,0,52,18,0,0,2,1,1,0,53,52,51,0,0,0,0,0,0,0,1,1,0,0,51,51,50,0,0,0,0,0,0,0,0,0,0,0,0,0,0,2,1,0,0,53,51,50,0,0,0,0,0,0,0,0,0,0,0,0,0,0,0,0,0,0,0,0,0,0,0,0,0,0,0,0,0.0,0.0,0.0,0.0,0,0,0.0,0,0.0,-1,0.0,,0,0.0,0.092
5543,0,0.0924,,-0.01,0.02,-0.04,0,1,0,0.05,0.05,99,,,,,,,,,,,,,,,,,,,,,,,,,,,,,,,,,,,,,,,,,,,,,,,,,,,,,,,,,,,,,,,,,,,,,,,,,,,,,,,,,,,,,,,,,,,,,,,,,,,,,,,,,,,,,,,,,,,
5583,0,0.093,,-0.01,0.02,-0.04,-0,1,0,0.05,0.05,98,,,,,,,,,,,,,,,,,,,,,,,,,,,,,,,,,,,,,,,,,,,,,,,,,,,,,,,,,,,,,,,,,,,,,,,,,,,,,,,,,,,,,,,,,,,,,,,,,,,,,,,,,,,,,,,,,,,
5623,0,0.0937,,-0.01,0.02,-0.04,-0,1,0,0.05,0.05,97,0,0,0,0,32,0,0,1,0,0,0,0,0,9,7,1,12,0,0,151,0,0,138,9,9,0,51,20,0,0,2,1,1,0,53,52,51,0,0,0,0,0,0,0,1,1,0,0,51,51,50,0,0,0,0,0,0,0,0,0,0,0,0,0,0,2,1,0,0,53,51,50,0,0,0,0,0,0,0,0,0,0,0,0,0,0,0,0,0,0,0,0,0,0,0,0,0,0,0,0,0.0,0.0,0.0,0.0,0,0,0.0,0,0.0,-1,0.0,0.0,0,0.0,0.0937
5663,0,0.0944,,-0.01,0.02,-0.04,-0,1,0,0.05,0.05,96,,,,,,,,,,,,,,,,,,,,,,,,,,,,,,,,,,,,,,,,,,,,,,,,,,,,,,,,,,,,,,,,,,,,,,,,,,,,,,,,,,,,,,,,,,,,,,,,,,,,,,,,,,,,,,,,,,,
5703,0,0.095,,-0.01,0.02,-0.04,-0,1,0,0.05,0.05,96,,,,,,,,,,,,,,,,,,,,,,,,,,,,,,,,,,,,,,,,,,,,,,,,,,,,,,,,,,,,,,,,,,,,,,,,,,,,,,,,,,,,,,,,,,,,,,,,,,,,,,,,,,,,,,,,,,,
5723,0,0.0954,,,,,,,,,,,0,0,0,0,32,0,0,1,0,0,0,0,0,9,7,1,12,0,0,151,0,0,138,9,9,0,51,20,0,0,2,1,1,0,53,52,51,0,0,0,0,0,0,0,1,1,0,0,51,51,50,0,0,0,0,0,0,0,0,0,0,0,0,0,0,2,1,0,0,53,51,50,0,0,0,0,0,0,0,0,0,0,0,0,0,0,0,0,0,0,0,0,0,0,0,0,0,0,0,0,0.0,0.0,0.0,0.0,0,0,0.0,0,0.0,-1,0.0,,0,0.0,0.0954
5743,0,0.0957,,-0.01,0.02,-0.04,-0,0,0,0.05,0.05,96,,,,,,,,,,,,,,,,,,,,,,,,,,,,,,,,,,,,,,,,,,,,,,,,,,,,,,,,,,,,,,,,,,,,,,,,,,,,,,,,,,,,,,,,,,,,,,,,,,,,,,,,,,,,,,,,,,,
5783,0,0.0964,,-0.01,0.02,-0.04,-0,1,0,0.05,0.05,96,,,,,,,,,,,,,,,,,,,,,,,,,,,,,,,,,,,,,,,,,,,,,,,,,,,,,,,,,,,,,,,,,,,,,,,,,,,,,,,,,,,,,,,,,,,,,,,,,,,,,,,,,,,,,,,,,,,
5823,0,0.0971,,-0.01,0.02,-0.04,-0,1,0,0.05,0.05,96,0,0,0,0,32,0,0,1,0,0,0,0,0,9,7,1,12,0,0,151,0,0,138,9,9,0,48,21,0,0,2,1,1,0,53,52,51,0,0,0,0,0,0,0,1,1,0,0,51,51,50,0,0,0,0,0,0,0,0,0,0,0,0,0,0,2,1,0,0,53,51,50,0,0,0,0,0,0,0,0,0,0,0,0,0,0,0,0,0,0,0,0,0,0,0,0,0,0,0,0,0.0,0.0,0.0,0.0,0,0,0.0,0,0.0,-1,0.0,0.0,0,0.0,0.0971
5863,0,0.0977,,-0.01,0.02,-0.04,-0,1,0,0.04,0.05,94,,,,,,,,,,,,,,,,,,,,,,,,,,,,,,,,,,,,,,,,,,,,,,,,,,,,,,,,,,,,,,,,,,,,,,,,,,,,,,,,,,,,,,,,,,,,,,,,,,,,,,,,,,,,,,,,,,,
5903,0,0.0984,,-0.01,0.02,-0.04,0,0,0,0.05,0.05,95,,,,,,,,,,,,,,,,,,,,,,,,,,,,,,,,,,,,,,,,,,,,,,,,,,,,,,,,,,,,,,,,,,,,,,,,,,,,,,,,,,,,,,,,,,,,,,,,,,,,,,,,,,,,,,,,,,,
5923,0,0.0987,,,,,,,,,,,0,0,0,0,32,0,0,1,0,0,0,0,0,9,7,1,12,0,0,151,0,0,138,9,9,0,50,20,0,0,2,1,1,0,53,52,51,0,0,0,0,0,0,0,1,1,0,0,51,51,50,0,0,0,0,0,0,0,0,0,0,0,0,0,0,2,1,0,0,53,51,50,0,0,0,0,0,0,0,0,0,0,0,0,0,0,0,0,0,0,0,0,0,0,0,0,0,0,0,0,0.0,0.0,0.0,0.0,0,0,0.0,0,0.0,-1,0.0,,0,0.0,0.0987
5943,0,0.099,,-0.01,0.02,-0.04,0,1,0,0.04,0.05,94,,,,,,,,,,,,,,,,,,,,,,,,,,,,,,,,,,,,,,,,,,,,,,,,,,,,,,,,,,,,,,,,,,,,,,,,,,,,,,,,,,,,,,,,,,,,,,,,,,,,,,,,,,,,,,,,,,,
5983,0,0.0997,,-0.01,0.02,-0.04,-0,0,0,0.04,0.05,93,,,,,,,,,,,,,,,,,,,,,,,,,,,,,,,,,,,,,,,,,,,,,,,,,,,,,,,,,,,,,,,,,,,,,,,,,,,,,,,,,,,,,,,,,,,,,,,,,,,,,,,,,,,,,,,,,,,
6023,0,0.1004,,-0.01,0.02,-0.04,-0,1,0,0.04,0.05,93,0,0,0,0,32,0,0,1,0,0,0,0,0,9,7,1,12,0,0,151,0,0,138,9,9,0,51,21,0,0,2,1,1,0,53,52,51,0,0,0,0,0,0,0,1,1,0,0,51,51,50,0,0,0,0,0,0,0,0,0,0,0,0,0,0,2,1,0,0,53,51,50,0,0,0,0,0,0,0,0,0,0,0,0,0,0,0,0,0,0,0,0,0,0,0,0,0,0,0,0,0.0,0.0,0.0,0.0,0,0,0.0,0,0.0,-1,0.0,0.0,0,0.0,0.1004
6063,0,0.101,,-0.01,0.02,-0.04,-0,1,0,0.04,0.05,93,,,,,,,,,,,,,,,,,,,,,,,,,,,,,,,,,,,,,,,,,,,,,,,,,,,,,,,,,,,,,,,,,,,,,,,,,,,,,,,,,,,,,,,,,,,,,,,,,,,,,,,,,,,,,,,,,,,
6103,0,0.1017,,-0.01,0.02,-0.04,-0,1,0,0.05,0.05,94,,,,,,,,,,,,,,,,,,,,,,,,,,,,,,,,,,,,,,,,,,,,,,,,,,,,,,,,,,,,,,,,,,,,,,,,,,,,,,,,,,,,,,,,,,,,,,,,,,,,,,,,,,,,,,,,,,,
6123,0,0.102,,,,,,,,,,,0,0,0,0,32,0,0,1,0,0,0,0,0,9,7,1,12,0,0,151,0,0,138,9,9,0,50,18,0,0,2,1,1,0,53,52,51,0,0,0,0,0,0,0,1,1,0,0,51,51,50,0,0,0,0,0,0,0,0,0,0,0,0,0,0,2,1,0,0,53,51,50,0,0,0,0,0,0,0,0,0,0,0,0,0,0,0,0,0,0,0,0,0,0,0,0,0,0,0,0,0.0,0.0,0.0,0.0,0,0,0.0,0,0.0,-1,0.0,,0,0.0,0.102
6143,0,0.1024,,-0.01,0.02,-0.04,0,1,0,0.04,0.05,94,,,,,,,,,,,,,,,,,,,,,,,,,,,,,,,,,,,,,,,,,,,,,,,,,,,,,,,,,,,,,,,,,,,,,,,,,,,,,,,,,,,,,,,,,,,,,,,,,,,,,,,,,,,,,,,,,,,
6183,0,0.103,,-0.01,0.02,-0.04,0,0,0,0.05,0.05,94,,,,,,,,,,,,,,,,,,,,,,,,,,,,,,,,,,,,,,,,,,,,,,,,,,,,,,,,,,,,,,,,,,,,,,,,,,,,,,,,,,,,,,,,,,,,,,,,,,,,,,,,,,,,,,,,,,,
6223,0,0.1037,,-0.01,0.02,-0.04,0,0,0,0.04,0.05,94,0,0,0,0,32,0,0,1,0,0,0,0,0,9,7,1,12,0,0,151,0,0,138,9,9,0,51,20,0,0,2,1,1,0,53,52,51,0,0,0,0,0,0,0,0,4,4,4,0,390,389,0,0,0,0,0,0,0,0,0,0,0,0,0,0,2,1,0,0,53,51,50,0,0,0,0,0,0,0,0,0,0,0,0,0,0,0,0,0,0,0,0,0,0,0,0,0,0,0,0,0.0,0.0,0.0,0.0,0,0,0.0,0,0.0,-1,0.0,0.0,0,0.0,0.1037
6263,0,0.1044,,-0.01,0.02,-0.04,0,1,0,0.05,0.05,96,,,,,,,,,,,,,,,,,,,,,,,,,,,,,,,,,,,,,,,,,,,,,,,,,,,,,,,,,,,,,,,,,,,,,,,,,,,,,,,,,,,,,,,,,,,,,,,,,,,,,,,,,,,,,,,,,,,
6303,0,0.105,,-0.01,0.02,-0.04,0,1,0,0.05,0.05,96,,,,,,,,,,,,,,,,,,,,,,,,,,,,,,,,,,,,,,,,,,,,,,,,,,,,,,,,,,,,,,,,,,,,,,,,,,,,,,,,,,,,,,,,,,,,,,,,,,,,,,,,,,,,,,,,,,,
6323,0,0.1054,,,,,,,,,,,0,0,0,0,32,0,0,1,0,0,0,0,0,9,7,1,12,0,0,151,0,0,138,10,10,0,52,20,0,0,2,1,1,0,53,52,51,0,0,0,0,0,0,0,0,4,4,4,0,390,389,0,0,0,0,0,0,0,0,0,0,0,0,0,0,2,1,0,0,53,51,50,0,0,0,0,0,0,0,0,0,0,0,0,0,0,0,0,0,0,0,0,0,0,0,0,0,0,0,0,0.0,0.0,0.0,0.0,0,0,0.0,0,0.0,-1,0.0,,0,0.0,0.1054
6343,0,0.1057,,-0.01,0.02,-0.04,0,1,0,0.05,0.05,96,,,,,,,,,,,,,,,,,,,,,,,,,,,,,,,,,,,,,,,,,,,,,,,,,,,,,,,,,,,,,,,,,,,,,,,,,,,,,,,,,,,,,,,,,,,,,,,,,,,,,,,,,,,,,,,,,,,
6383,0,0.1064,,-0.01,0.02,-0.04,0,1,0,0.05,0.05,97,,,,,,,,,,,,,,,,,,,,,,,,,,,,,,,,,,,,,,,,,,,,,,,,,,,,,,,,,,,,,,,,,,,,,,,,,,,,,,,,,,,,,,,,,,,,,,,,,,,,,,,,,,,,,,,,,,,
6423,0,0.107,12.22,-0.01,0.02,-0.04,0,1,0,0.05,0.05,98,0,0,0,0,32,0,0,1,0,0,0,0,0,9,7,1,12,0,0,151,0,0,138,10,10,0,50,18,0,0,2,1,1,0,53,52,51,0,0,0,0,0,0,0,0,4,4,4,0,390,389,0,0,0,0,0,0,0,0,0,0,0,0,0,0,2,1,0,0,53,51,50,0,0,0,0,0,0,0,0,0,0,0,0,0,0,0,0,0,0,0,0,0,0,0,0,0,0,0,0,0.0,0.0,0.0,0.0,0,0,0.0,0,0.0,-1,0.0,0.0,0,0.0,0.107
6463,0,0.1077,,-0.01,0.02,-0.04,0,1,0,0.05,0.05,97,,,,,,,,,,,,,,,,,,,,,,,,,,,,,,,,,,,,,,,,,,,,,,,,,,,,,,,,,,,,,,,,,,,,,,,,,,,,,,,,,,,,,,,,,,,,,,,,,,,,,,,,,,,,,,,,,,,
6503,0,0.1084,,-0.01,0.02,-0.04,0,1,0,0.05,0.05,98,,,,,,,,,,,,,,,,,,,,,,,,,,,,,,,,,,,,,,,,,,,,,,,,,,,,,,,,,,,,,,,,,,,,,,,,,,,,,,,,,,,,,,,,,,,,,,,,,,,,,,,,,,,,,,,,,,,
6523,0,0.1087,,,,,,,,,,,0,0,0,0,32,0,0,1,0,0,0,0,0,9,7,1,12,0,0,151,0,0,138,10,10,0,51,20,0,0,2,1,1,0,53,52,51,0,0,0,0,0,0,0,0,4,4,4,0,390,389,0,0,0,0,0,0,0,0,0,0,0,0,0,0,2,1,0,0,53,51,50,0,0,0,0,0,0,0,0,0,0,0,0,0,0,0,0,0,0,0,0,0,0,0,0,0,0,0,0,0.0,0.0,0.0,0.0,0,0,0.0,0,0.0,-1,0.0,,0,0.0,0.1087
6543,0,0.109,,-0.01,0.02,-0.04,0,0,0,0.05,0.05,99,,,,,,,,,,,,,,,,,,,,,,,,,,,,,,,,,,,,,,,,,,,,,,,,,,,,,,,,,,,,,,,,,,,,,,,,,,,,,,,,,,,,,,,,,,,,,,,,,,,,,,,,,,,,,,,,,,,
6583,0,0.1097,,-0.01,0.02,-0.04,0,0,0,0.05,0.05,98,,,,,,,,,,,,,,,,,,,,,,,,,,,,,,,,,,,,,,,,,,,,,,,,,,,,,,,,,,,,,,,,,,,,,,,,,,,,,,,,,,,,,,,,,,,,,,,,,,,,,,,,,,,,,,,,,,,
6623,0,0.1104,,-0.01,0.02,-0.04,0,0,0,0.05,0.05,97,0,0,0,0,32,0,0,1,0,0,0,0,0,9,7,1,12,0,0,151,0,0,138,10,10,0,51,20,0,0,2,1,1,0,53,52,51,0,0,0,0,0,0,0,0,4,4,4,0,390,389,0,0,0,0,0,0,0,0,0,0,0,0,0,0,2,1,0,0,53,51,50,0,0,0,0,0,0,0,0,0,0,0,0,0,0,0,0,0,0,0,0,0,0,0,0,0,0,0,0,0.0,0.0,0.0,0.0,0,0,0.0,0,0.0,-1,0.0,0.0,0,0.0,0.1104
6663,0,0.111,,-0.01,0.02,-0.04,0,0,0,0.05,0.05,97,,,,,,,,,,,,,,,,,,,,,,,,,,,,,,,,,,,,,,,,,,,,,,,,,,,,,,,,,,,,,,,,,,,,,,,,,,,,,,,,,,,,,,,,,,,,,,,,,,,,,,,,,,,,,,,,,,,
6703,0,0.1117,,-0.01,0.02,-0.04,0,1,0,0.05,0.05,96,,,,,,,,,,,,,,,,,,,,,,,,,,,,,,,,,,,,,,,,,,,,,,,,,,,,,,,,,,,,,,,,,,,,,,,,,,,,,,,,,,,,,,,,,,,,,,,,,,,,,,,,,,,,,,,,,,,
6723,0,0.112,,,,,,,,,,,0,0,0,0,32,0,0,1,0,0,0,0,0,9,7,1,12,0,0,151,0,0,138,10,10,0,51,21,0,0,2,1,1,0,53,52,51,0,0,0,0,0,0,0,0,4,4,4,0,390,389,0,0,0,0,0,0,0,0,0,0,0,0,0,0,2,1,0,0,53,51,50,0,0,0,0,0,0,0,0,0,0,0,0,0,0,0,0,0,0,0,0,0,0,0,0,0,0,0,0,0.0,0.0,0.0,0.0,0,0,0.0,0,0.0,-1,0.0,,0,0.0,0.112
6743,0,0.1124,,-0.01,0.02,-0.04,0,1,0,0.05,0.05,96,,,,,,,,,,,,,,,,,,,,,,,,,,,,,,,,,,,,,,,,,,,,,,,,,,,,,,,,,,,,,,,,,,,,,,,,,,,,,,,,,,,,,,,,,,,,,,,,,,,,,,,,,,,,,,,,,,,
6783,0,0.113,,-0.01,0.02,-0.04,0,1,0,0.05,0.05,95,,,,,,,,,,,,,,,,,,,,,,,,,,,,,,,,,,,,,,,,,,,,,,,,,,,,,,,,,,,,,,,,,,,,,,,,,,,,,,,,,,,,,,,,,,,,,,,,,,,,,,,,,,,,,,,,,,,
6823,0,0.1137,,-0.01,0.02,-0.04,-0,1,0,0.04,0.05,94,0,0,0,0,32,0,0,1,0,0,0,0,0,9,7,1,12,0,0,151,0,0,138,10,10,0,50,23,0,0,2,1,1,0,53,52,51,0,0,0,0,0,0,0,0,4,4,4,0,390,389,0,0,0,0,0,0,0,0,0,0,0,0,0,0,2,1,0,0,53,51,50,0,0,0,0,0,0,0,0,0,0,0,0,0,0,0,0,0,0,0,0,0,0,0,0,0,0,0,0,0.0,0.0,0.0,0.0,0,0,0.0,0,0.0,-1,0.0,0.0,0,0.0,0.1137
6863,0,0.1144,,-0.01,0.02,-0.04,-0,1,0,0.04,0.05,92,,,,,,,,,,,,,,,,,,,,,,,,,,,,,,,,,,,,,,,,,,,,,,,,,,,,,,,,,,,,,,,,,,,,,,,,,,,,,,,,,,,,,,,,,,,,,,,,,,,,,,,,,,,,,,,,,,,
6903,0,0.115,,-0.01,0.02,-0.04,-0,1,0,0.04,0.05,93,,,,,,,,,,,,,,,,,,,,,,,,,,,,,,,,,,,,,,,,,,,,,,,,,,,,,,,,,,,,,,,,,,,,,,,,,,,,,,,,,,,,,,,,,,,,,,,,,,,,,,,,,,,,,,,,,,,
6923,0,0.1154,,,,,,,,,,,0,0,0,0,32,0,0,1,0,0,0,0,0,9,7,1,12,0,0,151,0,0,138,10,10,0,50,20,0,0,2,1,1,0,53,52,51,0,0,0,0,0,0,0,0,4,4,4,0,390,389,0,0,0,0,0,0,0,0,0,0,0,0,0,0,2,1,0,0,53,51,50,0,0,0,0,0,0,0,0,0,0,0,0,0,0,0,0,0,0,0,0,0,0,0,0,0,0,0,0,0.0,0.0,0.0,0.0,0,0,0.0,0,0.0,-1,0.0,,0,0.0,0.1154
6943,0,0.1157,,-0.01,0.02,-0.04,-0,0,0,0.05,0.05,95,,,,,,,,,,,,,,,,,,,,,,,,,,,,,,,,,,,,,,,,,,,,,,,,,,,,,,,,,,,,,,,,,,,,,,,,,,,,,,,,,,,,,,,,,,,,,,,,,,,,,,,,,,,,,,,,,,,
6983,0,0.1164,,-0.01,0.02,-0.04,0,0,0,0.04,0.05,94,,,,,,,,,,,,,,,,,,,,,,,,,,,,,,,,,,,,,,,,,,,,,,,,,,,,,,,,,,,,,,,,,,,,,,,,,,,,,,,,,,,,,,,,,,,,,,,,,,,,,,,,,,,,,,,,,,,
7023,0,0.117,,-0.01,0.02,-0.04,-0,0,0,0.04,0.05,93,0,0,0,0,32,0,0,1,0,0,0,0,0,9,7,1,12,0,0,151,0,0,138,10,10,0,51,17,0,0,2,1,1,0,53,52,51,0,0,0,0,0,0,0,0,4,4,4,0,390,389,0,0,0,0,0,0,0,0,0,0,0,0,0,0,2,1,0,0,53,51,50,0,0,0,0,0,0,0,0,0,0,0,0,0,0,0,0,0,0,0,0,0,0,0,0,0,0,0,0,0.0,0.0,0.0,0.0,0,0,0.0,0,0.0,-1,0.0,0.0,0,0.0,0.117
7063,0,0.1177,,-0.01,0.02,-0.04,-0,0,0,0.04,0.05,92,,,,,,,,,,,,,,,,,,,,,,,,,,,,,,,,,,,,,,,,,,,,,,,,,,,,,,,,,,,,,,,,,,,,,,,,,,,,,,,,,,,,,,,,,,,,,,,,,,,,,,,,,,,,,,,,,,,
7103,0,0.1184,,-0.01,0.02,-0.04,-0,1,0,0.04,0.05,93,,,,,,,,,,,,,,,,,,,,,,,,,,,,,,,,,,,,,,,,,,,,,,,,,,,,,,,,,,,,,,,,,,,,,,,,,,,,,,,,,,,,,,,,,,,,,,,,,,,,,,,,,,,,,,,,,,,
7123,0,0.1187,,,,,,,,,,,0,0,0,0,32,0,0,1,0,0,0,0,0,9,7,1,12,0,0,151,0,0,138,10,10,0,48,21,0,0,2,1,1,0,53,52,51,0,0,0,0,0,0,0,0,4,4,4,0,390,389,0,0,0,0,0,0,0,0,0,0,0,0,0,0,2,1,0,0,53,51,50,0,0,0,0,0,0,0,0,0,0,0,0,0,0,0,0,0,0,0,0,0,0,0,0,0,0,0,0,0.0,0.0,0.0,0.0,0,0,0.0,0,0.0,-1,0.0,,0,0.0,0.1187
7143,0,0.119,,-0.01,0.02,-0.04,-0,1,0,0.04,0.05,93,,,,,,,,,,,,,,,,,,,,,,,,,,,,,,,,,,,,,,,,,,,,,,,,,,,,,,,,,,,,,,,,,,,,,,,,,,,,,,,,,,,,,,,,,,,,,,,,,,,,,,,,,,,,,,,,,,,
7183,0,0.1197,,-0.01,0.02,-0.04,-0,1,0,0.04,0.05,93,,,,,,,,,,,,,,,,,,,,,,,,,,,,,,,,,,,,,,,,,,,,,,,,,,,,,,,,,,,,,,,,,,,,,,,,,,,,,,,,,,,,,,,,,,,,,,,,,,,,,,,,,,,,,,,,,,,
7223,0,0.1204,,-0.01,0.02,-0.04,-0,1,0,0.04,0.05,92,0,0,0,0,32,0,0,1,0,0,0,0,0,9,7,1,12,0,0,151,0,0,138,10,10,0,50,18,0,0,2,1,1,0,53,52,51,0,0,0,0,0,0,0,1,1,0,0,51,51,50,0,0,0,0,0,0,0,0,0,0,0,0,0,0,2,1,0,0,53,51,50,0,0,0,0,0,0,0,0,0,0,0,0,0,0,0,0,0,0,0,0,0,0,0,0,0,0,0,0,0.0,0.0,0.0,0.0,0,0,0.0,0,0.0,-1,0.0,0.0,0,0.0,0.1204
7263,0,0.121,,-0.01,0.02,-0.04,-0,1,0,0.04,0.05,92,,,,,,,,,,,,,,,,,,,,,,,,,,,,,,,,,,,,,,,,,,,,,,,,,,,,,,,,,,,,,,,,,,,,,,,,,,,,,,,,,,,,,,,,,,,,,,,,,,,,,,,,,,,,,,,,,,,
7303,0,0.1217,,-0.01,0.02,-0.04,-0,1,0,0.04,0.05,91,,,,,,,,,,,,,,,,,,,,,,,,,,,,,,,,,,,,,,,,,,,,,,,,,,,,,,,,,,,,,,,,,,,,,,,,,,,,,,,,,,,,,,,,,,,,,,,,,,,,,,,,,,,,,,,,,,,
7323,0,0.122,,,,,,,,,,,0,0,0,0,32,0,0,1,0,0,0,0,0,9,7,1,12,0,0,151,0,0,138,10,10,0,50,20,0,0,2,1,1,0,53,52,51,0,0,0,0,0,0,0,1,1,0,0,51,51,50,0,0,0,0,0,0,0,0,0,0,0,0,0,0,2,1,0,0,53,51,50,0,0,0,0,0,0,0,0,0,0,0,0,0,0,0,0,0,0,0,0,0,0,0,0,0,0,0,0,0.0,0.0,0.0,0.0,0,0,0.0,0,0.0,-1,0.0,,0,0.0,0.122
7343,0,0.1224,,-0.01,0.02,-0.03,-0,1,0,0.04,0.05,91,,,,,,,,,,,,,,,,,,,,,,,,,,,,,,,,,,,,,,,,,,,,,,,,,,,,,,,,,,,,,,,,,,,,,,,,,,,,,,,,,,,,,,,,,,,,,,,,,,,,,,,,,,,,,,,,,,,
7383,0,0.123,,-0.01,0.02,-0.03,-0,1,0,0.04,0.05,92,,,,,,,,,,,,,,,,,,,,,,,,,,,,,,,,,,,,,,,,,,,,,,,,,,,,,,,,,,,,,,,,,,,,,,,,,,,,,,,,,,,,,,,,,,,,,,,,,,,,,,,,,,,,,,,,,,,
7423,0,0.1237,12.38,-0.01,0.02,-0.04,-0,1,0,0.04,0.05,92,0,0,0,0,32,0,0,1,0,0,0,0,0,9,7,1,12,0,0,151,0,0,138,10,10,0,50,20,0,0,2,1,1,0,53,52,51,0,0,0,0,0,0,0,1,1,0,0,51,51,50,0,0,0,0,0,0,0,0,0,0,0,0,0,0,2,1,0,0,53,51,50,0,0,0,0,0,0,0,0,0,0,0,0,0,0,0,0,0,0,0,0,0,0,0,0,0,0,0,0,0.0,0.0,0.0,0.0,0,0,0.0,0,0.0,-1,0.0,0.0,0,0.0,0.1237
7463,0,0.1244,,-0.01,0.02,-0.04,-0,1,0,0.04,0.05,93,,,,,,,,,,,,,,,,,,,,,,,,,,,,,,,,,,,,,,,,,,,,,,,,,,,,,,,,,,,,,,,,,,,,,,,,,,,,,,,,,,,,,,,,,,,,,,,,,,,,,,,,,,,,,,,,,,,
7503,0,0.125,,-0.01,0.02,-0.04,-0,0,0,0.04,0.05,93,,,,,,,,,,,,,,,,,,,,,,,,,,,,,,,,,,,,,,,,,,,,,,,,,,,,,,,,,,,,,,,,,,,,,,,,,,,,,,,,,,,,,,,,,,,,,,,,,,,,,,,,,,,,,,,,,,,
7523,0,0.1254,,,,,,,,,,,0,0,0,0,32,0,0,1,0,0,0,0,0,9,7,1,12,0,0,151,0,0,138,11,11,0,50,18,0,0,2,1,1,0,53,52,51,0,0,0,0,0,0,0,1,1,0,0,51,51,50,0,0,0,0,0,0,0,0,0,0,0,0,0,0,0,4,4,4,1,392,392,0,0,0,0,0,0,0,0,0,0,0,0,0,0,0,0,0,0,0,0,0,0,0,0,0,0,0,0,0.0,0.0,0.0,0.0,0,0,0.0,0,0.0,-1,0.0,,0,0.0,0.1254
7543,0,0.1257,,-0.01,0.02,-0.04,-0,0,0,0.04,0.05,93,,,,,,,,,,,,,,,,,,,,,,,,,,,,,,,,,,,,,,,,,,,,,,,,,,,,,,,,,,,,,,,,,,,,,,,,,,,,,,,,,,,,,,,,,,,,,,,,,,,,,,,,,,,,,,,,,,,
7583,0,0.1264,,-0.01,0.02,-0.03,-0,1,0,0.04,0.05,92,,,,,,,,,,,,,,,,,,,,,,,,,,,,,,,,,,,,,,,,,,,,,,,,,,,,,,,,,,,,,,,,,,,,,,,,,,,,,,,,,,,,,,,,,,,,,,,,,,,,,,,,,,,,,,,,,,,
7623,0,0.127,,-0.01,0.02,-0.03,-0,0,0,0.04,0.05,92,0,0,0,0,32,0,0,1,0,0,0,0,0,9,7,1,12,0,0,151,0,0,138,11,11,0,50,17,0,0,2,1,1,0,53,52,51,0,0,0,0,0,0,0,1,1,0,0,51,51,50,0,0,0,0,0,0,0,0,0,0,0,0,0,0,0,4,4,4,1,392,392,0,0,0,0,0,0,0,0,0,0,0,0,0,0,0,0,0,0,0,0,0,0,0,0,0,0,0,0,0.0,0.0,0.0,0.0,0,0,0.0,0,0.0,-1,0.0,0.0,0,0.0,0.127
7663,0,0.1277,,-0.01,0.02,-0.03,-0,0,0,0.04,0.05,92,,,,,,,,,,,,,,,,,,,,,,,,,,,,,,,,,,,,,,,,,,,,,,,,,,,,,,,,,,,,,,,,,,,,,,,,,,,,,,,,,,,,,,,,,,,,,,,,,,,,,,,,,,,,,,,,,,,
7703,0,0.1284,,-0.01,0.02,-0.04,-0,0,0,0.04,0.05,93,,,,,,,,,,,,,,,,,,,,,,,,,,,,,,,,,,,,,,,,,,,,,,,,,,,,,,,,,,,,,,,,,,,,,,,,,,,,,,,,,,,,,,,,,,,,,,,,,,,,,,,,,,,,,,,,,,,
7723,0,0.1287,,,,,,,,,,,0,0,0,0,32,0,0,1,0,0,0,0,0,9,7,1,12,0,0,151,0,0,138,11,11,0,50,17,0,0,2,1,1,0,53,52,51,0,0,0,0,0,0,0,1,1,0,0,51,51,50,0,0,0,0,0,0,0,0,0,0,0,0,0,0,0,4,4,4,1,392,392,0,0,0,0,0,0,0,0,0,0,0,0,0,0,0,0,0,0,0,0,0,0,0,0,0,0,0,0,0.0,0.0,0.0,0.0,0,0,0.0,0,0.0,-1,0.0,,0,0.0,0.1287
7743,0,0.129,,-0.01,0.02,-0.04,-0,0,0,0.04,0.05,93,,,,,,,,,,,,,,,,,,,,,,,,,,,,,,,,,,,,,,,,,,,,,,,,,,,,,,,,,,,,,,,,,,,,,,,,,,,,,,,,,,,,,,,,,,,,,,,,,,,,,,,,,,,,,,,,,,,
7783,0,0.1297,,-0.01,0.02,-0.04,-0,0,0,0.04,0.05,93,,,,,,,,,,,,,,,,,,,,,,,,,,,,,,,,,,,,,,,,,,,,,,,,,,,,,,,,,,,,,,,,,,,,,,,,,,,,,,,,,,,,,,,,,,,,,,,,,,,,,,,,,,,,,,,,,,,
7823,0,0.1304,,-0.01,0.02,-0.04,-0,0,0,0.04,0.05,93,0,0,0,0,32,0,0,1,0,0,0,0,0,9,7,1,12,0,0,151,0,0,138,11,11,0,51,18,0,0,2,1,1,0,53,52,51,0,0,0,0,0,0,0,1,1,0,0,51,51,50,0,0,0,0,0,0,0,0,0,0,0,0,0,0,0,4,4,4,1,392,392,0,0,0,0,0,0,0,0,0,0,0,0,0,0,0,0,0,0,0,0,0,0,0,0,0,0,0,0,0.0,0.0,0.0,0.0,0,0,0.0,0,0.0,-1,0.0,0.0,0,0.0,0.1304
7863,0,0.131,,-0.01,0.02,-0.04,-0,0,0,0.05,0.05,94,,,,,,,,,,,,,,,,,,,,,,,,,,,,,,,,,,,,,,,,,,,,,,,,,,,,,,,,,,,,,,,,,,,,,,,,,,,,,,,,,,,,,,,,,,,,,,,,,,,,,,,,,,,,,,,,,,,
7903,0,0.1317,,-0.01,0.02,-0.04,-0,0,0,0.04,0.05,93,,,,,,,,,,,,,,,,,,,,,,,,,,,,,,,,,,,,,,,,,,,,,,,,,,,,,,,,,,,,,,,,,,,,,,,,,,,,,,,,,,,,,,,,,,,,,,,,,,,,,,,,,,,,,,,,,,,
7923,0,0.132,,,,,,,,,,,0,0,0,0,32,0,0,1,0,0,0,0,0,9,7,1,12,0,0,151,0,0,138,11,11,0,50,20,0,0,2,1,1,0,53,52,51,0,0,0,0,0,0,0,1,1,0,0,51,51,50,0,0,0,0,0,0,0,0,0,0,0,0,0,0,0,4,4,4,1,392,392,0,0,0,0,0,0,0,0,0,0,0,0,0,0,0,0,0,0,0,0,0,0,0,0,0,0,0,0,0.0,0.0,0.0,0.0,0,0,0.0,0,0.0,-1,0.0,,0,0.0,0.132
7943,0,0.1324,,-0.01,0.02,-0.04,-0,0,0,0.04,0.05,93,,,,,,,,,,,,,,,,,,,,,,,,,,,,,,,,,,,,,,,,,,,,,,,,,,,,,,,,,,,,,,,,,,,,,,,,,,,,,,,,,,,,,,,,,,,,,,,,,,,,,,,,,,,,,,,,,,,
7983,0,0.133,,-0.01,0.02,-0.04,0,0,0,0.04,0.05,93,,,,,,,,,,,,,,,,,,,,,,,,,,,,,,,,,,,,,,,,,,,,,,,,,,,,,,,,,,,,,,,,,,,,,,,,,,,,,,,,,,,,,,,,,,,,,,,,,,,,,,,,,,,,,,,,,,,
8023,0,0.1337,,-0.01,0.02,-0.03,0,1,0,0.04,0.05,92,0,0,0,0,32,0,0,1,0,0,0,0,0,9,7,1,12,0,0,151,0,0,138,11,11,0,51,18,0,0,2,1,1,0,53,52,51,0,0,0,0,0,0,0,1,1,0,0,51,51,50,0,0,0,0,0,0,0,0,0,0,0,0,0,0,0,4,4,4,1,392,392,0,0,0,0,0,0,0,0,0,0,0,0,0,0,0,0,0,0,0,0,0,0,0,0,0,0,0,0,0.0,0.0,0.0,0.0,0,0,0.0,0,0.0,-1,0.0,0.0,0,0.0,0.1337
8063,0,0.1344,,-0.01,0.02,-0.04,0,0,0,0.04,0.05,92,,,,,,,,,,,,,,,,,,,,,,,,,,,,,,,,,,,,,,,,,,,,,,,,,,,,,,,,,,,,,,,,,,,,,,,,,,,,,,,,,,,,,,,,,,,,,,,,,,,,,,,,,,,,,,,,,,,
8103,0,0.135,,-0.01,0.02,-0.04,0,0,0,0.04,0.05,93,,,,,,,,,,,,,,,,,,,,,,,,,,,,,,,,,,,,,,,,,,,,,,,,,,,,,,,,,,,,,,,,,,,,,,,,,,,,,,,,,,,,,,,,,,,,,,,,,,,,,,,,,,,,,,,,,,,
8123,0,0.1354,,,,,,,,,,,0,0,0,0,32,0,0,1,0,0,0,0,0,9,7,1,12,0,0,151,0,0,138,11,11,0,50,20,0,0,2,1,1,0,53,52,51,0,0,0,0,0,0,0,1,1,0,0,51,51,50,0,0,0,0,0,0,0,0,0,0,0,0,0,0,0,4,4,4,1,392,392,0,0,0,0,0,0,0,0,0,0,0,0,0,0,0,0,0,0,0,0,0,0,0,0,0,0,0,0,0.0,0.0,0.0,0.0,0,0,0.0,0,0.0,-1,0.0,,0,0.0,0.1354
8143,0,0.1357,,-0.01,0.02,-0.04,0,0,0,0.04,0.05,93,,,,,,,,,,,,,,,,,,,,,,,,,,,,,,,,,,,,,,,,,,,,,,,,,,,,,,,,,,,,,,,,,,,,,,,,,,,,,,,,,,,,,,,,,,,,,,,,,,,,,,,,,,,,,,,,,,,
8183,0,0.1364,,-0.01,0.02,-0.04,-0,0,0,0.04,0.05,94,,,,,,,,,,,,,,,,,,,,,,,,,,,,,,,,,,,,,,,,,,,,,,,,,,,,,,,,,,,,,,,,,,,,,,,,,,,,,,,,,,,,,,,,,,,,,,,,,,,,,,,,,,,,,,,,,,,
8223,0,0.137,,-0.01,0.02,-0.04,-0,0,0,0.05,0.05,95,0,0,0,0,32,0,0,1,0,0,0,0,0,9,7,1,12,0,0,151,0,0,138,11,11,0,55,23,0,0,2,1,1,0,53,52,51,0,0,0,0,0,0,0,1,1,0,0,51,51,50,0,0,0,0,0,0,0,0,0,0,0,0,0,0,0,4,4,4,1,392,392,0,0,0,0,0,0,0,0,0,0,0,0,0,0,0,0,0,0,0,0,0,0,0,0,0,0,0,0,0.0,0.0,0.0,0.0,0,0,0.0,0,0.0,-1,0.0,0.0,0,0.0,0.137
8263,0,0.1377,,-0.01,0.02,-0.04,-0,1,0,0.05,0.05,95,,,,,,,,,,,,,,,,,,,,,,,,,,,,,,,,,,,,,,,,,,,,,,,,,,,,,,,,,,,,,,,,,,,,,,,,,,,,,,,,,,,,,,,,,,,,,,,,,,,,,,,,,,,,,,,,,,,
8303,0,0.1384,,-0.01,0.02,-0.04,-0,1,0,0.05,0.05,96,,,,,,,,,,,,,,,,,,,,,,,,,,,,,,,,,,,,,,,,,,,,,,,,,,,,,,,,,,,,,,,,,,,,,,,,,,,,,,,,,,,,,,,,,,,,,,,,,,,,,,,,,,,,,,,,,,,
8323,0,0.1387,,,,,,,,,,,0,0,0,0,32,0,0,1,0,0,0,0,0,9,7,1,12,0,0,151,0,0,138,11,11,0,50,20,0,0,2,1,1,0,53,52,51,0,0,0,0,0,0,0,1,1,0,0,51,51,50,0,0,0,0,0,0,0,0,0,0,0,0,0,0,0,4,4,4,1,392,392,0,0,0,0,0,0,0,0,0,0,0,0,0,0,0,0,0,0,0,0,0,0,0,0,0,0,0,0,0.0,0.0,0.0,0.0,0,0,0.0,0,0.0,-1,0.0,,0,0.0,0.1387
8343,0,0.1391,,-0.01,0.02,-0.04,-0,0,0,0.05,0.05,96,,,,,,,,,,,,,,,,,,,,,,,,,,,,,,,,,,,,,,,,,,,,,,,,,,,,,,,,,,,,,,,,,,,,,,,,,,,,,,,,,,,,,,,,,,,,,,,,,,,,,,,,,,,,,,,,,,,
8383,0,0.1397,,-0.01,0.02,-0.04,-0,0,0,0.04,0.05,94,,,,,,,,,,,,,,,,,,,,,,,,,,,,,,,,,,,,,,,,,,,,,,,,,,,,,,,,,,,,,,,,,,,,,,,,,,,,,,,,,,,,,,,,,,,,,,,,,,,,,,,,,,,,,,,,,,,
8423,0,0.1404,12.36,-0.01,0.02,-0.04,-0,1,0,0.04,0.05,93,0,0,0,0,32,0,0,1,0,0,0,0,0,9,7,1,12,0,0,151,0,0,138,11,11,0,51,61,0,0,2,1,1,0,53,52,51,0,0,0,0,0,0,0,1,1,0,0,51,51,50,0,0,0,0,0,0,0,0,0,0,0,0,0,0,0,4,4,4,1,392,392,0,0,0,0,0,0,0,0,0,0,0,0,0,0,0,0,0,0,0,0,0,0,0,0,0,0,0,0,0.0,0.0,0.0,0.0,0,0,0.0,0,0.0,-1,0.0,0.0,0,0.0,0.1404
8463,0,0.141,,-0.01,0.02,-0.04,-0,1,0,0.04,0.05,94,,,,,,,,,,,,,,,,,,,,,,,,,,,,,,,,,,,,,,,,,,,,,,,,,,,,,,,,,,,,,,,,,,,,,,,,,,,,,,,,,,,,,,,,,,,,,,,,,,,,,,,,,,,,,,,,,,,
8503,0,0.1417,,-0.01,0.02,-0.04,-0,1,0,0.04,0.05,93,,,,,,,,,,,,,,,,,,,,,,,,,,,,,,,,,,,,,,,,,,,,,,,,,,,,,,,,,,,,,,,,,,,,,,,,,,,,,,,,,,,,,,,,,,,,,,,,,,,,,,,,,,,,,,,,,,,
8523,0,0.142,,,,,,,,,,,0,0,0,0,32,0,0,1,0,0,0,0,0,9,7,1,12,0,0,151,0,0,138,12,12,0,50,62,0,0,2,1,1,0,53,52,51,0,0,0,0,0,0,0,1,1,0,0,51,51,50,0,0,0,0,0,0,0,0,0,0,0,0,0,0,2,1,0,0,53,51,50,0,0,0,0,0,0,0,0,0,0,0,0,0,0,0,0,0,0,0,0,0,0,0,0,0,0,0,0,0.0,0.0,0.0,0.0,0,0,0.0,0,0.0,-1,0.0,,0,0.0,0.142
8543,0,0.1424,,-0.01,0.02,-0.04,0,1,0,0.04,0.05,94,,,,,,,,,,,,,,,,,,,,,,,,,,,,,,,,,,,,,,,,,,,,,,,,,,,,,,,,,,,,,,,,,,,,,,,,,,,,,,,,,,,,,,,,,,,,,,,,,,,,,,,,,,,,,,,,,,,
8583,0,0.143,,-0.01,0.02,-0.04,0,1,0,0.05,0.05,96,,,,,,,,,,,,,,,,,,,,,,,,,,,,,,,,,,,,,,,,,,,,,,,,,,,,,,,,,,,,,,,,,,,,,,,,,,,,,,,,,,,,,,,,,,,,,,,,,,,,,,,,,,,,,,,,,,,
8623,0,0.1437,,-0.01,0.02,-0.04,0,1,0,0.05,0.05,95,0,0,0,0,32,0,0,1,0,0,0,0,0,9,7,1,12,0,0,151,0,0,138,12,12,0,52,45,0,0,2,1,1,0,53,52,51,0,0,0,0,0,0,0,1,1,0,0,51,51,50,0,0,0,0,0,0,0,0,0,0,0,0,0,0,2,1,0,0,53,51,50,0,0,0,0,0,0,0,0,0,0,0,0,0,0,0,0,0,0,0,0,0,0,0,0,0,0,0,0,0.0,0.0,0.0,0.0,0,0,0.0,0,0.0,-1,0.0,0.0,0,0.0,0.1437
8663,0,0.1444,,-0.01,0.02,-0.04,0,0,0,0.04,0.05,94,,,,,,,,,,,,,,,,,,,,,,,,,,,,,,,,,,,,,,,,,,,,,,,,,,,,,,,,,,,,,,,,,,,,,,,,,,,,,,,,,,,,,,,,,,,,,,,,,,,,,,,,,,,,,,,,,,,
8703,0,0.145,,-0.01,0.02,-0.04,0,1,0,0.05,0.05,95,,,,,,,,,,,,,,,,,,,,,,,,,,,,,,,,,,,,,,,,,,,,,,,,,,,,,,,,,,,,,,,,,,,,,,,,,,,,,,,,,,,,,,,,,,,,,,,,,,,,,,,,,,,,,,,,,,,
8723,0,0.1454,,,,,,,,,,,0,0,0,0,32,0,0,1,0,0,0,0,0,9,7,1,12,0,0,151,0,0,138,12,12,0,51,0,0,0,2,1,1,0,53,52,51,0,0,0,0,0,0,0,1,1,0,0,51,51,50,0,0,0,0,0,0,0,0,0,0,0,0,0,0,2,1,0,0,53,51,50,0,0,0,0,0,0,0,0,0,0,0,0,0,0,0,0,0,0,0,0,0,0,0,0,0,0,0,0,0.0,0.0,0.0,0.0,0,0,0.0,0,0.0,-1,0.0,,0,0.0,0.1454
8743,0,0.1457,,-0.01,0.02,-0.04,-0,0,0,0.05,0.05,95,,,,,,,,,,,,,,,,,,,,,,,,,,,,,,,,,,,,,,,,,,,,,,,,,,,,,,,,,,,,,,,,,,,,,,,,,,,,,,,,,,,,,,,,,,,,,,,,,,,,,,,,,,,,,,,,,,,
8783,0,0.1464,,-0.01,0.02,-0.04,-0,0,0,0.04,0.05,93,,,,,,,,,,,,,,,,,,,,,,,,,,,,,,,,,,,,,,,,,,,,,,,,,,,,,,,,,,,,,,,,,,,,,,,,,,,,,,,,,,,,,,,,,,,,,,,,,,,,,,,,,,,,,,,,,,,
8823,0,0.147,,-0.01,0.02,-0.04,-0,0,0,0.04,0.05,94,0,0,0,0,32,0,0,1,0,0,0,0,0,9,7,1,12,0,0,151,0,0,138,12,12,0,48,1,0,0,2,1,1,0,53,52,51,0,0,0,0,0,0,0,1,1,0,0,51,51,50,0,0,0,0,0,0,0,0,0,0,0,0,0,0,2,1,0,0,53,51,50,0,0,0,0,0,0,0,0,0,0,0,0,0,0,0,0,0,0,0,0,0,0,0,0,0,0,0,0,0.0,0.0,0.0,0.0,0,0,0.0,0,0.0,-1,0.0,0.0,0,0.0,0.147
8863,0,0.1477,,-0.01,0.02,-0.04,-0,1,0,0.04,0.05,93,,,,,,,,,,,,,,,,,,,,,,,,,,,,,,,,,,,,,,,,,,,,,,,,,,,,,,,,,,,,,,,,,,,,,,,,,,,,,,,,,,,,,,,,,,,,,,,,,,,,,,,,,,,,,,,,,,,
8903,0,0.1484,,-0.01,0.02,-0.04,-0,1,0,0.04,0.05,94,,,,,,,,,,,,,,,,,,,,,,,,,,,,,,,,,,,,,,,,,,,,,,,,,,,,,,,,,,,,,,,,,,,,,,,,,,,,,,,,,,,,,,,,,,,,,,,,,,,,,,,,,,,,,,,,,,,
8923,0,0.1487,,,,,,,,,,,0,0,0,0,32,0,0,1,0,0,0,0,0,9,7,1,12,0,0,151,0,0,138,12,12,0,52,35,0,0,2,1,1,0,53,52,51,0,0,0,0,0,0,0,1,1,0,0,51,51,50,0,0,0,0,0,0,0,0,0,0,0,0,0,0,2,1,0,0,53,51,50,0,0,0,0,0,0,0,0,0,0,0,0,0,0,0,0,0,0,0,0,0,0,0,0,0,0,0,0,0.0,0.0,0.0,0.0,0,0,0.0,0,0.0,-1,0.0,,0,0.0,0.1487
8943,0,0.149,,-0.01,0.02,-0.04,-0,1,0,0.04,0.05,93,,,,,,,,,,,,,,,,,,,,,,,,,,,,,,,,,,,,,,,,,,,,,,,,,,,,,,,,,,,,,,,,,,,,,,,,,,,,,,,,,,,,,,,,,,,,,,,,,,,,,,,,,,,,,,,,,,,
8983,0,0.1497,,-0.01,0.02,-0.03,-0,0,0,0.04,0.05,92,,,,,,,,,,,,,,,,,,,,,,,,,,,,,,,,,,,,,,,,,,,,,,,,,,,,,,,,,,,,,,,,,,,,,,,,,,,,,,,,,,,,,,,,,,,,,,,,,,,,,,,,,,,,,,,,,,,
9023,0,0.1504,,-0.01,0.02,-0.03,-0,0,0,0.04,0.05,92,0,0,0,0,32,0,0,1,0,0,0,0,0,9,7,1,12,0,0,151,0,0,138,12,12,0,47,46,0,0,2,1,1,0,53,52,51,0,0,0,0,0,0,0,1,1,0,0,51,51,50,0,0,0,0,0,0,0,0,0,0,0,0,0,0,2,1,0,0,53,51,50,0,0,0,0,0,0,0,0,0,0,0,0,0,0,0,0,0,0,0,0,0,0,0,0,0,0,0,0,0.0,0.0,0.0,0.0,0,0,0.0,0,0.0,-1,0.0,0.0,0,0.0,0.1504
9063,0,0.151,,-0.01,0.02,-0.03,-0,1,0,0.04,0.05,92,,,,,,,,,,,,,,,,,,,,,,,,,,,,,,,,,,,,,,,,,,,,,,,,,,,,,,,,,,,,,,,,,,,,,,,,,,,,,,,,,,,,,,,,,,,,,,,,,,,,,,,,,,,,,,,,,,,
9103,0,0.1517,,-0.01,0.02,-0.04,-0,0,0,0.04,0.05,93,,,,,,,,,,,,,,,,,,,,,,,,,,,,,,,,,,,,,,,,,,,,,,,,,,,,,,,,,,,,,,,,,,,,,,,,,,,,,,,,,,,,,,,,,,,,,,,,,,,,,,,,,,,,,,,,,,,
9123,0,0.152,,,,,,,,,,,0,0,0,0,32,0,0,1,0,0,0,0,0,9,7,1,12,0,0,151,0,0,138,12,12,0,50,27,0,0,2,1,1,0,53,52,51,0,0,0,0,0,0,0,1,1,0,0,51,51,50,0,0,0,0,0,0,0,0,0,0,0,0,0,0,2,1,0,0,53,51,50,0,0,0,0,0,0,0,0,0,0,0,0,0,0,0,0,0,0,0,0,0,0,0,0,0,0,0,0,0.0,0.0,0.0,0.0,0,0,0.0,0,0.0,-1,0.0,,0,0.0,0.152
9143,0,0.1524,,-0.01,0.02,-0.04,-0,0,0,0.04,0.05,92,,,,,,,,,,,,,,,,,,,,,,,,,,,,,,,,,,,,,,,,,,,,,,,,,,,,,,,,,,,,,,,,,,,,,,,,,,,,,,,,,,,,,,,,,,,,,,,,,,,,,,,,,,,,,,,,,,,
9183,0,0.153,,-0.01,0.02,-0.03,-0,0,0,0.04,0.05,91,,,,,,,,,,,,,,,,,,,,,,,,,,,,,,,,,,,,,,,,,,,,,,,,,,,,,,,,,,,,,,,,,,,,,,,,,,,,,,,,,,,,,,,,,,,,,,,,,,,,,,,,,,,,,,,,,,,
9223,0,0.1537,,-0.01,0.02,-0.03,-0,0,0,0.04,0.05,91,0,0,0,0,32,0,0,1,0,0,0,0,0,9,7,1,12,0,0,151,0,0,138,12,12,0,51,16,0,0,2,1,1,0,53,52,51,0,0,0,0,0,0,0,0,4,4,4,0,390,389,0,0,0,0,0,0,0,0,0,0,0,0,0,0,2,1,0,0,53,51,50,0,0,0,0,0,0,0,0,0,0,0,0,0,0,0,0,0,0,0,0,0,0,0,0,0,0,0,0,0.0,0.0,0.0,0.0,0,0,0.0,0,0.0,-1,0.0,0.0,0,0.0,0.1537
9263,0,0.1544,,-0.01,0.02,-0.04,-0,0,0,0.04,0.05,92,,,,,,,,,,,,,,,,,,,,,,,,,,,,,,,,,,,,,,,,,,,,,,,,,,,,,,,,,,,,,,,,,,,,,,,,,,,,,,,,,,,,,,,,,,,,,,,,,,,,,,,,,,,,,,,,,,,
9303,0,0.155,,-0.01,0.02,-0.04,-0,1,0,0.04,0.05,93,,,,,,,,,,,,,,,,,,,,,,,,,,,,,,,,,,,,,,,,,,,,,,,,,,,,,,,,,,,,,,,,,,,,,,,,,,,,,,,,,,,,,,,,,,,,,,,,,,,,,,,,,,,,,,,,,,,
9323,0,0.1554,,,,,,,,,,,0,0,0,0,32,0,0,1,0,0,0,0,0,9,7,1,12,0,0,151,0,0,138,12,12,0,50,20,0,0,2,1,1,0,53,52,51,0,0,0,0,0,0,0,0,4,4,4,0,390,389,0,0,0,0,0,0,0,0,0,0,0,0,0,0,2,1,0,0,53,51,50,0,0,0,0,0,0,0,0,0,0,0,0,0,0,0,0,0,0,0,0,0,0,0,0,0,0,0,0,0.0,0.0,0.0,0.0,0,0,0.0,0,0.0,-1,0.0,,0,0.0,0.1554
9343,0,0.1557,,-0.01,0.02,-0.04,-0,1,0,0.04,0.05,92,,,,,,,,,,,,,,,,,,,,,,,,,,,,,,,,,,,,,,,,,,,,,,,,,,,,,,,,,,,,,,,,,,,,,,,,,,,,,,,,,,,,,,,,,,,,,,,,,,,,,,,,,,,,,,,,,,,
9383,0,0.1564,,-0.01,0.02,-0.04,-0,1,0,0.04,0.05,92,,,,,,,,,,,,,,,,,,,,,,,,,,,,,,,,,,,,,,,,,,,,,,,,,,,,,,,,,,,,,,,,,,,,,,,,,,,,,,,,,,,,,,,,,,,,,,,,,,,,,,,,,,,,,,,,,,,
9423,0,0.157,12.41,-0.01,0.02,-0.04,-0,1,0,0.04,0.05,93,0,0,0,0,32,0,0,1,0,0,0,0,0,9,7,1,12,0,0,151,0,0,138,12,12,0,54,24,0,0,2,1,1,0,53,52,51,0,0,0,0,0,0,0,0,4,4,4,0,390,389,0,0,0,0,0,0,0,0,0,0,0,0,0,0,2,1,0,0,53,51,50,0,0,0,0,0,0,0,0,0,0,0,0,0,0,0,0,0,0,0,0,0,0,0,0,0,0,0,0,0.0,0.0,0.0,0.0,0,0,0.0,0,0.0,-1,0.0,0.0,0,0.0,0.157
9463,0,0.1577,,-0.01,0.02,-0.04,-0,1,0,0.04,0.05,93,,,,,,,,,,,,,,,,,,,,,,,,,,,,,,,,,,,,,,,,,,,,,,,,,,,,,,,,,,,,,,,,,,,,,,,,,,,,,,,,,,,,,,,,,,,,,,,,,,,,,,,,,,,,,,,,,,,
9503,0,0.1584,,-0.01,0.02,-0.04,-0,1,0,0.04,0.05,94,,,,,,,,,,,,,,,,,,,,,,,,,,,,,,,,,,,,,,,,,,,,,,,,,,,,,,,,,,,,,,,,,,,,,,,,,,,,,,,,,,,,,,,,,,,,,,,,,,,,,,,,,,,,,,,,,,,
9523,0,0.1587,,,,,,,,,,,0,0,0,0,32,0,0,1,0,0,0,0,0,9,7,1,12,0,0,151,0,0,138,12,12,0,50,24,0,0,2,1,1,0,53,52,51,0,0,0,0,0,0,0,0,4,4,4,0,390,389,0,0,0,0,0,0,0,0,0,0,0,0,0,0,2,1,0,0,53,51,50,0,0,0,0,0,0,0,0,0,0,0,0,0,0,0,0,0,0,0,0,0,0,0,0,0,0,0,0,0.0,0.0,0.0,0.0,0,0,0.0,0,0.0,-1,0.0,,0,0.0,0.1587
9543,0,0.159,,-0.01,0.02,-0.04,-0,1,0,0.04,0.05,94,,,,,,,,,,,,,,,,,,,,,,,,,,,,,,,,,,,,,,,,,,,,,,,,,,,,,,,,,,,,,,,,,,,,,,,,,,,,,,,,,,,,,,,,,,,,,,,,,,,,,,,,,,,,,,,,,,,
9583,0,0.1597,,-0.01,0.02,-0.04,-0,1,0,0.04,0.05,93,,,,,,,,,,,,,,,,,,,,,,,,,,,,,,,,,,,,,,,,,,,,,,,,,,,,,,,,,,,,,,,,,,,,,,,,,,,,,,,,,,,,,,,,,,,,,,,,,,,,,,,,,,,,,,,,,,,
9623,0,0.1604,,-0.01,0.02,-0.04,0,1,0,0.04,0.05,92,0,0,0,0,32,0,0,1,0,0,0,0,0,9,7,1,12,0,0,151,0,0,138,12,12,0,52,27,0,0,2,1,1,0,53,52,51,0,0,0,0,0,0,0,0,4,4,4,0,390,389,0,0,0,0,0,0,0,0,0,0,0,0,0,0,2,1,0,0,53,51,50,0,0,0,0,0,0,0,0,0,0,0,0,0,0,0,0,0,0,0,0,0,0,0,0,0,0,0,0,0.0,0.0,0.0,0.0,0,0,0.0,0,0.0,-1,0.0,0.0,0,0.0,0.1604
9663,0,0.1611,,-0.01,0.02,-0.04,-0,1,0,0.04,0.05,93,,,,,,,,,,,,,,,,,,,,,,,,,,,,,,,,,,,,,,,,,,,,,,,,,,,,,,,,,,,,,,,,,,,,,,,,,,,,,,,,,,,,,,,,,,,,,,,,,,,,,,,,,,,,,,,,,,,
9703,0,0.1617,,-0.01,0.02,-0.04,0,1,0,0.04,0.05,92,,,,,,,,,,,,,,,,,,,,,,,,,,,,,,,,,,,,,,,,,,,,,,,,,,,,,,,,,,,,,,,,,,,,,,,,,,,,,,,,,,,,,,,,,,,,,,,,,,,,,,,,,,,,,,,,,,,
9723,0,0.162,,,,,,,,,,,0,0,0,0,32,0,0,1,0,0,0,0,0,9,7,1,12,0,0,151,0,0,138,12,12,0,48,23,0,0,2,1,1,0,53,52,51,0,0,0,0,0,0,0,0,4,4,4,0,390,389,0,0,0,0,0,0,0,0,0,0,0,0,0,0,2,1,0,0,53,51,50,0,0,0,0,0,0,0,0,0,0,0,0,0,0,0,0,0,0,0,0,0,0,0,0,0,0,0,0,0.0,0.0,0.0,0.0,0,0,0.0,0,0.0,-1,0.0,,0,0.0,0.162
9743,0,0.1624,,-0.01,0.02,-0.04,-0,1,0,0.04,0.05,92,,,,,,,,,,,,,,,,,,,,,,,,,,,,,,,,,,,,,,,,,,,,,,,,,,,,,,,,,,,,,,,,,,,,,,,,,,,,,,,,,,,,,,,,,,,,,,,,,,,,,,,,,,,,,,,,,,,
9783,0,0.163,,-0.01,0.02,-0.04,-0,1,0,0.04,0.05,93,,,,,,,,,,,,,,,,,,,,,,,,,,,,,,,,,,,,,,,,,,,,,,,,,,,,,,,,,,,,,,,,,,,,,,,,,,,,,,,,,,,,,,,,,,,,,,,,,,,,,,,,,,,,,,,,,,,
9823,0,0.1637,,-0.01,0.02,-0.04,-0,1,0,0.04,0.05,94,0,0,0,0,32,0,0,1,0,0,0,0,0,9,7,1,12,0,0,151,0,0,138,12,12,0,50,26,0,0,2,1,1,0,53,52,51,0,0,0,0,0,0,0,0,4,4,4,0,390,389,0,0,0,0,0,0,0,0,0,0,0,0,0,0,2,1,0,0,53,51,50,0,0,0,0,0,0,0,0,0,0,0,0,0,0,0,0,0,0,0,0,0,0,0,0,0,0,0,0,0.0,0.0,0.0,0.0,0,0,0.0,0,0.0,-1,0.0,0.0,0,0.0,0.1637
9863,0,0.1644,,-0.01,0.02,-0.04,-0,1,0,0.05,0.05,96,,,,,,,,,,,,,,,,,,,,,,,,,,,,,,,,,,,,,,,,,,,,,,,,,,,,,,,,,,,,,,,,,,,,,,,,,,,,,,,,,,,,,,,,,,,,,,,,,,,,,,,,,,,,,,,,,,,
9903,0,0.165,,-0.01,0.02,-0.04,-0,0,0,0.05,0.05,96,,,,,,,,,,,,,,,,,,,,,,,,,,,,,,,,,,,,,,,,,,,,,,,,,,,,,,,,,,,,,,,,,,,,,,,,,,,,,,,,,,,,,,,,,,,,,,,,,,,,,,,,,,,,,,,,,,,
9923,0,0.1654,,,,,,,,,,,0,0,0,0,32,0,0,1,0,0,0,0,0,9,7,1,12,0,0,151,0,0,138,12,12,0,52,20,0,0,2,1,1,0,53,52,51,0,0,0,0,0,0,0,0,4,4,4,0,390,389,0,0,0,0,0,0,0,0,0,0,0,0,0,0,2,1,0,0,53,51,50,0,0,0,0,0,0,0,0,0,0,0,0,0,0,0,0,0,0,0,0,0,0,0,0,0,0,0,0,0.0,0.0,0.0,0.0,0,0,0.0,0,0.0,-1,0.0,,0,0.0,0.1654
9943,0,0.1657,,-0.01,0.02,-0.04,-0,0,0,0.04,0.05,94,,,,,,,,,,,,,,,,,,,,,,,,,,,,,,,,,,,,,,,,,,,,,,,,,,,,,,,,,,,,,,,,,,,,,,,,,,,,,,,,,,,,,,,,,,,,,,,,,,,,,,,,,,,,,,,,,,,
9983,0,0.1664,,-0.01,0.02,-0.04,-0,0,0,0.05,0.05,96,,,,,,,,,,,,,,,,,,,,,,,,,,,,,,,,,,,,,,,,,,,,,,,,,,,,,,,,,,,,,,,,,,,,,,,,,,,,,,,,,,,,,,,,,,,,,,,,,,,,,,,,,,,,,,,,,,,
10023,0,0.167,,-0.01,0.02,-0.04,-0,1,0,0.05,0.05,96,0,0,0,0,32,0,0,1,0,0,0,0,0,9,7,1,12,0,0,151,0,0,138,12,12,0,48,23,0,0,2,1,1,0,53,52,51,0,0,0,0,0,0,0,0,4,4,4,0,390,389,0,0,0,0,0,0,0,0,0,0,0,0,0,0,2,1,0,0,53,51,50,0,0,0,0,0,0,0,0,0,0,0,0,0,0,0,0,0,0,0,0,0,0,0,0,0,0,0,0,0.0,0.0,0.0,0.0,0,0,0.0,0,0.0,-1,0.0,0.0,0,0.0,0.167
10063,0,0.1677,,-0.01,0.02,-0.04,-0,0,0,0.04,0.05,94,,,,,,,,,,,,,,,,,,,,,,,,,,,,,,,,,,,,,,,,,,,,,,,,,,,,,,,,,,,,,,,,,,,,,,,,,,,,,,,,,,,,,,,,,,,,,,,,,,,,,,,,,,,,,,,,,,,
10103,0,0.1684,,-0.01,0.02,-0.04,-0,1,0,0.04,0.05,94,,,,,,,,,,,,,,,,,,,,,,,,,,,,,,,,,,,,,,,,,,,,,,,,,,,,,,,,,,,,,,,,,,,,,,,,,,,,,,,,,,,,,,,,,,,,,,,,,,,,,,,,,,,,,,,,,,,
10123,0,0.1687,,,,,,,,,,,0,0,0,0,32,0,0,1,0,0,0,0,0,9,7,1,12,0,0,151,0,0,138,13,13,0,50,24,0,0,2,1,1,0,53,52,51,0,0,0,0,0,0,0,0,4,4,4,0,390,389,0,0,0,0,0,0,0,0,0,0,0,0,0,0,2,1,0,0,53,51,50,0,0,0,0,0,0,0,0,0,0,0,0,0,0,0,0,0,0,0,0,0,0,0,0,0,0,0,0,0.0,0.0,0.0,0.0,0,0,0.0,0,0.0,-1,0.0,,0,0.0,0.1687
10143,0,0.169,,-0.01,0.02,-0.04,-0,0,0,0.04,0.05,94,,,,,,,,,,,,,,,,,,,,,,,,,,,,,,,,,,,,,,,,,,,,,,,,,,,,,,,,,,,,,,,,,,,,,,,,,,,,,,,,,,,,,,,,,,,,,,,,,,,,,,,,,,,,,,,,,,,
10183,0,0.1697,,-0.01,0.02,-0.04,-0,1,0,0.04,0.05,94,,,,,,,,,,,,,,,,,,,,,,,,,,,,,,,,,,,,,,,,,,,,,,,,,,,,,,,,,,,,,,,,,,,,,,,,,,,,,,,,,,,,,,,,,,,,,,,,,,,,,,,,,,,,,,,,,,,
10223,0,0.1704,,-0.01,0.02,-0.04,-0,0,0,0.05,0.05,94,0,0,0,0,32,0,0,1,0,0,0,0,0,9,7,1,12,0,0,151,0,0,138,13,13,0,51,30,0,0,2,1,1,0,53,52,51,0,0,0,0,0,0,0,2,1,0,0,53,51,50,0,0,0,0,0,0,0,0,0,0,0,0,0,0,2,1,0,0,53,51,50,0,0,0,0,0,0,0,0,0,0,0,0,0,0,0,0,0,0,0,0,0,0,0,0,0,0,0,0,0.0,0.0,0.0,0.0,0,0,0.0,0,0.0,-1,0.0,0.0,0,0.0,0.1704
10263,0,0.171,,-0.01,0.02,-0.04,-0,0,0,0.05,0.05,95,,,,,,,,,,,,,,,,,,,,,,,,,,,,,,,,,,,,,,,,,,,,,,,,,,,,,,,,,,,,,,,,,,,,,,,,,,,,,,,,,,,,,,,,,,,,,,,,,,,,,,,,,,,,,,,,,,,
10303,0,0.1717,,-0.01,0.02,-0.04,-0,0,0,0.05,0.05,95,,,,,,,,,,,,,,,,,,,,,,,,,,,,,,,,,,,,,,,,,,,,,,,,,,,,,,,,,,,,,,,,,,,,,,,,,,,,,,,,,,,,,,,,,,,,,,,,,,,,,,,,,,,,,,,,,,,
10323,0,0.172,,,,,,,,,,,0,0,0,0,32,0,0,1,0,0,0,0,0,9,7,1,12,0,0,151,0,0,138,13,13,0,50,37,0,0,2,1,1,0,53,52,51,0,0,0,0,0,0,0,2,1,0,0,53,51,50,0,0,0,0,0,0,0,0,0,0,0,0,0,0,2,1,0,0,53,51,50,0,0,0,0,0,0,0,0,0,0,0,0,0,0,0,0,0,0,0,0,0,0,0,0,0,0,0,0,0.0,0.0,0.0,0.0,0,0,0.0,0,0.0,-1,0.0,,0,0.0,0.172
10343,0,0.1724,,-0.01,0.02,-0.04,-0,0,0,0.05,0.05,95,,,,,,,,,,,,,,,,,,,,,,,,,,,,,,,,,,,,,,,,,,,,,,,,,,,,,,,,,,,,,,,,,,,,,,,,,,,,,,,,,,,,,,,,,,,,,,,,,,,,,,,,,,,,,,,,,,,
10383,0,0.173,,-0.01,0.02,-0.04,-0,0,0,0.04,0.05,94,,,,,,,,,,,,,,,,,,,,,,,,,,,,,,,,,,,,,,,,,,,,,,,,,,,,,,,,,,,,,,,,,,,,,,,,,,,,,,,,,,,,,,,,,,,,,,,,,,,,,,,,,,,,,,,,,,,
10423,0,0.1737,12.39,-0.01,0.02,-0.04,-0,0,0,0.05,0.05,94,0,0,0,0,32,0,0,1,0,0,0,0,0,9,7,1,12,0,0,151,0,0,138,13,13,0,52,33,0,0,2,1,1,0,53,52,51,0,0,0,0,0,0,0,2,1,0,0,53,51,50,0,0,0,0,0,0,0,0,0,0,0,0,0,0,2,1,0,0,53,51,50,0,0,0,0,0,0,0,0,0,0,0,0,0,0,0,0,0,0,0,0,0,0,0,0,0,0,0,0,0.0,0.0,0.0,0.0,0,0,0.0,0,0.0,-1,0.0,0.0,0,0.0,0.1737
10463,0,0.1744,,-0.01,0.02,-0.04,-0,1,0,0.05,0.05,94,,,,,,,,,,,,,,,,,,,,,,,,,,,,,,,,,,,,,,,,,,,,,,,,,,,,,,,,,,,,,,,,,,,,,,,,,,,,,,,,,,,,,,,,,,,,,,,,,,,,,,,,,,,,,,,,,,,
