"Interval"|"ms"|0|0|1,"Utc"|"ms"|0|0|1,"ElapsedTime"|"Min"|0.0|0.0|10,"Battery"|"Volts"|0.0|20.0|1,"AccelX"|"G"|-3.0|3.0|25,"AccelY"|"G"|-3.0|3.0|25,"AccelZ"|"G"|-3.0|3.0|25,"Yaw"|"Deg/Sec"|-120|120|25,"Pitch"|"Deg/Sec"|-120|120|25,"Roll"|"Deg/Sec"|-120|120|25,"Gsum"|"G"|0.0|3.0|25,"GsumMax"|"G"|0.0|3.0|25,"GsumPct"|"%"|0|100|25,"INV_Command"|""|-3277|3277|10,"VCU_INV_Inv"|""|0|1|10,"VCU_INV_Tor"|""|-3277|3277|10,"INV_Run_Fau"|""|0|65535|10,"INV_Post_Fa"|""|0|65535|10,"INV_Run_Fau"|""|0|65535|10,"INV_Post_Fa"|""|0|65535|10,"INV_Directi"|""|0|1|10,"INV_Inverte"|""|0|1|10,"INV_Relay_2"|""|0|1|10,"INV_Inverte"|""|0|1|10,"INV_Inverte"|""|0|1|10,"INV_Relay_1"|""|0|1|10,"INV_Inverte"|""|0|255|10,"INV_VSM_Sta"|""|0|15|10,"INV_Inverte"|""|0|1|10,"INV_PWM_Fre"|""|0|255|10,"INV_DC_Bus_"|""|-3277|3277|10,"INV_DC_Bus_"|""|-3277|3277|10,"INV_Delta_R"|""|-3277|3277|10,"INV_Motor_S"|""|-32768|32767|10,"INV_Torque_"|""|-3277|3277|10,"INV_Motor_T"|""|-3277|3277|10,"INV_Hot_Spo"|""|-3277|3277|10,"INV_Coolant"|""|-3277|3277|10,"INV_Fast_DC"|""|-3277|3277|10,"APPS1"|""|-32768|32767|10,"APPS2"|""|-32768|32767|10,"c_apps"|""|-32768|32767|10,"Faultcode"|""|0|4|10,"Multiplexor"|""|0|0|10,"BMS_1_1_Vol"|""|0|10|10,"BMS_1_1_Vol"|""|0|10|10,"BMS_1_1_Vol"|""|0|10|10,"BMS_1_1_Tem"|""|0|200|10,"BMS_1_1_Tem"|""|0|200|10,"BMS_1_1_Tem"|""|0|200|10,"Multiplexor"|""|0|0|10,"BMS_1_2_Vol"|""|0|10|10,"BMS_1_2_Vol"|""|0|10|10,"BMS_1_2_Vol"|""|0|10|10,"BMS_1_2_Tem"|""|0|200|10,"BMS_1_2_Tem"|""|0|200|10,"BMS_1_2_Tem"|""|0|200|10,"Multiplexor"|""|0|0|10,"BMS_2_1_Vol"|""|0|10|10,"BMS_2_1_Vol"|""|0|10|10,"BMS_2_1_Vol"|""|0|10|10,"BMS_2_1_Tem"|""|0|200|10,"BMS_2_1_Tem"|""|0|200|10,"BMS_2_1_Tem"|""|0|200|10,"Multiplexor"|""|0|0|10,"BMS_2_2_Vol"|""|0|10|10,"BMS_2_2_Vol"|""|0|10|10,"BMS_2_2_Vol"|""|0|10|10,"BMS_2_2_Tem"|""|0|200|10,"BMS_2_2_Tem"|""|0|200|10,"BMS_2_2_Tem"|""|0|200|10,"Multiplexor"|""|0|0|10,"BMS_3_1_Vol"|""|0|10|10,"BMS_3_1_Vol"|""|0|10|10,"BMS_3_1_Vol"|""|0|10|10,"BMS_3_1_Tem"|""|0|200|10,"BMS_3_1_Tem"|""|0|200|10,"BMS_3_1_Tem"|""|0|200|10,"Multiplexor"|""|0|0|10,"BMS_3_2_Vol"|""|0|10|10,"BMS_3_2_Vol"|""|0|10|10,"BMS_3_2_Vol"|""|0|10|10,"BMS_3_2_Tem"|""|0|200|10,"BMS_3_2_Tem"|""|0|200|10,"BMS_3_2_Tem"|""|0|200|10,"Multiplexor"|""|0|0|10,"BMS_4_1_Vol"|""|0|10|10,"BMS_4_1_Vol"|""|0|10|10,"BMS_4_1_Vol"|""|0|10|10,"BMS_4_1_Tem"|""|0|200|10,"BMS_4_1_Tem"|""|0|200|10,"BMS_4_1_Tem"|""|0|200|10,"Multiplexor"|""|0|0|10,"BMS_4_2_Vol"|""|0|10|10,"BMS_4_2_Vol"|""|0|10|10,"BMS_4_2_Vol"|""|0|10|10,"BMS_4_2_Tem"|""|0|200|10,"BMS_4_2_Tem"|""|0|200|10,"BMS_4_2_Tem"|""|0|200|10,"HS_MaxVolta"|""|0|655|10,"HS_MinVolta"|""|0|655|10,"HS_AverageV"|""|0|655|10,"HS_MaxTemp"|""|0|6553|10,"HS_MinTemp"|""|0|6553|10,"HS_AverageT"|""|0|6553|10,"HS_MaxTemp"|""|0|6553|10,"HS_MinTemp"|""|0|6553|10,"HS_AverageT"|""|0|6553|10,"HS_MaxTemp"|""|0|6553|10,"HS_MinTemp"|""|0|6553|10,"HS_AverageT"|""|0|6553|10,"HS_MaxTemp"|""|0|6553|10,"HS_MinTemp"|""|0|6553|10,"Latitude"|"Degrees"|-180.0|180.0|10,"Longitude"|"Degrees"|-180.0|180.0|10,"Speed"|"mph"|0.0|150.0|10,"Altitude"|"ft"|0.0|4000.0|10,"GPSSats"|""|0|20|10,"GPSQual"|""|0|5|10,"GPSDOP"|""|0.0|20.0|10,"LapCount"|""|0|0|10,"LapTime"|"Min"|0.0|0.0|10,"Sector"|""|0|0|10,"SectorTime"|"Min"|0.0|0.0|10,"PredTime"|"Min"|0.0|0.0|5,"CurrentLap"|""|0|0|10,"Distance"|"mi"|0.0|0.0|10,"SessionTime"|"Min"|0.0|0.0|10
1671,0,0.0278,,-0.02,0.03,-0.04,-0,0,0,0.05,0.05,97,,,,,,,,,,,,,,,,,,,,,,,,,,,,,,,,,,,,,,,,,,,,,,,,,,,,,,,,,,,,,,,,,,,,,,,,,,,,,,,,,,,,,,,,,,,,,,,,,,,,,,,,,,,,,,,,,,,
1711,0,0.0285,,-0.02,0.03,-0.04,-0,0,0,0.05,0.05,97,,,,,,,,,,,,,,,,,,,,,,,,,,,,,,,,,,,,,,,,,,,,,,,,,,,,,,,,,,,,,,,,,,,,,,,,,,,,,,,,,,,,,,,,,,,,,,,,,,,,,,,,,,,,,,,,,,,
1731,0,0.0288,,,,,,,,,,,0,0,0,0,0,0,0,1,0,0,0,0,1,9,2,1,12,0,0,46,0,0,138,3,3,0,82,0,0,0,0,0,0,0,0,0,0,0,0,0,0,0,0,0,1,1,0,0,51,51,50,0,0,0,0,0,0,0,0,0,0,0,0,0,0,0,4,4,4,1,392,392,0,0,0,0,0,0,0,0,0,0,0,0,0,0,0,0,0,0,0,0,0,0,0,0,0,0,0,0,0.0,0.0,0.0,0.0,0,0,0.0,0,0.0,-1,0.0,,0,0.0,0.0288
1751,0,0.0292,,-0.02,0.03,-0.04,-0,0,0,0.05,0.05,96,,,,,,,,,,,,,,,,,,,,,,,,,,,,,,,,,,,,,,,,,,,,,,,,,,,,,,,,,,,,,,,,,,,,,,,,,,,,,,,,,,,,,,,,,,,,,,,,,,,,,,,,,,,,,,,,,,,
1791,0,0.0298,,-0.02,0.03,-0.04,-0,0,0,0.05,0.05,95,,,,,,,,,,,,,,,,,,,,,,,,,,,,,,,,,,,,,,,,,,,,,,,,,,,,,,,,,,,,,,,,,,,,,,,,,,,,,,,,,,,,,,,,,,,,,,,,,,,,,,,,,,,,,,,,,,,
1831,0,0.0305,,-0.02,0.03,-0.04,-0,0,0,0.05,0.05,97,0,0,0,0,0,0,0,1,0,0,0,0,1,9,2,1,12,0,0,46,0,0,138,4,4,0,83,0,0,0,0,0,0,0,0,0,0,0,0,0,0,0,0,0,1,1,0,0,51,51,50,0,0,0,0,0,0,0,0,0,0,0,0,0,0,0,4,4,4,1,392,392,0,0,0,0,0,0,0,0,0,0,0,0,0,0,0,0,0,0,0,0,0,0,0,0,0,0,0,0,0.0,0.0,0.0,0.0,0,0,0.0,0,0.0,-1,0.0,0.0,0,0.0,0.0305
1871,0,0.0312,,-0.02,0.03,-0.04,-0,0,0,0.05,0.05,98,,,,,,,,,,,,,,,,,,,,,,,,,,,,,,,,,,,,,,,,,,,,,,,,,,,,,,,,,,,,,,,,,,,,,,,,,,,,,,,,,,,,,,,,,,,,,,,,,,,,,,,,,,,,,,,,,,,
1911,0,0.0318,,-0.02,0.03,-0.04,-0,0,0,0.05,0.05,96,,,,,,,,,,,,,,,,,,,,,,,,,,,,,,,,,,,,,,,,,,,,,,,,,,,,,,,,,,,,,,,,,,,,,,,,,,,,,,,,,,,,,,,,,,,,,,,,,,,,,,,,,,,,,,,,,,,
1931,0,0.0322,,,,,,,,,,,0,0,0,0,0,0,0,1,0,0,0,0,1,9,2,1,12,0,0,45,0,0,138,4,4,0,82,0,0,0,0,0,0,0,0,0,0,0,0,0,0,0,0,0,1,1,0,0,51,51,50,0,0,0,0,0,0,0,0,0,0,0,0,0,0,0,4,4,4,1,392,392,0,0,0,0,0,0,0,0,0,0,0,0,0,0,0,0,0,0,0,0,0,0,0,0,0,0,0,0,0.0,0.0,0.0,0.0,0,0,0.0,0,0.0,-1,0.0,,0,0.0,0.0322
1951,0,0.0325,,-0.02,0.03,-0.04,-0,0,0,0.05,0.05,95,,,,,,,,,,,,,,,,,,,,,,,,,,,,,,,,,,,,,,,,,,,,,,,,,,,,,,,,,,,,,,,,,,,,,,,,,,,,,,,,,,,,,,,,,,,,,,,,,,,,,,,,,,,,,,,,,,,
1991,0,0.0332,,-0.02,0.03,-0.03,-0,0,0,0.05,0.05,94,,,,,,,,,,,,,,,,,,,,,,,,,,,,,,,,,,,,,,,,,,,,,,,,,,,,,,,,,,,,,,,,,,,,,,,,,,,,,,,,,,,,,,,,,,,,,,,,,,,,,,,,,,,,,,,,,,,
2031,0,0.0338,,-0.02,0.03,-0.04,-0,0,0,0.05,0.05,94,0,0,0,0,0,0,0,1,0,0,0,0,1,9,2,1,12,0,0,44,0,0,138,4,4,0,82,0,0,0,0,0,0,0,0,0,0,0,0,0,0,0,0,0,1,1,0,0,51,51,50,0,0,0,0,0,0,0,0,0,0,0,0,0,0,0,4,4,4,1,392,392,0,0,0,0,0,0,0,0,0,0,0,0,0,0,0,0,0,0,0,0,0,0,0,0,0,0,0,0,0.0,0.0,0.0,0.0,0,0,0.0,0,0.0,-1,0.0,0.0,0,0.0,0.0338
2071,0,0.0345,,-0.02,0.03,-0.03,-0,0,0,0.05,0.05,93,,,,,,,,,,,,,,,,,,,,,,,,,,,,,,,,,,,,,,,,,,,,,,,,,,,,,,,,,,,,,,,,,,,,,,,,,,,,,,,,,,,,,,,,,,,,,,,,,,,,,,,,,,,,,,,,,,,
2111,0,0.0352,,-0.02,0.03,-0.04,-0,0,0,0.05,0.05,96,,,,,,,,,,,,,,,,,,,,,,,,,,,,,,,,,,,,,,,,,,,,,,,,,,,,,,,,,,,,,,,,,,,,,,,,,,,,,,,,,,,,,,,,,,,,,,,,,,,,,,,,,,,,,,,,,,,
2131,0,0.0355,,,,,,,,,,,0,0,0,0,0,0,0,1,0,0,0,0,1,9,2,1,12,0,0,43,0,0,138,4,4,0,83,0,0,0,0,0,0,0,0,0,0,0,0,0,0,0,0,0,1,1,0,0,51,51,50,0,0,0,0,0,0,0,0,0,0,0,0,0,0,0,4,4,4,1,392,392,0,0,0,0,0,0,0,0,0,0,0,0,0,0,0,0,0,0,0,0,0,0,0,0,0,0,0,0,0.0,0.0,0.0,0.0,0,0,0.0,0,0.0,-1,0.0,,0,0.0,0.0355
2151,0,0.0358,,-0.02,0.03,-0.04,-0,0,0,0.05,0.05,95,,,,,,,,,,,,,,,,,,,,,,,,,,,,,,,,,,,,,,,,,,,,,,,,,,,,,,,,,,,,,,,,,,,,,,,,,,,,,,,,,,,,,,,,,,,,,,,,,,,,,,,,,,,,,,,,,,,
2191,0,0.0365,,-0.02,0.03,-0.04,-0,0,0,0.05,0.05,95,,,,,,,,,,,,,,,,,,,,,,,,,,,,,,,,,,,,,,,,,,,,,,,,,,,,,,,,,,,,,,,,,,,,,,,,,,,,,,,,,,,,,,,,,,,,,,,,,,,,,,,,,,,,,,,,,,,
2231,0,0.0372,,-0.02,0.03,-0.04,-0,1,0,0.05,0.05,96,0,0,0,0,0,0,0,1,0,0,0,0,1,9,2,1,12,0,0,43,0,0,138,4,4,0,83,0,0,0,0,0,0,0,0,0,0,0,0,0,0,0,0,0,1,1,0,0,51,51,50,0,0,0,0,0,0,0,0,0,0,0,0,0,0,0,4,4,4,1,392,392,0,0,0,0,0,0,0,0,0,0,0,0,0,0,0,0,0,0,0,0,0,0,0,0,0,0,0,0,0.0,0.0,0.0,0.0,0,0,0.0,0,0.0,-1,0.0,0.0,0,0.0,0.0372
2271,0,0.0378,,-0.02,0.03,-0.04,-0,1,0,0.05,0.05,96,,,,,,,,,,,,,,,,,,,,,,,,,,,,,,,,,,,,,,,,,,,,,,,,,,,,,,,,,,,,,,,,,,,,,,,,,,,,,,,,,,,,,,,,,,,,,,,,,,,,,,,,,,,,,,,,,,,
2311,0,0.0385,,-0.02,0.03,-0.04,-0,1,0,0.05,0.05,97,,,,,,,,,,,,,,,,,,,,,,,,,,,,,,,,,,,,,,,,,,,,,,,,,,,,,,,,,,,,,,,,,,,,,,,,,,,,,,,,,,,,,,,,,,,,,,,,,,,,,,,,,,,,,,,,,,,
2331,0,0.0388,,,,,,,,,,,0,0,0,0,0,0,0,1,0,0,0,0,1,9,2,1,12,0,0,43,0,0,138,4,4,0,86,0,0,0,0,0,0,0,0,0,0,0,0,0,0,0,0,0,1,1,0,0,51,51,50,0,0,0,0,0,0,0,0,0,0,0,0,0,0,0,4,4,4,1,392,392,0,0,0,0,0,0,0,0,0,0,0,0,0,0,0,0,0,0,0,0,0,0,0,0,0,0,0,0,0.0,0.0,0.0,0.0,0,0,0.0,0,0.0,-1,0.0,,0,0.0,0.0388
2351,0,0.0392,,-0.02,0.03,-0.04,-0,1,0,0.05,0.05,97,,,,,,,,,,,,,,,,,,,,,,,,,,,,,,,,,,,,,,,,,,,,,,,,,,,,,,,,,,,,,,,,,,,,,,,,,,,,,,,,,,,,,,,,,,,,,,,,,,,,,,,,,,,,,,,,,,,
2391,0,0.0398,,-0.02,0.03,-0.04,-0,0,0,0.05,0.05,95,,,,,,,,,,,,,,,,,,,,,,,,,,,,,,,,,,,,,,,,,,,,,,,,,,,,,,,,,,,,,,,,,,,,,,,,,,,,,,,,,,,,,,,,,,,,,,,,,,,,,,,,,,,,,,,,,,,
2431,0,0.0405,12.49,-0.02,0.03,-0.04,-0,0,0,0.05,0.05,95,0,0,0,0,0,0,0,1,0,0,0,0,1,9,2,1,12,0,0,42,0,0,138,5,5,0,80,0,0,0,0,0,0,0,0,0,0,0,0,0,0,0,0,0,1,1,0,0,51,51,50,0,0,0,0,0,0,0,0,0,0,0,0,0,0,0,4,4,4,1,392,392,0,0,0,0,0,0,0,0,0,0,0,0,0,0,0,0,0,0,0,0,0,0,0,0,0,0,0,0,0.0,0.0,0.0,0.0,0,0,0.0,0,0.0,-1,0.0,0.0,0,0.0,0.0405
2471,0,0.0412,,-0.02,0.03,-0.04,-0,1,0,0.05,0.05,96,,,,,,,,,,,,,,,,,,,,,,,,,,,,,,,,,,,,,,,,,,,,,,,,,,,,,,,,,,,,,,,,,,,,,,,,,,,,,,,,,,,,,,,,,,,,,,,,,,,,,,,,,,,,,,,,,,,
2511,0,0.0418,,-0.02,0.03,-0.04,-0,1,0,0.05,0.05,96,,,,,,,,,,,,,,,,,,,,,,,,,,,,,,,,,,,,,,,,,,,,,,,,,,,,,,,,,,,,,,,,,,,,,,,,,,,,,,,,,,,,,,,,,,,,,,,,,,,,,,,,,,,,,,,,,,,
2531,0,0.0422,,,,,,,,,,,0,0,0,0,0,0,0,1,0,0,0,0,1,9,2,1,12,0,0,42,0,0,138,5,5,0,82,0,0,0,0,0,0,0,0,0,0,0,0,0,0,0,0,0,1,1,0,0,51,51,50,0,0,0,0,0,0,0,0,0,0,0,0,0,0,1,1,0,0,51,51,50,0,0,0,0,0,0,0,0,0,0,0,0,0,0,0,0,0,0,0,0,0,0,0,0,0,0,0,0,0.0,0.0,0.0,0.0,0,0,0.0,0,0.0,-1,0.0,,0,0.0,0.0422
2551,0,0.0425,,-0.02,0.03,-0.03,-0,1,0,0.05,0.05,96,,,,,,,,,,,,,,,,,,,,,,,,,,,,,,,,,,,,,,,,,,,,,,,,,,,,,,,,,,,,,,,,,,,,,,,,,,,,,,,,,,,,,,,,,,,,,,,,,,,,,,,,,,,,,,,,,,,
2591,0,0.0432,,-0.02,0.03,-0.04,-0,1,0,0.05,0.05,96,,,,,,,,,,,,,,,,,,,,,,,,,,,,,,,,,,,,,,,,,,,,,,,,,,,,,,,,,,,,,,,,,,,,,,,,,,,,,,,,,,,,,,,,,,,,,,,,,,,,,,,,,,,,,,,,,,,
2631,0,0.0438,,-0.02,0.03,-0.04,-0,1,0,0.05,0.05,96,0,0,0,0,0,0,0,1,0,0,0,0,1,9,2,1,12,0,0,42,0,0,138,5,5,0,85,0,0,0,0,0,0,0,0,0,0,0,0,0,0,0,0,0,1,1,0,0,51,51,50,0,0,0,0,0,0,0,0,0,0,0,0,0,0,1,1,0,0,51,51,50,0,0,0,0,0,0,0,0,0,0,0,0,0,0,0,0,0,0,0,0,0,0,0,0,0,0,0,0,0.0,0.0,0.0,0.0,0,0,0.0,0,0.0,-1,0.0,0.0,0,0.0,0.0438
2671,0,0.0445,,-0.02,0.03,-0.04,-0,1,0,0.05,0.05,96,,,,,,,,,,,,,,,,,,,,,,,,,,,,,,,,,,,,,,,,,,,,,,,,,,,,,,,,,,,,,,,,,,,,,,,,,,,,,,,,,,,,,,,,,,,,,,,,,,,,,,,,,,,,,,,,,,,
2711,0,0.0452,,-0.02,0.03,-0.04,-0,1,0,0.05,0.05,97,,,,,,,,,,,,,,,,,,,,,,,,,,,,,,,,,,,,,,,,,,,,,,,,,,,,,,,,,,,,,,,,,,,,,,,,,,,,,,,,,,,,,,,,,,,,,,,,,,,,,,,,,,,,,,,,,,,
2731,0,0.0455,,,,,,,,,,,0,0,0,0,0,0,0,1,0,0,0,0,1,9,2,1,12,0,0,42,0,0,138,5,5,0,85,0,0,0,0,0,0,0,0,0,0,0,0,0,0,0,0,0,1,1,0,0,51,51,50,0,0,0,0,0,0,0,0,0,0,0,0,0,0,1,1,0,0,51,51,50,0,0,0,0,0,0,0,0,0,0,0,0,0,0,0,0,0,0,0,0,0,0,0,0,0,0,0,0,0.0,0.0,0.0,0.0,0,0,0.0,0,0.0,-1,0.0,,0,0.0,0.0455
2751,0,0.0458,,-0.02,0.03,-0.04,-0,1,0,0.05,0.05,97,,,,,,,,,,,,,,,,,,,,,,,,,,,,,,,,,,,,,,,,,,,,,,,,,,,,,,,,,,,,,,,,,,,,,,,,,,,,,,,,,,,,,,,,,,,,,,,,,,,,,,,,,,,,,,,,,,,
2791,0,0.0465,,-0.02,0.03,-0.04,-0,1,0,0.05,0.05,97,,,,,,,,,,,,,,,,,,,,,,,,,,,,,,,,,,,,,,,,,,,,,,,,,,,,,,,,,,,,,,,,,,,,,,,,,,,,,,,,,,,,,,,,,,,,,,,,,,,,,,,,,,,,,,,,,,,
2831,0,0.0472,,-0.02,0.03,-0.04,-0,1,0,0.05,0.05,97,0,0,0,0,0,0,0,1,0,0,0,0,1,9,2,1,12,0,0,42,0,0,138,5,5,0,83,0,0,0,0,0,0,0,0,0,0,0,0,0,0,0,0,0,1,1,0,0,51,51,50,0,0,0,0,0,0,0,0,0,0,0,0,0,0,1,1,0,0,51,51,50,0,0,0,0,0,0,0,0,0,0,0,0,0,0,0,0,0,0,0,0,0,0,0,0,0,0,0,0,0.0,0.0,0.0,0.0,0,0,0.0,0,0.0,-1,0.0,0.0,0,0.0,0.0472
2871,0,0.0479,,-0.02,0.03,-0.04,-0,1,0,0.05,0.05,98,,,,,,,,,,,,,,,,,,,,,,,,,,,,,,,,,,,,,,,,,,,,,,,,,,,,,,,,,,,,,,,,,,,,,,,,,,,,,,,,,,,,,,,,,,,,,,,,,,,,,,,,,,,,,,,,,,,
2911,0,0.0485,,-0.02,0.03,-0.04,-0,1,0,0.05,0.05,98,,,,,,,,,,,,,,,,,,,,,,,,,,,,,,,,,,,,,,,,,,,,,,,,,,,,,,,,,,,,,,,,,,,,,,,,,,,,,,,,,,,,,,,,,,,,,,,,,,,,,,,,,,,,,,,,,,,
2931,0,0.0488,,,,,,,,,,,0,0,0,0,0,0,0,1,0,0,0,0,1,9,2,1,12,0,0,42,0,0,138,6,6,0,83,0,0,0,0,0,0,0,0,0,0,0,0,0,0,0,0,0,1,1,0,0,51,51,50,0,0,0,0,0,0,0,0,0,0,0,0,0,0,1,1,0,0,51,51,50,0,0,0,0,0,0,0,0,0,0,0,0,0,0,0,0,0,0,0,0,0,0,0,0,0,0,0,0,0.0,0.0,0.0,0.0,0,0,0.0,0,0.0,-1,0.0,,0,0.0,0.0488
2951,0,0.0492,,-0.02,0.03,-0.04,-0,1,0,0.05,0.05,97,,,,,,,,,,,,,,,,,,,,,,,,,,,,,,,,,,,,,,,,,,,,,,,,,,,,,,,,,,,,,,,,,,,,,,,,,,,,,,,,,,,,,,,,,,,,,,,,,,,,,,,,,,,,,,,,,,,
2991,0,0.0498,,-0.02,0.03,-0.04,-0,1,0,0.05,0.05,97,,,,,,,,,,,,,,,,,,,,,,,,,,,,,,,,,,,,,,,,,,,,,,,,,,,,,,,,,,,,,,,,,,,,,,,,,,,,,,,,,,,,,,,,,,,,,,,,,,,,,,,,,,,,,,,,,,,
3031,0,0.0505,,-0.02,0.03,-0.04,-0,1,0,0.05,0.05,97,0,0,0,0,0,0,0,1,0,0,0,0,1,9,2,1,12,0,0,42,0,0,138,6,6,0,82,0,0,0,2,1,1,0,53,52,51,0,0,0,0,0,0,0,1,1,0,0,51,51,50,0,0,0,0,0,0,0,0,0,0,0,0,0,0,1,1,0,0,51,51,50,0,0,0,0,0,0,0,0,0,0,0,0,0,0,0,0,0,0,0,0,0,0,0,0,0,0,0,0,0.0,0.0,0.0,0.0,0,0,0.0,0,0.0,-1,0.0,0.0,0,0.0,0.0505
3071,0,0.0512,,-0.02,0.03,-0.04,-0,0,0,0.05,0.05,96,,,,,,,,,,,,,,,,,,,,,,,,,,,,,,,,,,,,,,,,,,,,,,,,,,,,,,,,,,,,,,,,,,,,,,,,,,,,,,,,,,,,,,,,,,,,,,,,,,,,,,,,,,,,,,,,,,,
3111,0,0.0518,,-0.02,0.03,-0.04,-0,1,0,0.05,0.05,96,,,,,,,,,,,,,,,,,,,,,,,,,,,,,,,,,,,,,,,,,,,,,,,,,,,,,,,,,,,,,,,,,,,,,,,,,,,,,,,,,,,,,,,,,,,,,,,,,,,,,,,,,,,,,,,,,,,
3131,0,0.0522,,,,,,,,,,,0,0,0,0,0,0,0,1,0,0,0,0,1,9,2,1,12,0,0,42,0,0,138,6,6,0,83,0,0,0,2,1,1,0,53,52,51,0,0,0,0,0,0,0,1,1,0,0,51,51,50,0,0,0,0,0,0,0,0,0,0,0,0,0,0,1,1,0,0,51,51,50,0,0,0,0,0,0,0,0,0,0,0,0,0,0,0,0,0,0,0,0,0,0,0,0,0,0,0,0,0.0,0.0,0.0,0.0,0,0,0.0,0,0.0,-1,0.0,,0,0.0,0.0522
3151,0,0.0525,,-0.02,0.03,-0.04,-0,1,0,0.05,0.05,99,,,,,,,,,,,,,,,,,,,,,,,,,,,,,,,,,,,,,,,,,,,,,,,,,,,,,,,,,,,,,,,,,,,,,,,,,,,,,,,,,,,,,,,,,,,,,,,,,,,,,,,,,,,,,,,,,,,
3191,0,0.0532,,-0.02,0.03,-0.04,-0,1,0,0.05,0.05,96,,,,,,,,,,,,,,,,,,,,,,,,,,,,,,,,,,,,,,,,,,,,,,,,,,,,,,,,,,,,,,,,,,,,,,,,,,,,,,,,,,,,,,,,,,,,,,,,,,,,,,,,,,,,,,,,,,,
3231,0,0.0538,,-0.02,0.03,-0.04,-0,0,0,0.05,0.05,96,0,0,0,0,32,0,0,1,0,0,0,0,0,9,7,1,12,0,0,42,0,0,138,6,6,0,83,0,0,0,2,1,1,0,53,52,51,0,0,0,0,0,0,0,0,4,4,4,0,390,389,0,0,0,0,0,0,0,0,0,0,0,0,0,0,1,1,0,0,51,51,50,0,0,0,0,0,0,0,0,0,0,0,0,0,0,0,0,0,0,0,0,0,0,0,0,0,0,0,0,0.0,0.0,0.0,0.0,0,0,0.0,0,0.0,-1,0.0,0.0,0,0.0,0.0538
3271,0,0.0545,,-0.02,0.03,-0.04,-0,0,0,0.05,0.05,94,,,,,,,,,,,,,,,,,,,,,,,,,,,,,,,,,,,,,,,,,,,,,,,,,,,,,,,,,,,,,,,,,,,,,,,,,,,,,,,,,,,,,,,,,,,,,,,,,,,,,,,,,,,,,,,,,,,
3311,0,0.0552,,-0.02,0.03,-0.04,-0,0,0,0.05,0.05,96,,,,,,,,,,,,,,,,,,,,,,,,,,,,,,,,,,,,,,,,,,,,,,,,,,,,,,,,,,,,,,,,,,,,,,,,,,,,,,,,,,,,,,,,,,,,,,,,,,,,,,,,,,,,,,,,,,,
3331,0,0.0555,,,,,,,,,,,0,0,0,0,32,0,0,1,0,0,0,0,0,9,7,1,12,0,0,42,0,0,138,6,6,0,82,0,0,0,2,1,1,0,53,52,51,0,0,0,0,0,0,0,0,4,4,4,0,390,389,0,0,0,0,0,0,0,0,0,0,0,0,0,0,1,1,0,0,51,51,50,0,0,0,0,0,0,0,0,0,0,0,0,0,0,0,0,0,0,0,0,0,0,0,0,0,0,0,0,0.0,0.0,0.0,0.0,0,0,0.0,0,0.0,-1,0.0,,0,0.0,0.0555
3351,0,0.0558,,-0.02,0.03,-0.04,-0,0,0,0.05,0.05,96,,,,,,,,,,,,,,,,,,,,,,,,,,,,,,,,,,,,,,,,,,,,,,,,,,,,,,,,,,,,,,,,,,,,,,,,,,,,,,,,,,,,,,,,,,,,,,,,,,,,,,,,,,,,,,,,,,,
3391,0,0.0565,,-0.02,0.03,-0.04,-0,0,0,0.05,0.05,95,,,,,,,,,,,,,,,,,,,,,,,,,,,,,,,,,,,,,,,,,,,,,,,,,,,,,,,,,,,,,,,,,,,,,,,,,,,,,,,,,,,,,,,,,,,,,,,,,,,,,,,,,,,,,,,,,,,
3431,0,0.0572,12.42,-0.02,0.03,-0.04,-0,0,0,0.05,0.05,94,0,0,0,0,32,0,0,1,0,0,0,0,0,9,7,1,12,0,0,42,0,0,138,6,6,0,85,0,0,0,2,1,1,0,53,52,51,0,0,0,0,0,0,0,0,4,4,4,0,390,389,0,0,0,0,0,0,0,0,0,0,0,0,0,0,1,1,0,0,51,51,50,0,0,0,0,0,0,0,0,0,0,0,0,0,0,0,0,0,0,0,0,0,0,0,0,0,0,0,0,0.0,0.0,0.0,0.0,0,0,0.0,0,0.0,-1,0.0,0.0,0,0.0,0.0572
3471,0,0.0578,,-0.02,0.03,-0.04,-0,0,0,0.05,0.05,95,,,,,,,,,,,,,,,,,,,,,,,,,,,,,,,,,,,,,,,,,,,,,,,,,,,,,,,,,,,,,,,,,,,,,,,,,,,,,,,,,,,,,,,,,,,,,,,,,,,,,,,,,,,,,,,,,,,
3511,0,0.0585,,-0.02,0.03,-0.04,-0,0,0,0.05,0.05,96,,,,,,,,,,,,,,,,,,,,,,,,,,,,,,,,,,,,,,,,,,,,,,,,,,,,,,,,,,,,,,,,,,,,,,,,,,,,,,,,,,,,,,,,,,,,,,,,,,,,,,,,,,,,,,,,,,,
3531,0,0.0588,,,,,,,,,,,0,0,0,0,32,0,0,1,0,0,0,0,0,9,7,1,12,0,0,42,0,0,138,7,7,0,83,0,0,0,2,1,1,0,53,52,51,0,0,0,0,0,0,0,0,4,4,4,0,390,389,0,0,0,0,0,0,0,0,0,0,0,0,0,0,1,1,0,0,51,51,50,0,0,0,0,0,0,0,0,0,0,0,0,0,0,0,0,0,0,0,0,0,0,0,0,0,0,0,0,0.0,0.0,0.0,0.0,0,0,0.0,0,0.0,-1,0.0,,0,0.0,0.0588
3551,0,0.0592,,-0.02,0.03,-0.04,-0,0,0,0.05,0.05,97,,,,,,,,,,,,,,,,,,,,,,,,,,,,,,,,,,,,,,,,,,,,,,,,,,,,,,,,,,,,,,,,,,,,,,,,,,,,,,,,,,,,,,,,,,,,,,,,,,,,,,,,,,,,,,,,,,,
3591,0,0.0598,,-0.02,0.03,-0.04,-0,1,0,0.05,0.05,97,,,,,,,,,,,,,,,,,,,,,,,,,,,,,,,,,,,,,,,,,,,,,,,,,,,,,,,,,,,,,,,,,,,,,,,,,,,,,,,,,,,,,,,,,,,,,,,,,,,,,,,,,,,,,,,,,,,
3631,0,0.0605,,-0.02,0.03,-0.04,-0,1,0,0.05,0.05,96,0,0,0,0,32,0,0,1,0,0,0,0,0,9,7,1,12,0,0,42,0,0,138,7,7,0,85,0,0,0,2,1,1,0,53,52,51,0,0,0,0,0,0,0,0,4,4,4,0,390,389,0,0,0,0,0,0,0,0,0,0,0,0,0,0,1,1,0,0,51,51,50,0,0,0,0,0,0,0,0,0,0,0,0,0,0,0,0,0,0,0,0,0,0,0,0,0,0,0,0,0.0,0.0,0.0,0.0,0,0,0.0,0,0.0,-1,0.0,0.0,0,0.0,0.0605
3671,0,0.0612,,-0.02,0.02,-0.04,-0,1,0,0.05,0.05,92,,,,,,,,,,,,,,,,,,,,,,,,,,,,,,,,,,,,,,,,,,,,,,,,,,,,,,,,,,,,,,,,,,,,,,,,,,,,,,,,,,,,,,,,,,,,,,,,,,,,,,,,,,,,,,,,,,,
3711,0,0.0618,,-0.02,0.02,-0.03,-0,1,0,0.05,0.05,90,,,,,,,,,,,,,,,,,,,,,,,,,,,,,,,,,,,,,,,,,,,,,,,,,,,,,,,,,,,,,,,,,,,,,,,,,,,,,,,,,,,,,,,,,,,,,,,,,,,,,,,,,,,,,,,,,,,
3731,0,0.0622,,,,,,,,,,,0,0,0,0,32,0,0,1,0,0,0,0,0,9,7,1,12,0,0,42,0,0,138,7,7,0,85,0,0,0,2,1,1,0,53,52,51,0,0,0,0,0,0,0,0,4,4,4,0,390,389,0,0,0,0,0,0,0,0,0,0,0,0,0,0,1,1,0,0,51,51,50,0,0,0,0,0,0,0,0,0,0,0,0,0,0,0,0,0,0,0,0,0,0,0,0,0,0,0,0,0.0,0.0,0.0,0.0,0,0,0.0,0,0.0,-1,0.0,,0,0.0,0.0622
3751,0,0.0625,,-0.02,0.02,-0.03,-0,1,0,0.04,0.05,86,,,,,,,,,,,,,,,,,,,,,,,,,,,,,,,,,,,,,,,,,,,,,,,,,,,,,,,,,,,,,,,,,,,,,,,,,,,,,,,,,,,,,,,,,,,,,,,,,,,,,,,,,,,,,,,,,,,
3791,0,0.0632,,-0.02,0.02,-0.03,-0,1,0,0.04,0.05,84,,,,,,,,,,,,,,,,,,,,,,,,,,,,,,,,,,,,,,,,,,,,,,,,,,,,,,,,,,,,,,,,,,,,,,,,,,,,,,,,,,,,,,,,,,,,,,,,,,,,,,,,,,,,,,,,,,,
3831,0,0.0638,,-0.02,0.02,-0.03,-0,1,0,0.04,0.05,83,0,0,0,0,32,0,0,1,0,0,0,0,0,9,7,1,12,0,0,43,0,0,138,7,7,0,83,0,0,0,2,1,1,0,53,52,51,0,0,0,0,0,0,0,0,4,4,4,0,390,389,0,0,0,0,0,0,0,0,0,0,0,0,0,0,1,1,0,0,51,51,50,0,0,0,0,0,0,0,0,0,0,0,0,0,0,0,0,0,0,0,0,0,0,0,0,0,0,0,0,0.0,0.0,0.0,0.0,0,0,0.0,0,0.0,-1,0.0,0.0,0,0.0,0.0638
3871,0,0.0645,,-0.02,0.02,-0.03,-0,1,0,0.04,0.05,84,,,,,,,,,,,,,,,,,,,,,,,,,,,,,,,,,,,,,,,,,,,,,,,,,,,,,,,,,,,,,,,,,,,,,,,,,,,,,,,,,,,,,,,,,,,,,,,,,,,,,,,,,,,,,,,,,,,
3911,0,0.0652,,-0.02,0.02,-0.03,-0,1,0,0.05,0.05,90,,,,,,,,,,,,,,,,,,,,,,,,,,,,,,,,,,,,,,,,,,,,,,,,,,,,,,,,,,,,,,,,,,,,,,,,,,,,,,,,,,,,,,,,,,,,,,,,,,,,,,,,,,,,,,,,,,,
3931,0,0.0655,,,,,,,,,,,0,0,0,0,32,0,0,1,0,0,0,0,0,9,7,1,12,0,0,44,0,0,138,7,7,0,82,0,0,0,2,1,1,0,53,52,51,0,0,0,0,0,0,0,0,4,4,4,0,390,389,0,0,0,0,0,0,0,0,0,0,0,0,0,0,1,1,0,0,51,51,50,0,0,0,0,0,0,0,0,0,0,0,0,0,0,0,0,0,0,0,0,0,0,0,0,0,0,0,0,0.0,0.0,0.0,0.0,0,0,0.0,0,0.0,-1,0.0,,0,0.0,0.0655
3951,0,0.0658,,-0.02,0.03,-0.04,-0,1,0,0.05,0.05,98,,,,,,,,,,,,,,,,,,,,,,,,,,,,,,,,,,,,,,,,,,,,,,,,,,,,,,,,,,,,,,,,,,,,,,,,,,,,,,,,,,,,,,,,,,,,,,,,,,,,,,,,,,,,,,,,,,,
3991,0,0.0665,,-0.02,0.03,-0.04,-0,1,0,0.05,0.05,100,,,,,,,,,,,,,,,,,,,,,,,,,,,,,,,,,,,,,,,,,,,,,,,,,,,,,,,,,,,,,,,,,,,,,,,,,,,,,,,,,,,,,,,,,,,,,,,,,,,,,,,,,,,,,,,,,,,
4031,0,0.0672,,-0.02,0.03,-0.04,-0,1,0,0.06,0.06,100,0,0,0,0,32,0,0,1,0,0,0,0,0,9,7,1,12,0,0,50,-1,0,138,8,8,0,85,0,0,0,2,1,1,0,53,52,51,0,0,0,0,0,0,0,0,4,4,4,0,390,389,0,0,0,0,0,0,0,0,0,0,0,0,0,0,1,1,0,0,51,51,50,0,0,0,0,0,0,0,0,0,0,0,0,0,0,0,0,0,0,0,0,0,0,0,0,0,0,0,0,0.0,0.0,0.0,0.0,0,0,0.0,0,0.0,-1,0.0,0.0,0,0.0,0.0672
4071,0,0.0678,,-0.02,0.03,-0.04,-0,1,0,0.06,0.06,99,,,,,,,,,,,,,,,,,,,,,,,,,,,,,,,,,,,,,,,,,,,,,,,,,,,,,,,,,,,,,,,,,,,,,,,,,,,,,,,,,,,,,,,,,,,,,,,,,,,,,,,,,,,,,,,,,,,
4111,0,0.0685,,-0.02,0.03,-0.04,-0,1,0,0.06,0.06,96,,,,,,,,,,,,,,,,,,,,,,,,,,,,,,,,,,,,,,,,,,,,,,,,,,,,,,,,,,,,,,,,,,,,,,,,,,,,,,,,,,,,,,,,,,,,,,,,,,,,,,,,,,,,,,,,,,,
4131,0,0.0689,,,,,,,,,,,0,0,0,0,32,0,0,1,0,0,0,0,0,9,7,1,12,0,0,55,0,0,138,8,8,0,83,0,0,0,2,1,1,0,53,52,51,0,0,0,0,0,0,0,0,4,4,4,0,390,389,0,0,0,0,0,0,0,0,0,0,0,0,0,0,1,1,0,0,51,51,50,0,0,0,0,0,0,0,0,0,0,0,0,0,0,0,0,0,0,0,0,0,0,0,0,0,0,0,0,0.0,0.0,0.0,0.0,0,0,0.0,0,0.0,-1,0.0,,0,0.0,0.0689
4151,0,0.0692,,-0.02,0.03,-0.04,-0,1,0,0.05,0.06,93,,,,,,,,,,,,,,,,,,,,,,,,,,,,,,,,,,,,,,,,,,,,,,,,,,,,,,,,,,,,,,,,,,,,,,,,,,,,,,,,,,,,,,,,,,,,,,,,,,,,,,,,,,,,,,,,,,,
4191,0,0.0698,,-0.02,0.03,-0.04,-0,1,0,0.05,0.06,91,,,,,,,,,,,,,,,,,,,,,,,,,,,,,,,,,,,,,,,,,,,,,,,,,,,,,,,,,,,,,,,,,,,,,,,,,,,,,,,,,,,,,,,,,,,,,,,,,,,,,,,,,,,,,,,,,,,
4231,0,0.0705,,-0.02,0.03,-0.04,-0,1,0,0.05,0.06,88,0,0,0,0,32,0,0,1,0,0,0,0,0,9,7,1,12,0,0,56,0,0,138,8,8,0,85,0,0,0,2,1,1,0,53,52,51,0,0,0,0,0,0,0,1,1,0,0,51,51,50,0,0,0,0,0,0,0,0,0,0,0,0,0,0,1,1,0,0,51,51,50,0,0,0,0,0,0,0,0,0,0,0,0,0,0,0,0,0,0,0,0,0,0,0,0,0,0,0,0,0.0,0.0,0.0,0.0,0,0,0.0,0,0.0,-1,0.0,0.0,0,0.0,0.0705
4271,0,0.0712,,-0.02,0.03,-0.04,-0,1,0,0.05,0.06,85,,,,,,,,,,,,,,,,,,,,,,,,,,,,,,,,,,,,,,,,,,,,,,,,,,,,,,,,,,,,,,,,,,,,,,,,,,,,,,,,,,,,,,,,,,,,,,,,,,,,,,,,,,,,,,,,,,,
4311,0,0.0718,,-0.02,0.03,-0.04,-0,1,0,0.05,0.06,86,,,,,,,,,,,,,,,,,,,,,,,,,,,,,,,,,,,,,,,,,,,,,,,,,,,,,,,,,,,,,,,,,,,,,,,,,,,,,,,,,,,,,,,,,,,,,,,,,,,,,,,,,,,,,,,,,,,
4331,0,0.0722,,,,,,,,,,,0,0,0,0,32,0,0,1,0,0,0,0,0,9,7,1,12,0,0,57,0,0,138,8,8,0,83,0,0,0,2,1,1,0,53,52,51,0,0,0,0,0,0,0,1,1,0,0,51,51,50,0,0,0,0,0,0,0,0,0,0,0,0,0,0,1,1,0,0,51,51,50,0,0,0,0,0,0,0,0,0,0,0,0,0,0,0,0,0,0,0,0,0,0,0,0,0,0,0,0,0.0,0.0,0.0,0.0,0,0,0.0,0,0.0,-1,0.0,,0,0.0,0.0722
4351,0,0.0725,,-0.02,0.03,-0.04,-0,1,0,0.05,0.06,87,,,,,,,,,,,,,,,,,,,,,,,,,,,,,,,,,,,,,,,,,,,,,,,,,,,,,,,,,,,,,,,,,,,,,,,,,,,,,,,,,,,,,,,,,,,,,,,,,,,,,,,,,,,,,,,,,,,
4391,0,0.0732,,-0.02,0.03,-0.04,-0,1,0,0.05,0.06,86,,,,,,,,,,,,,,,,,,,,,,,,,,,,,,,,,,,,,,,,,,,,,,,,,,,,,,,,,,,,,,,,,,,,,,,,,,,,,,,,,,,,,,,,,,,,,,,,,,,,,,,,,,,,,,,,,,,
4431,0,0.0738,12.43,-0.02,0.03,-0.04,-0,1,0,0.05,0.06,84,0,0,0,0,32,0,0,1,0,0,0,0,0,9,7,1,12,0,0,58,0,0,138,8,8,0,82,0,0,0,2,1,1,0,53,52,51,0,0,0,0,0,0,0,1,1,0,0,51,51,50,0,0,0,0,0,0,0,0,0,0,0,0,0,0,1,1,0,0,51,51,50,0,0,0,0,0,0,0,0,0,0,0,0,0,0,0,0,0,0,0,0,0,0,0,0,0,0,0,0,0.0,0.0,0.0,0.0,0,0,0.0,0,0.0,-1,0.0,0.0,0,0.0,0.0738
4471,0,0.0745,,-0.02,0.02,-0.03,-0,1,0,0.05,0.06,82,,,,,,,,,,,,,,,,,,,,,,,,,,,,,,,,,,,,,,,,,,,,,,,,,,,,,,,,,,,,,,,,,,,,,,,,,,,,,,,,,,,,,,,,,,,,,,,,,,,,,,,,,,,,,,,,,,,
4511,0,0.0752,,-0.02,0.02,-0.03,-0,1,0,0.05,0.06,79,,,,,,,,,,,,,,,,,,,,,,,,,,,,,,,,,,,,,,,,,,,,,,,,,,,,,,,,,,,,,,,,,,,,,,,,,,,,,,,,,,,,,,,,,,,,,,,,,,,,,,,,,,,,,,,,,,,
4531,0,0.0755,,,,,,,,,,,0,0,0,0,32,0,0,1,0,0,0,0,0,9,7,1,12,0,0,58,0,0,138,8,8,0,80,0,0,0,2,1,1,0,53,52,51,0,0,0,0,0,0,0,1,1,0,0,51,51,50,0,0,0,0,0,0,0,0,0,0,0,0,0,0,0,4,4,4,1,392,392,0,0,0,0,0,0,0,0,0,0,0,0,0,0,0,0,0,0,0,0,0,0,0,0,0,0,0,0,0.0,0.0,0.0,0.0,0,0,0.0,0,0.0,-1,0.0,,0,0.0,0.0755
4551,0,0.0758,,-0.02,0.02,-0.03,-0,1,0,0.04,0.06,78,,,,,,,,,,,,,,,,,,,,,,,,,,,,,,,,,,,,,,,,,,,,,,,,,,,,,,,,,,,,,,,,,,,,,,,,,,,,,,,,,,,,,,,,,,,,,,,,,,,,,,,,,,,,,,,,,,,
4591,0,0.0765,,-0.02,0.02,-0.03,-0,1,0,0.05,0.06,79,,,,,,,,,,,,,,,,,,,,,,,,,,,,,,,,,,,,,,,,,,,,,,,,,,,,,,,,,,,,,,,,,,,,,,,,,,,,,,,,,,,,,,,,,,,,,,,,,,,,,,,,,,,,,,,,,,,
4631,0,0.0772,,-0.02,0.02,-0.03,-0,1,0,0.05,0.06,80,0,0,0,0,32,0,0,1,0,0,0,0,0,9,7,1,12,0,0,61,0,0,138,8,8,0,83,0,0,0,2,1,1,0,53,52,51,0,0,0,0,0,0,0,1,1,0,0,51,51,50,0,0,0,0,0,0,0,0,0,0,0,0,0,0,0,4,4,4,1,392,392,0,0,0,0,0,0,0,0,0,0,0,0,0,0,0,0,0,0,0,0,0,0,0,0,0,0,0,0,0.0,0.0,0.0,0.0,0,0,0.0,0,0.0,-1,0.0,0.0,0,0.0,0.0772
4671,0,0.0778,,-0.02,0.02,-0.03,-0,1,0,0.05,0.06,81,,,,,,,,,,,,,,,,,,,,,,,,,,,,,,,,,,,,,,,,,,,,,,,,,,,,,,,,,,,,,,,,,,,,,,,,,,,,,,,,,,,,,,,,,,,,,,,,,,,,,,,,,,,,,,,,,,,
4711,0,0.0785,,-0.02,0.03,-0.04,-0,1,0,0.05,0.06,84,,,,,,,,,,,,,,,,,,,,,,,,,,,,,,,,,,,,,,,,,,,,,,,,,,,,,,,,,,,,,,,,,,,,,,,,,,,,,,,,,,,,,,,,,,,,,,,,,,,,,,,,,,,,,,,,,,,
4731,0,0.0788,,,,,,,,,,,0,0,0,0,32,0,0,1,0,0,0,0,0,9,7,1,12,0,0,66,0,0,138,8,8,0,85,0,0,0,2,1,1,0,53,52,51,0,0,0,0,0,0,0,1,1,0,0,51,51,50,0,0,0,0,0,0,0,0,0,0,0,0,0,0,0,4,4,4,1,392,392,0,0,0,0,0,0,0,0,0,0,0,0,0,0,0,0,0,0,0,0,0,0,0,0,0,0,0,0,0.0,0.0,0.0,0.0,0,0,0.0,0,0.0,-1,0.0,,0,0.0,0.0788
4751,0,0.0792,,-0.02,0.03,-0.04,-0,1,0,0.05,0.06,85,,,,,,,,,,,,,,,,,,,,,,,,,,,,,,,,,,,,,,,,,,,,,,,,,,,,,,,,,,,,,,,,,,,,,,,,,,,,,,,,,,,,,,,,,,,,,,,,,,,,,,,,,,,,,,,,,,,
4791,0,0.0799,,-0.02,0.03,-0.04,-0,1,0,0.05,0.06,87,,,,,,,,,,,,,,,,,,,,,,,,,,,,,,,,,,,,,,,,,,,,,,,,,,,,,,,,,,,,,,,,,,,,,,,,,,,,,,,,,,,,,,,,,,,,,,,,,,,,,,,,,,,,,,,,,,,
4831,0,0.0805,,-0.02,0.03,-0.04,-0,0,0,0.05,0.06,88,0,0,0,0,32,0,0,1,0,0,0,0,0,9,7,1,12,0,0,71,0,0,138,9,9,0,85,0,0,0,2,1,1,0,53,52,51,0,0,0,0,0,0,0,1,1,0,0,51,51,50,0,0,0,0,0,0,0,0,0,0,0,0,0,0,0,4,4,4,1,392,392,0,0,0,0,0,0,0,0,0,0,0,0,0,0,0,0,0,0,0,0,0,0,0,0,0,0,0,0,0.0,0.0,0.0,0.0,0,0,0.0,0,0.0,-1,0.0,0.0,0,0.0,0.0805
4871,0,0.0812,,-0.02,0.03,-0.04,-0,1,0,0.05,0.06,89,,,,,,,,,,,,,,,,,,,,,,,,,,,,,,,,,,,,,,,,,,,,,,,,,,,,,,,,,,,,,,,,,,,,,,,,,,,,,,,,,,,,,,,,,,,,,,,,,,,,,,,,,,,,,,,,,,,
4911,0,0.0818,,-0.02,0.03,-0.04,-0,0,0,0.05,0.06,93,,,,,,,,,,,,,,,,,,,,,,,,,,,,,,,,,,,,,,,,,,,,,,,,,,,,,,,,,,,,,,,,,,,,,,,,,,,,,,,,,,,,,,,,,,,,,,,,,,,,,,,,,,,,,,,,,,,
4931,0,0.0822,,,,,,,,,,,0,0,0,0,32,0,0,1,0,0,0,0,0,9,7,1,12,0,0,75,0,0,138,9,9,0,85,0,0,0,2,1,1,0,53,52,51,0,0,0,0,0,0,0,1,1,0,0,51,51,50,0,0,0,0,0,0,0,0,0,0,0,0,0,0,0,4,4,4,1,392,392,0,0,0,0,0,0,0,0,0,0,0,0,0,0,0,0,0,0,0,0,0,0,0,0,0,0,0,0,0.0,0.0,0.0,0.0,0,0,0.0,0,0.0,-1,0.0,,0,0.0,0.0822
4951,0,0.0825,,-0.02,0.03,-0.04,-0,0,0,0.06,0.06,98,,,,,,,,,,,,,,,,,,,,,,,,,,,,,,,,,,,,,,,,,,,,,,,,,,,,,,,,,,,,,,,,,,,,,,,,,,,,,,,,,,,,,,,,,,,,,,,,,,,,,,,,,,,,,,,,,,,
4991,0,0.0832,,-0.02,0.03,-0.04,-0,0,0,0.06,0.06,98,,,,,,,,,,,,,,,,,,,,,,,,,,,,,,,,,,,,,,,,,,,,,,,,,,,,,,,,,,,,,,,,,,,,,,,,,,,,,,,,,,,,,,,,,,,,,,,,,,,,,,,,,,,,,,,,,,,
5031,0,0.0838,,-0.02,0.03,-0.04,-0,0,0,0.06,0.06,96,0,0,0,0,32,0,0,1,0,0,0,0,0,9,7,1,12,0,0,76,0,0,138,9,9,0,83,0,0,0,2,1,1,0,53,52,51,0,0,0,0,0,0,0,1,1,0,0,51,51,50,0,0,0,0,0,0,0,0,0,0,0,0,0,0,0,4,4,4,1,392,392,0,0,0,0,0,0,0,0,0,0,0,0,0,0,0,0,0,0,0,0,0,0,0,0,0,0,0,0,0.0,0.0,0.0,0.0,0,0,0.0,0,0.0,-1,0.0,0.0,0,0.0,0.0838
5071,0,0.0845,,-0.02,0.03,-0.04,-0,0,0,0.05,0.06,92,,,,,,,,,,,,,,,,,,,,,,,,,,,,,,,,,,,,,,,,,,,,,,,,,,,,,,,,,,,,,,,,,,,,,,,,,,,,,,,,,,,,,,,,,,,,,,,,,,,,,,,,,,,,,,,,,,,
5111,0,0.0852,,-0.02,0.03,-0.04,-0,0,0,0.05,0.06,85,,,,,,,,,,,,,,,,,,,,,,,,,,,,,,,,,,,,,,,,,,,,,,,,,,,,,,,,,,,,,,,,,,,,,,,,,,,,,,,,,,,,,,,,,,,,,,,,,,,,,,,,,,,,,,,,,,,
5131,0,0.0855,,,,,,,,,,,0,0,0,0,32,0,0,1,0,0,0,0,0,9,7,1,12,0,0,76,0,0,138,9,9,0,82,0,0,0,2,1,1,0,53,52,51,0,0,0,0,0,0,0,1,1,0,0,51,51,50,0,0,0,0,0,0,0,0,0,0,0,0,0,0,0,4,4,4,1,392,392,0,0,0,0,0,0,0,0,0,0,0,0,0,0,0,0,0,0,0,0,0,0,0,0,0,0,0,0,0.0,0.0,0.0,0.0,0,0,0.0,0,0.0,-1,0.0,,0,0.0,0.0855
5151,0,0.0858,,-0.02,0.02,-0.03,-0,0,0,0.04,0.06,77,,,,,,,,,,,,,,,,,,,,,,,,,,,,,,,,,,,,,,,,,,,,,,,,,,,,,,,,,,,,,,,,,,,,,,,,,,,,,,,,,,,,,,,,,,,,,,,,,,,,,,,,,,,,,,,,,,,
5191,0,0.0865,,-0.02,0.02,-0.03,-0,0,0,0.04,0.06,74,,,,,,,,,,,,,,,,,,,,,,,,,,,,,,,,,,,,,,,,,,,,,,,,,,,,,,,,,,,,,,,,,,,,,,,,,,,,,,,,,,,,,,,,,,,,,,,,,,,,,,,,,,,,,,,,,,,
5231,0,0.0872,,-0.02,0.02,-0.03,-0,0,0,0.04,0.06,76,0,0,0,0,32,0,0,1,0,0,0,0,0,9,7,1,12,0,0,75,0,0,138,9,9,0,82,0,0,0,2,1,1,0,53,52,51,0,0,0,0,0,0,0,1,1,0,0,51,51,50,0,0,0,0,0,0,0,0,0,0,0,0,0,0,0,4,4,4,1,392,392,0,0,0,0,0,0,0,0,0,0,0,0,0,0,0,0,0,0,0,0,0,0,0,0,0,0,0,0,0.0,0.0,0.0,0.0,0,0,0.0,0,0.0,-1,0.0,0.0,0,0.0,0.0872
5271,0,0.0878,,-0.02,0.02,-0.03,-0,0,0,0.04,0.06,76,,,,,,,,,,,,,,,,,,,,,,,,,,,,,,,,,,,,,,,,,,,,,,,,,,,,,,,,,,,,,,,,,,,,,,,,,,,,,,,,,,,,,,,,,,,,,,,,,,,,,,,,,,,,,,,,,,,
5311,0,0.0885,,-0.02,0.02,-0.03,-0,0,0,0.05,0.06,79,,,,,,,,,,,,,,,,,,,,,,,,,,,,,,,,,,,,,,,,,,,,,,,,,,,,,,,,,,,,,,,,,,,,,,,,,,,,,,,,,,,,,,,,,,,,,,,,,,,,,,,,,,,,,,,,,,,
5331,0,0.0888,,,,,,,,,,,0,0,0,0,32,0,0,1,0,0,0,0,0,9,7,1,12,0,0,74,0,0,138,9,9,0,82,0,0,0,2,1,1,0,53,52,51,0,0,0,0,0,0,0,1,1,0,0,51,51,50,0,0,0,0,0,0,0,0,0,0,0,0,0,0,0,4,4,4,1,392,392,0,0,0,0,0,0,0,0,0,0,0,0,0,0,0,0,0,0,0,0,0,0,0,0,0,0,0,0,0.0,0.0,0.0,0.0,0,0,0.0,0,0.0,-1,0.0,,0,0.0,0.0888
5351,0,0.0892,,-0.02,0.03,-0.03,-0,0,0,0.05,0.06,82,,,,,,,,,,,,,,,,,,,,,,,,,,,,,,,,,,,,,,,,,,,,,,,,,,,,,,,,,,,,,,,,,,,,,,,,,,,,,,,,,,,,,,,,,,,,,,,,,,,,,,,,,,,,,,,,,,,
5391,0,0.0898,,-0.02,0.03,-0.04,-0,1,0,0.05,0.06,83,,,,,,,,,,,,,,,,,,,,,,,,,,,,,,,,,,,,,,,,,,,,,,,,,,,,,,,,,,,,,,,,,,,,,,,,,,,,,,,,,,,,,,,,,,,,,,,,,,,,,,,,,,,,,,,,,,,
5431,0,0.0905,12.41,-0.02,0.02,-0.03,-0,1,0,0.05,0.06,80,0,0,0,0,32,0,0,1,0,0,0,0,0,9,7,1,12,0,0,74,0,0,138,9,9,0,86,0,0,0,2,1,1,0,53,52,51,0,0,0,0,0,0,0,1,1,0,0,51,51,50,0,0,0,0,0,0,0,0,0,0,0,0,0,0,0,4,4,4,1,392,392,0,0,0,0,0,0,0,0,0,0,0,0,0,0,0,0,0,0,0,0,0,0,0,0,0,0,0,0,0.0,0.0,0.0,0.0,0,0,0.0,0,0.0,-1,0.0,0.0,0,0.0,0.0905
5471,0,0.0912,,-0.02,0.03,-0.03,-0,1,0,0.05,0.06,80,,,,,,,,,,,,,,,,,,,,,,,,,,,,,,,,,,,,,,,,,,,,,,,,,,,,,,,,,,,,,,,,,,,,,,,,,,,,,,,,,,,,,,,,,,,,,,,,,,,,,,,,,,,,,,,,,,,
5511,0,0.0918,,-0.02,0.02,-0.03,-0,0,0,0.05,0.06,82,,,,,,,,,,,,,,,,,,,,,,,,,,,,,,,,,,,,,,,,,,,,,,,,,,,,,,,,,,,,,,,,,,,,,,,,,,,,,,,,,,,,,,,,,,,,,,,,,,,,,,,,,,,,,,,,,,,
5531,0,0.0922,,,,,,,,,,,0,0,0,0,32,0,0,1,0,0,0,0,0,9,7,1,12,0,0,74,0,0,138,10,10,0,82,0,0,0,2,1,1,0,53,52,51,0,0,0,0,0,0,0,1,1,0,0,51,51,50,0,0,0,0,0,0,0,0,0,0,0,0,0,0,1,1,0,0,51,51,50,0,0,0,0,0,0,0,0,0,0,0,0,0,0,0,0,0,0,0,0,0,0,0,0,0,0,0,0,0.0,0.0,0.0,0.0,0,0,0.0,0,0.0,-1,0.0,,0,0.0,0.0922
5551,0,0.0925,,-0.02,0.03,-0.03,-0,1,0,0.05,0.06,82,,,,,,,,,,,,,,,,,,,,,,,,,,,,,,,,,,,,,,,,,,,,,,,,,,,,,,,,,,,,,,,,,,,,,,,,,,,,,,,,,,,,,,,,,,,,,,,,,,,,,,,,,,,,,,,,,,,
5591,0,0.0932,,-0.02,0.03,-0.04,-0,1,0,0.05,0.06,82,,,,,,,,,,,,,,,,,,,,,,,,,,,,,,,,,,,,,,,,,,,,,,,,,,,,,,,,,,,,,,,,,,,,,,,,,,,,,,,,,,,,,,,,,,,,,,,,,,,,,,,,,,,,,,,,,,,
5631,0,0.0938,,-0.02,0.03,-0.04,-0,1,0,0.05,0.06,84,0,0,0,0,32,0,0,1,0,0,0,0,0,9,7,1,12,0,0,74,0,0,138,10,10,0,83,0,0,0,2,1,1,0,53,52,51,0,0,0,0,0,0,0,1,1,0,0,51,51,50,0,0,0,0,0,0,0,0,0,0,0,0,0,0,1,1,0,0,51,51,50,0,0,0,0,0,0,0,0,0,0,0,0,0,0,0,0,0,0,0,0,0,0,0,0,0,0,0,0,0.0,0.0,0.0,0.0,0,0,0.0,0,0.0,-1,0.0,0.0,0,0.0,0.0938
5671,0,0.0945,,-0.02,0.03,-0.04,-0,0,0,0.05,0.06,84,,,,,,,,,,,,,,,,,,,,,,,,,,,,,,,,,,,,,,,,,,,,,,,,,,,,,,,,,,,,,,,,,,,,,,,,,,,,,,,,,,,,,,,,,,,,,,,,,,,,,,,,,,,,,,,,,,,
5711,0,0.0952,,-0.02,0.03,-0.04,-0,0,0,0.05,0.06,84,,,,,,,,,,,,,,,,,,,,,,,,,,,,,,,,,,,,,,,,,,,,,,,,,,,,,,,,,,,,,,,,,,,,,,,,,,,,,,,,,,,,,,,,,,,,,,,,,,,,,,,,,,,,,,,,,,,
5731,0,0.0955,,,,,,,,,,,0,0,0,0,32,0,0,1,0,0,0,0,0,9,7,1,12,0,0,74,0,0,138,10,10,0,83,0,0,0,2,1,1,0,53,52,51,0,0,0,0,0,0,0,1,1,0,0,51,51,50,0,0,0,0,0,0,0,0,0,0,0,0,0,0,1,1,0,0,51,51,50,0,0,0,0,0,0,0,0,0,0,0,0,0,0,0,0,0,0,0,0,0,0,0,0,0,0,0,0,0.0,0.0,0.0,0.0,0,0,0.0,0,0.0,-1,0.0,,0,0.0,0.0955
5751,0,0.0958,,-0.02,0.03,-0.04,-0,0,0,0.05,0.06,84,,,,,,,,,,,,,,,,,,,,,,,,,,,,,,,,,,,,,,,,,,,,,,,,,,,,,,,,,,,,,,,,,,,,,,,,,,,,,,,,,,,,,,,,,,,,,,,,,,,,,,,,,,,,,,,,,,,
5791,0,0.0965,,-0.02,0.03,-0.04,-0,1,0,0.05,0.06,84,,,,,,,,,,,,,,,,,,,,,,,,,,,,,,,,,,,,,,,,,,,,,,,,,,,,,,,,,,,,,,,,,,,,,,,,,,,,,,,,,,,,,,,,,,,,,,,,,,,,,,,,,,,,,,,,,,,
5831,0,0.0972,,-0.02,0.03,-0.04,-0,0,0,0.05,0.06,85,0,0,0,0,32,0,0,1,0,0,0,0,0,9,7,1,12,0,0,74,0,0,138,10,10,0,82,0,0,0,2,1,1,0,53,52,51,0,0,0,0,0,0,0,1,1,0,0,51,51,50,0,0,0,0,0,0,0,0,0,0,0,0,0,0,1,1,0,0,51,51,50,0,0,0,0,0,0,0,0,0,0,0,0,0,0,0,0,0,0,0,0,0,0,0,0,0,0,0,0,0.0,0.0,0.0,0.0,0,0,0.0,0,0.0,-1,0.0,0.0,0,0.0,0.0972
5871,0,0.0978,,-0.02,0.03,-0.04,-0,1,0,0.05,0.06,85,,,,,,,,,,,,,,,,,,,,,,,,,,,,,,,,,,,,,,,,,,,,,,,,,,,,,,,,,,,,,,,,,,,,,,,,,,,,,,,,,,,,,,,,,,,,,,,,,,,,,,,,,,,,,,,,,,,
5911,0,0.0985,,-0.02,0.03,-0.04,-0,1,0,0.05,0.06,85,,,,,,,,,,,,,,,,,,,,,,,,,,,,,,,,,,,,,,,,,,,,,,,,,,,,,,,,,,,,,,,,,,,,,,,,,,,,,,,,,,,,,,,,,,,,,,,,,,,,,,,,,,,,,,,,,,,
5931,0,0.0988,,,,,,,,,,,0,0,0,0,32,0,0,1,0,0,0,0,0,9,7,1,12,0,0,74,0,0,138,10,10,0,82,0,0,0,2,1,1,0,53,52,51,0,0,0,0,0,0,0,1,1,0,0,51,51,50,0,0,0,0,0,0,0,0,0,0,0,0,0,0,1,1,0,0,51,51,50,0,0,0,0,0,0,0,0,0,0,0,0,0,0,0,0,0,0,0,0,0,0,0,0,0,0,0,0,0.0,0.0,0.0,0.0,0,0,0.0,0,0.0,-1,0.0,,0,0.0,0.0988
5951,0,0.0992,,-0.02,0.03,-0.04,-0,1,0,0.05,0.06,85,,,,,,,,,,,,,,,,,,,,,,,,,,,,,,,,,,,,,,,,,,,,,,,,,,,,,,,,,,,,,,,,,,,,,,,,,,,,,,,,,,,,,,,,,,,,,,,,,,,,,,,,,,,,,,,,,,,
5991,0,0.0998,,-0.02,0.03,-0.04,-0,1,0,0.05,0.06,84,,,,,,,,,,,,,,,,,,,,,,,,,,,,,,,,,,,,,,,,,,,,,,,,,,,,,,,,,,,,,,,,,,,,,,,,,,,,,,,,,,,,,,,,,,,,,,,,,,,,,,,,,,,,,,,,,,,
6031,0,0.1005,,-0.02,0.03,-0.04,-0,1,0,0.05,0.06,84,0,0,0,0,32,0,0,1,0,0,0,0,0,9,7,1,12,0,0,74,0,0,138,10,10,0,86,0,0,0,2,1,1,0,53,52,51,0,0,0,0,0,0,0,1,1,0,0,51,51,50,0,0,0,0,0,0,0,0,0,0,0,0,0,0,1,1,0,0,51,51,50,0,0,0,0,0,0,0,0,0,0,0,0,0,0,0,0,0,0,0,0,0,0,0,0,0,0,0,0,0.0,0.0,0.0,0.0,0,0,0.0,0,0.0,-1,0.0,0.0,0,0.0,0.1005
6071,0,0.1012,,-0.02,0.03,-0.04,-0,1,0,0.05,0.06,84,,,,,,,,,,,,,,,,,,,,,,,,,,,,,,,,,,,,,,,,,,,,,,,,,,,,,,,,,,,,,,,,,,,,,,,,,,,,,,,,,,,,,,,,,,,,,,,,,,,,,,,,,,,,,,,,,,,
6111,0,0.1018,,-0.02,0.03,-0.04,-0,1,0,0.05,0.06,85,,,,,,,,,,,,,,,,,,,,,,,,,,,,,,,,,,,,,,,,,,,,,,,,,,,,,,,,,,,,,,,,,,,,,,,,,,,,,,,,,,,,,,,,,,,,,,,,,,,,,,,,,,,,,,,,,,,
6131,0,0.1022,,,,,,,,,,,0,0,0,0,32,0,0,1,0,0,0,0,0,9,7,1,12,0,0,74,0,0,138,10,10,0,85,0,0,0,2,1,1,0,53,52,51,0,0,0,0,0,0,0,1,1,0,0,51,51,50,0,0,0,0,0,0,0,0,0,0,0,0,0,0,1,1,0,0,51,51,50,0,0,0,0,0,0,0,0,0,0,0,0,0,0,0,0,0,0,0,0,0,0,0,0,0,0,0,0,0.0,0.0,0.0,0.0,0,0,0.0,0,0.0,-1,0.0,,0,0.0,0.1022
6151,0,0.1025,,-0.02,0.03,-0.04,-0,1,0,0.05,0.06,83,,,,,,,,,,,,,,,,,,,,,,,,,,,,,,,,,,,,,,,,,,,,,,,,,,,,,,,,,,,,,,,,,,,,,,,,,,,,,,,,,,,,,,,,,,,,,,,,,,,,,,,,,,,,,,,,,,,
6191,0,0.1032,,-0.02,0.03,-0.04,-0,1,0,0.05,0.06,83,,,,,,,,,,,,,,,,,,,,,,,,,,,,,,,,,,,,,,,,,,,,,,,,,,,,,,,,,,,,,,,,,,,,,,,,,,,,,,,,,,,,,,,,,,,,,,,,,,,,,,,,,,,,,,,,,,,
6231,0,0.1038,,-0.02,0.03,-0.03,-0,0,0,0.05,0.06,83,0,0,0,0,32,0,0,1,0,0,0,0,0,9,7,1,12,0,0,74,0,0,138,10,10,0,85,0,0,0,2,1,1,0,53,52,51,0,0,0,0,0,0,0,0,4,4,4,0,390,389,0,0,0,0,0,0,0,0,0,0,0,0,0,0,1,1,0,0,51,51,50,0,0,0,0,0,0,0,0,0,0,0,0,0,0,0,0,0,0,0,0,0,0,0,0,0,0,0,0,0.0,0.0,0.0,0.0,0,0,0.0,0,0.0,-1,0.0,0.0,0,0.0,0.1038
6271,0,0.1045,,-0.02,0.03,-0.04,-0,0,0,0.05,0.06,84,,,,,,,,,,,,,,,,,,,,,,,,,,,,,,,,,,,,,,,,,,,,,,,,,,,,,,,,,,,,,,,,,,,,,,,,,,,,,,,,,,,,,,,,,,,,,,,,,,,,,,,,,,,,,,,,,,,
6311,0,0.1052,,-0.02,0.03,-0.04,-0,0,0,0.05,0.06,84,,,,,,,,,,,,,,,,,,,,,,,,,,,,,,,,,,,,,,,,,,,,,,,,,,,,,,,,,,,,,,,,,,,,,,,,,,,,,,,,,,,,,,,,,,,,,,,,,,,,,,,,,,,,,,,,,,,
6331,0,0.1055,,,,,,,,,,,0,0,0,0,32,0,0,1,0,0,0,0,0,9,7,1,12,0,0,74,0,0,138,11,11,0,83,0,0,0,2,1,1,0,53,52,51,0,0,0,0,0,0,0,0,4,4,4,0,390,389,0,0,0,0,0,0,0,0,0,0,0,0,0,0,1,1,0,0,51,51,50,0,0,0,0,0,0,0,0,0,0,0,0,0,0,0,0,0,0,0,0,0,0,0,0,0,0,0,0,0.0,0.0,0.0,0.0,0,0,0.0,0,0.0,-1,0.0,,0,0.0,0.1055
6351,0,0.1058,,-0.02,0.03,-0.04,-0,0,0,0.05,0.06,85,,,,,,,,,,,,,,,,,,,,,,,,,,,,,,,,,,,,,,,,,,,,,,,,,,,,,,,,,,,,,,,,,,,,,,,,,,,,,,,,,,,,,,,,,,,,,,,,,,,,,,,,,,,,,,,,,,,
6391,0,0.1065,,-0.02,0.03,-0.03,-0,0,0,0.05,0.06,84,,,,,,,,,,,,,,,,,,,,,,,,,,,,,,,,,,,,,,,,,,,,,,,,,,,,,,,,,,,,,,,,,,,,,,,,,,,,,,,,,,,,,,,,,,,,,,,,,,,,,,,,,,,,,,,,,,,
6431,0,0.1072,12.4,-0.02,0.03,-0.04,-0,0,0,0.05,0.06,84,0,0,0,0,32,0,0,1,0,0,0,0,0,9,7,1,12,0,0,74,0,0,138,11,11,0,85,0,0,0,2,1,1,0,53,52,51,0,0,0,0,0,0,0,0,4,4,4,0,390,389,0,0,0,0,0,0,0,0,0,0,0,0,0,0,1,1,0,0,51,51,50,0,0,0,0,0,0,0,0,0,0,0,0,0,0,0,0,0,0,0,0,0,0,0,0,0,0,0,0,0.0,0.0,0.0,0.0,0,0,0.0,0,0.0,-1,0.0,0.0,0,0.0,0.1072
6471,0,0.1078,,-0.02,0.03,-0.04,-0,0,0,0.05,0.06,85,,,,,,,,,,,,,,,,,,,,,,,,,,,,,,,,,,,,,,,,,,,,,,,,,,,,,,,,,,,,,,,,,,,,,,,,,,,,,,,,,,,,,,,,,,,,,,,,,,,,,,,,,,,,,,,,,,,
6511,0,0.1085,,-0.02,0.03,-0.04,-0,0,0,0.05,0.06,85,,,,,,,,,,,,,,,,,,,,,,,,,,,,,,,,,,,,,,,,,,,,,,,,,,,,,,,,,,,,,,,,,,,,,,,,,,,,,,,,,,,,,,,,,,,,,,,,,,,,,,,,,,,,,,,,,,,
6531,0,0.1088,,,,,,,,,,,0,0,0,0,32,0,0,1,0,0,0,0,0,9,7,1,12,0,0,74,0,0,138,11,11,0,82,0,0,0,2,1,1,0,53,52,51,0,0,0,0,0,0,0,0,4,4,4,0,390,389,0,0,0,0,0,0,0,0,0,0,0,0,0,0,1,1,0,0,51,51,50,0,0,0,0,0,0,0,0,0,0,0,0,0,0,0,0,0,0,0,0,0,0,0,0,0,0,0,0,0.0,0.0,0.0,0.0,0,0,0.0,0,0.0,-1,0.0,,0,0.0,0.1088
6551,0,0.1092,,-0.02,0.03,-0.04,-0,0,0,0.05,0.06,86,,,,,,,,,,,,,,,,,,,,,,,,,,,,,,,,,,,,,,,,,,,,,,,,,,,,,,,,,,,,,,,,,,,,,,,,,,,,,,,,,,,,,,,,,,,,,,,,,,,,,,,,,,,,,,,,,,,
6591,0,0.1098,,-0.02,0.03,-0.04,-0,0,0,0.05,0.06,84,,,,,,,,,,,,,,,,,,,,,,,,,,,,,,,,,,,,,,,,,,,,,,,,,,,,,,,,,,,,,,,,,,,,,,,,,,,,,,,,,,,,,,,,,,,,,,,,,,,,,,,,,,,,,,,,,,,
6631,0,0.1105,,-0.02,0.03,-0.04,-0,0,0,0.05,0.06,86,0,0,0,0,32,0,0,1,0,0,0,0,0,9,7,1,12,0,0,74,0,0,138,11,11,0,82,0,0,0,2,1,1,0,53,52,51,0,0,0,0,0,0,0,0,4,4,4,0,390,389,0,0,0,0,0,0,0,0,0,0,0,0,0,0,1,1,0,0,51,51,50,0,0,0,0,0,0,0,0,0,0,0,0,0,0,0,0,0,0,0,0,0,0,0,0,0,0,0,0,0.0,0.0,0.0,0.0,0,0,0.0,0,0.0,-1,0.0,0.0,0,0.0,0.1105
6671,0,0.1112,,-0.02,0.03,-0.04,-0,0,0,0.05,0.06,85,,,,,,,,,,,,,,,,,,,,,,,,,,,,,,,,,,,,,,,,,,,,,,,,,,,,,,,,,,,,,,,,,,,,,,,,,,,,,,,,,,,,,,,,,,,,,,,,,,,,,,,,,,,,,,,,,,,
6711,0,0.1118,,-0.02,0.03,-0.04,-0,0,0,0.05,0.06,84,,,,,,,,,,,,,,,,,,,,,,,,,,,,,,,,,,,,,,,,,,,,,,,,,,,,,,,,,,,,,,,,,,,,,,,,,,,,,,,,,,,,,,,,,,,,,,,,,,,,,,,,,,,,,,,,,,,
6731,0,0.1122,,,,,,,,,,,0,0,0,0,32,0,0,1,0,0,0,0,0,9,7,1,12,0,0,74,0,0,138,11,11,0,82,0,0,0,2,1,1,0,53,52,51,0,0,0,0,0,0,0,0,4,4,4,0,390,389,0,0,0,0,0,0,0,0,0,0,0,0,0,0,1,1,0,0,51,51,50,0,0,0,0,0,0,0,0,0,0,0,0,0,0,0,0,0,0,0,0,0,0,0,0,0,0,0,0,0.0,0.0,0.0,0.0,0,0,0.0,0,0.0,-1,0.0,,0,0.0,0.1122
6751,0,0.1125,,-0.02,0.03,-0.04,-0,0,0,0.05,0.06,84,,,,,,,,,,,,,,,,,,,,,,,,,,,,,,,,,,,,,,,,,,,,,,,,,,,,,,,,,,,,,,,,,,,,,,,,,,,,,,,,,,,,,,,,,,,,,,,,,,,,,,,,,,,,,,,,,,,
6791,0,0.1132,,-0.02,0.03,-0.04,-0,0,0,0.05,0.06,84,,,,,,,,,,,,,,,,,,,,,,,,,,,,,,,,,,,,,,,,,,,,,,,,,,,,,,,,,,,,,,,,,,,,,,,,,,,,,,,,,,,,,,,,,,,,,,,,,,,,,,,,,,,,,,,,,,,
6831,0,0.1138,,-0.02,0.03,-0.03,-0,0,0,0.05,0.06,82,0,0,0,0,32,0,0,1,0,0,0,0,0,9,7,1,12,0,0,74,0,0,138,11,11,0,80,0,0,0,2,1,1,0,53,52,51,0,0,0,0,0,0,0,0,4,4,4,0,390,389,0,0,0,0,0,0,0,0,0,0,0,0,0,0,1,1,0,0,51,51,50,0,0,0,0,0,0,0,0,0,0,0,0,0,0,0,0,0,0,0,0,0,0,0,0,0,0,0,0,0.0,0.0,0.0,0.0,0,0,0.0,0,0.0,-1,0.0,0.0,0,0.0,0.1138
6871,0,0.1145,,-0.02,0.03,-0.03,-0,0,0,0.05,0.06,81,,,,,,,,,,,,,,,,,,,,,,,,,,,,,,,,,,,,,,,,,,,,,,,,,,,,,,,,,,,,,,,,,,,,,,,,,,,,,,,,,,,,,,,,,,,,,,,,,,,,,,,,,,,,,,,,,,,
6911,0,0.1152,,-0.02,0.03,-0.03,-0,1,0,0.05,0.06,80,,,,,,,,,,,,,,,,,,,,,,,,,,,,,,,,,,,,,,,,,,,,,,,,,,,,,,,,,,,,,,,,,,,,,,,,,,,,,,,,,,,,,,,,,,,,,,,,,,,,,,,,,,,,,,,,,,,
6931,0,0.1155,,,,,,,,,,,0,0,0,0,32,0,0,1,0,0,0,0,0,9,7,1,12,0,0,74,0,0,138,11,11,0,83,0,0,0,2,1,1,0,53,52,51,0,0,0,0,0,0,0,0,4,4,4,0,390,389,0,0,0,0,0,0,0,0,0,0,0,0,0,0,1,1,0,0,51,51,50,0,0,0,0,0,0,0,0,0,0,0,0,0,0,0,0,0,0,0,0,0,0,0,0,0,0,0,0,0.0,0.0,0.0,0.0,0,0,0.0,0,0.0,-1,0.0,,0,0.0,0.1155
6951,0,0.1158,,-0.02,0.03,-0.03,-0,1,0,0.05,0.06,82,,,,,,,,,,,,,,,,,,,,,,,,,,,,,,,,,,,,,,,,,,,,,,,,,,,,,,,,,,,,,,,,,,,,,,,,,,,,,,,,,,,,,,,,,,,,,,,,,,,,,,,,,,,,,,,,,,,
6991,0,0.1165,,-0.02,0.03,-0.03,-0,1,0,0.05,0.06,81,,,,,,,,,,,,,,,,,,,,,,,,,,,,,,,,,,,,,,,,,,,,,,,,,,,,,,,,,,,,,,,,,,,,,,,,,,,,,,,,,,,,,,,,,,,,,,,,,,,,,,,,,,,,,,,,,,,
7031,0,0.1172,,-0.02,0.03,-0.03,-0,1,0,0.05,0.06,81,0,0,0,0,32,0,0,1,0,0,0,0,0,9,7,1,12,0,0,74,0,0,138,11,11,0,79,0,0,0,2,1,1,0,53,52,51,0,0,0,0,0,0,0,0,4,4,4,0,390,389,0,0,0,0,0,0,0,0,0,0,0,0,0,0,1,1,0,0,51,51,50,0,0,0,0,0,0,0,0,0,0,0,0,0,0,0,0,0,0,0,0,0,0,0,0,0,0,0,0,0.0,0.0,0.0,0.0,0,0,0.0,0,0.0,-1,0.0,0.0,0,0.0,0.1172
7071,0,0.1178,,-0.02,0.03,-0.03,-0,1,0,0.05,0.06,83,,,,,,,,,,,,,,,,,,,,,,,,,,,,,,,,,,,,,,,,,,,,,,,,,,,,,,,,,,,,,,,,,,,,,,,,,,,,,,,,,,,,,,,,,,,,,,,,,,,,,,,,,,,,,,,,,,,
7111,0,0.1185,,-0.02,0.03,-0.04,-0,1,0,0.05,0.06,84,,,,,,,,,,,,,,,,,,,,,,,,,,,,,,,,,,,,,,,,,,,,,,,,,,,,,,,,,,,,,,,,,,,,,,,,,,,,,,,,,,,,,,,,,,,,,,,,,,,,,,,,,,,,,,,,,,,
7131,0,0.1188,,,,,,,,,,,0,0,0,0,32,0,0,1,0,0,0,0,0,9,7,1,12,0,0,74,0,0,138,11,11,0,80,0,0,0,2,1,1,0,53,52,51,0,0,0,0,0,0,0,0,4,4,4,0,390,389,0,0,0,0,0,0,0,0,0,0,0,0,0,0,1,1,0,0,51,51,50,0,0,0,0,0,0,0,0,0,0,0,0,0,0,0,0,0,0,0,0,0,0,0,0,0,0,0,0,0.0,0.0,0.0,0.0,0,0,0.0,0,0.0,-1,0.0,,0,0.0,0.1188
7151,0,0.1192,,-0.02,0.03,-0.04,-0,1,0,0.05,0.06,84,,,,,,,,,,,,,,,,,,,,,,,,,,,,,,,,,,,,,,,,,,,,,,,,,,,,,,,,,,,,,,,,,,,,,,,,,,,,,,,,,,,,,,,,,,,,,,,,,,,,,,,,,,,,,,,,,,,
7191,0,0.1198,,-0.02,0.03,-0.04,-0,1,0,0.05,0.06,85,,,,,,,,,,,,,,,,,,,,,,,,,,,,,,,,,,,,,,,,,,,,,,,,,,,,,,,,,,,,,,,,,,,,,,,,,,,,,,,,,,,,,,,,,,,,,,,,,,,,,,,,,,,,,,,,,,,
7231,0,0.1205,,-0.02,0.03,-0.04,-0,1,0,0.05,0.06,86,0,0,0,0,32,0,0,1,0,0,0,0,0,9,7,1,12,0,0,74,0,0,138,12,12,0,82,0,0,0,2,1,1,0,53,52,51,0,0,0,0,0,0,0,1,1,0,0,51,51,50,0,0,0,0,0,0,0,0,0,0,0,0,0,0,1,1,0,0,51,51,50,0,0,0,0,0,0,0,0,0,0,0,0,0,0,0,0,0,0,0,0,0,0,0,0,0,0,0,0,0.0,0.0,0.0,0.0,0,0,0.0,0,0.0,-1,0.0,0.0,0,0.0,0.1205
7271,0,0.1212,,-0.02,0.03,-0.04,-0,1,0,0.05,0.06,86,,,,,,,,,,,,,,,,,,,,,,,,,,,,,,,,,,,,,,,,,,,,,,,,,,,,,,,,,,,,,,,,,,,,,,,,,,,,,,,,,,,,,,,,,,,,,,,,,,,,,,,,,,,,,,,,,,,
7311,0,0.1218,,-0.02,0.03,-0.04,-0,1,0,0.05,0.06,86,,,,,,,,,,,,,,,,,,,,,,,,,,,,,,,,,,,,,,,,,,,,,,,,,,,,,,,,,,,,,,,,,,,,,,,,,,,,,,,,,,,,,,,,,,,,,,,,,,,,,,,,,,,,,,,,,,,
7331,0,0.1222,,,,,,,,,,,0,0,0,0,32,0,0,1,0,0,0,0,0,9,7,1,12,0,0,74,0,0,138,12,12,0,83,0,0,0,2,1,1,0,53,52,51,0,0,0,0,0,0,0,1,1,0,0,51,51,50,0,0,0,0,0,0,0,0,0,0,0,0,0,0,1,1,0,0,51,51,50,0,0,0,0,0,0,0,0,0,0,0,0,0,0,0,0,0,0,0,0,0,0,0,0,0,0,0,0,0.0,0.0,0.0,0.0,0,0,0.0,0,0.0,-1,0.0,,0,0.0,0.1222
7351,0,0.1225,,-0.02,0.03,-0.04,-0,1,0,0.05,0.06,86,,,,,,,,,,,,,,,,,,,,,,,,,,,,,,,,,,,,,,,,,,,,,,,,,,,,,,,,,,,,,,,,,,,,,,,,,,,,,,,,,,,,,,,,,,,,,,,,,,,,,,,,,,,,,,,,,,,
7391,0,0.1232,,-0.02,0.03,-0.04,-0,1,0,0.05,0.06,86,,,,,,,,,,,,,,,,,,,,,,,,,,,,,,,,,,,,,,,,,,,,,,,,,,,,,,,,,,,,,,,,,,,,,,,,,,,,,,,,,,,,,,,,,,,,,,,,,,,,,,,,,,,,,,,,,,,
7431,0,0.1238,12.4,-0.02,0.03,-0.04,-0,1,0,0.05,0.06,85,0,0,0,0,32,0,0,1,0,0,0,0,0,9,7,1,12,0,0,74,0,0,138,12,12,0,80,0,0,0,2,1,1,0,53,52,51,0,0,0,0,0,0,0,1,1,0,0,51,51,50,0,0,0,0,0,0,0,0,0,0,0,0,0,0,1,1,0,0,51,51,50,0,0,0,0,0,0,0,0,0,0,0,0,0,0,0,0,0,0,0,0,0,0,0,0,0,0,0,0,0.0,0.0,0.0,0.0,0,0,0.0,0,0.0,-1,0.0,0.0,0,0.0,0.1238
7471,0,0.1245,,-0.02,0.03,-0.04,-0,1,0,0.05,0.06,85,,,,,,,,,,,,,,,,,,,,,,,,,,,,,,,,,,,,,,,,,,,,,,,,,,,,,,,,,,,,,,,,,,,,,,,,,,,,,,,,,,,,,,,,,,,,,,,,,,,,,,,,,,,,,,,,,,,
7511,0,0.1252,,-0.02,0.03,-0.04,-0,1,0,0.05,0.06,84,,,,,,,,,,,,,,,,,,,,,,,,,,,,,,,,,,,,,,,,,,,,,,,,,,,,,,,,,,,,,,,,,,,,,,,,,,,,,,,,,,,,,,,,,,,,,,,,,,,,,,,,,,,,,,,,,,,
7531,0,0.1255,,,,,,,,,,,0,0,0,0,32,0,0,1,0,0,0,0,0,9,7,1,12,0,0,74,0,0,138,12,12,0,85,0,0,0,2,1,1,0,53,52,51,0,0,0,0,0,0,0,1,1,0,0,51,51,50,0,0,0,0,0,0,0,0,0,0,0,0,0,0,0,4,4,4,1,392,392,0,0,0,0,0,0,0,0,0,0,0,0,0,0,0,0,0,0,0,0,0,0,0,0,0,0,0,0,0.0,0.0,0.0,0.0,0,0,0.0,0,0.0,-1,0.0,,0,0.0,0.1255
7551,0,0.1259,,-0.02,0.03,-0.04,-0,1,0,0.05,0.06,84,,,,,,,,,,,,,,,,,,,,,,,,,,,,,,,,,,,,,,,,,,,,,,,,,,,,,,,,,,,,,,,,,,,,,,,,,,,,,,,,,,,,,,,,,,,,,,,,,,,,,,,,,,,,,,,,,,,
7591,0,0.1265,,-0.02,0.03,-0.04,-0,1,0,0.05,0.06,84,,,,,,,,,,,,,,,,,,,,,,,,,,,,,,,,,,,,,,,,,,,,,,,,,,,,,,,,,,,,,,,,,,,,,,,,,,,,,,,,,,,,,,,,,,,,,,,,,,,,,,,,,,,,,,,,,,,
7631,0,0.1272,,-0.02,0.03,-0.04,-0,1,0,0.05,0.06,84,0,0,0,0,32,0,0,1,0,0,0,0,0,9,7,1,12,0,0,74,0,0,138,12,12,0,83,0,0,0,2,1,1,0,53,52,51,0,0,0,0,0,0,0,1,1,0,0,51,51,50,0,0,0,0,0,0,0,0,0,0,0,0,0,0,0,4,4,4,1,392,392,0,0,0,0,0,0,0,0,0,0,0,0,0,0,0,0,0,0,0,0,0,0,0,0,0,0,0,0,0.0,0.0,0.0,0.0,0,0,0.0,0,0.0,-1,0.0,0.0,0,0.0,0.1272
7671,0,0.1278,,-0.02,0.03,-0.04,-0,1,0,0.05,0.06,85,,,,,,,,,,,,,,,,,,,,,,,,,,,,,,,,,,,,,,,,,,,,,,,,,,,,,,,,,,,,,,,,,,,,,,,,,,,,,,,,,,,,,,,,,,,,,,,,,,,,,,,,,,,,,,,,,,,
7711,0,0.1285,,-0.02,0.03,-0.04,-0,1,0,0.05,0.06,83,,,,,,,,,,,,,,,,,,,,,,,,,,,,,,,,,,,,,,,,,,,,,,,,,,,,,,,,,,,,,,,,,,,,,,,,,,,,,,,,,,,,,,,,,,,,,,,,,,,,,,,,,,,,,,,,,,,
7731,0,0.1288,,,,,,,,,,,0,0,0,0,32,0,0,1,0,0,0,0,0,9,7,1,12,0,0,74,0,0,138,12,12,0,83,0,0,0,2,1,1,0,53,52,51,0,0,0,0,0,0,0,1,1,0,0,51,51,50,0,0,0,0,0,0,0,0,0,0,0,0,0,0,0,4,4,4,1,392,392,0,0,0,0,0,0,0,0,0,0,0,0,0,0,0,0,0,0,0,0,0,0,0,0,0,0,0,0,0.0,0.0,0.0,0.0,0,0,0.0,0,0.0,-1,0.0,,0,0.0,0.1288
7751,0,0.1292,,-0.02,0.03,-0.04,-0,0,0,0.05,0.06,83,,,,,,,,,,,,,,,,,,,,,,,,,,,,,,,,,,,,,,,,,,,,,,,,,,,,,,,,,,,,,,,,,,,,,,,,,,,,,,,,,,,,,,,,,,,,,,,,,,,,,,,,,,,,,,,,,,,
7791,0,0.1298,,-0.02,0.03,-0.04,-0,0,0,0.05,0.06,84,,,,,,,,,,,,,,,,,,,,,,,,,,,,,,,,,,,,,,,,,,,,,,,,,,,,,,,,,,,,,,,,,,,,,,,,,,,,,,,,,,,,,,,,,,,,,,,,,,,,,,,,,,,,,,,,,,,
7831,0,0.1305,,-0.02,0.03,-0.04,-0,1,0,0.05,0.06,84,0,0,0,0,32,0,0,1,0,0,0,0,0,9,7,1,12,0,0,75,0,0,138,12,12,0,83,0,0,0,2,1,1,0,53,52,51,0,0,0,0,0,0,0,1,1,0,0,51,51,50,0,0,0,0,0,0,0,0,0,0,0,0,0,0,0,4,4,4,1,392,392,0,0,0,0,0,0,0,0,0,0,0,0,0,0,0,0,0,0,0,0,0,0,0,0,0,0,0,0,0.0,0.0,0.0,0.0,0,0,0.0,0,0.0,-1,0.0,0.0,0,0.0,0.1305
7871,0,0.1312,,-0.02,0.03,-0.04,-0,1,0,0.05,0.06,84,,,,,,,,,,,,,,,,,,,,,,,,,,,,,,,,,,,,,,,,,,,,,,,,,,,,,,,,,,,,,,,,,,,,,,,,,,,,,,,,,,,,,,,,,,,,,,,,,,,,,,,,,,,,,,,,,,,
7911,0,0.1318,,-0.02,0.03,-0.04,-0,1,0,0.05,0.06,84,,,,,,,,,,,,,,,,,,,,,,,,,,,,,,,,,,,,,,,,,,,,,,,,,,,,,,,,,,,,,,,,,,,,,,,,,,,,,,,,,,,,,,,,,,,,,,,,,,,,,,,,,,,,,,,,,,,
7931,0,0.1322,,,,,,,,,,,0,0,0,0,32,0,0,1,0,0,0,0,0,9,7,1,12,0,0,75,0,0,138,12,12,0,83,0,0,0,2,1,1,0,53,52,51,0,0,0,0,0,0,0,1,1,0,0,51,51,50,0,0,0,0,0,0,0,0,0,0,0,0,0,0,0,4,4,4,1,392,392,0,0,0,0,0,0,0,0,0,0,0,0,0,0,0,0,0,0,0,0,0,0,0,0,0,0,0,0,0.0,0.0,0.0,0.0,0,0,0.0,0,0.0,-1,0.0,,0,0.0,0.1322
7951,0,0.1325,,-0.02,0.03,-0.04,-0,1,0,0.05,0.06,85,,,,,,,,,,,,,,,,,,,,,,,,,,,,,,,,,,,,,,,,,,,,,,,,,,,,,,,,,,,,,,,,,,,,,,,,,,,,,,,,,,,,,,,,,,,,,,,,,,,,,,,,,,,,,,,,,,,
7991,0,0.1332,,-0.02,0.03,-0.04,-0,1,0,0.05,0.06,85,,,,,,,,,,,,,,,,,,,,,,,,,,,,,,,,,,,,,,,,,,,,,,,,,,,,,,,,,,,,,,,,,,,,,,,,,,,,,,,,,,,,,,,,,,,,,,,,,,,,,,,,,,,,,,,,,,,
8031,0,0.1338,,-0.02,0.03,-0.04,-0,1,0,0.05,0.06,85,0,0,0,0,32,0,0,1,0,0,0,0,0,9,7,1,12,0,0,75,0,0,138,12,12,0,85,0,0,0,2,1,1,0,53,52,51,0,0,0,0,0,0,0,1,1,0,0,51,51,50,0,0,0,0,0,0,0,0,0,0,0,0,0,0,0,4,4,4,1,392,392,0,0,0,0,0,0,0,0,0,0,0,0,0,0,0,0,0,0,0,0,0,0,0,0,0,0,0,0,0.0,0.0,0.0,0.0,0,0,0.0,0,0.0,-1,0.0,0.0,0,0.0,0.1338
8071,0,0.1345,,-0.02,0.03,-0.04,-0,1,0,0.05,0.06,84,,,,,,,,,,,,,,,,,,,,,,,,,,,,,,,,,,,,,,,,,,,,,,,,,,,,,,,,,,,,,,,,,,,,,,,,,,,,,,,,,,,,,,,,,,,,,,,,,,,,,,,,,,,,,,,,,,,
8111,0,0.1352,,-0.02,0.03,-0.04,-0,1,0,0.05,0.06,84,,,,,,,,,,,,,,,,,,,,,,,,,,,,,,,,,,,,,,,,,,,,,,,,,,,,,,,,,,,,,,,,,,,,,,,,,,,,,,,,,,,,,,,,,,,,,,,,,,,,,,,,,,,,,,,,,,,
8131,0,0.1355,,,,,,,,,,,0,0,0,0,32,0,0,1,0,0,0,0,0,9,7,1,12,0,0,75,0,0,138,12,12,0,82,0,0,0,2,1,1,0,53,52,51,0,0,0,0,0,0,0,1,1,0,0,51,51,50,0,0,0,0,0,0,0,0,0,0,0,0,0,0,0,4,4,4,1,392,392,0,0,0,0,0,0,0,0,0,0,0,0,0,0,0,0,0,0,0,0,0,0,0,0,0,0,0,0,0.0,0.0,0.0,0.0,0,0,0.0,0,0.0,-1,0.0,,0,0.0,0.1355
8151,0,0.1358,,-0.02,0.03,-0.03,-0,1,0,0.05,0.06,82,,,,,,,,,,,,,,,,,,,,,,,,,,,,,,,,,,,,,,,,,,,,,,,,,,,,,,,,,,,,,,,,,,,,,,,,,,,,,,,,,,,,,,,,,,,,,,,,,,,,,,,,,,,,,,,,,,,
8191,0,0.1365,,-0.02,0.03,-0.03,-0,1,0,0.05,0.06,82,,,,,,,,,,,,,,,,,,,,,,,,,,,,,,,,,,,,,,,,,,,,,,,,,,,,,,,,,,,,,,,,,,,,,,,,,,,,,,,,,,,,,,,,,,,,,,,,,,,,,,,,,,,,,,,,,,,
8231,0,0.1372,,-0.02,0.03,-0.03,-0,1,0,0.05,0.06,81,0,0,0,0,32,0,0,1,0,0,0,0,0,9,7,1,12,0,0,75,0,0,138,12,12,0,85,0,0,0,2,1,1,0,53,52,51,0,0,0,0,0,0,0,1,1,0,0,51,51,50,0,0,0,0,0,0,0,0,0,0,0,0,0,0,0,4,4,4,1,392,392,0,0,0,0,0,0,0,0,0,0,0,0,0,0,0,0,0,0,0,0,0,0,0,0,0,0,0,0,0.0,0.0,0.0,0.0,0,0,0.0,0,0.0,-1,0.0,0.0,0,0.0,0.1372
8271,0,0.1378,,-0.02,0.03,-0.03,-0,1,0,0.05,0.06,82,,,,,,,,,,,,,,,,,,,,,,,,,,,,,,,,,,,,,,,,,,,,,,,,,,,,,,,,,,,,,,,,,,,,,,,,,,,,,,,,,,,,,,,,,,,,,,,,,,,,,,,,,,,,,,,,,,,
8311,0,0.1385,,-0.02,0.03,-0.03,-0,1,0,0.05,0.06,83,,,,,,,,,,,,,,,,,,,,,,,,,,,,,,,,,,,,,,,,,,,,,,,,,,,,,,,,,,,,,,,,,,,,,,,,,,,,,,,,,,,,,,,,,,,,,,,,,,,,,,,,,,,,,,,,,,,
8331,0,0.1388,,,,,,,,,,,0,0,0,0,32,0,0,1,0,0,0,0,0,9,7,1,12,0,0,75,0,0,138,13,13,0,86,0,0,0,2,1,1,0,53,52,51,0,0,0,0,0,0,0,1,1,0,0,51,51,50,0,0,0,0,0,0,0,0,0,0,0,0,0,0,0,4,4,4,1,392,392,0,0,0,0,0,0,0,0,0,0,0,0,0,0,0,0,0,0,0,0,0,0,0,0,0,0,0,0,0.0,0.0,0.0,0.0,0,0,0.0,0,0.0,-1,0.0,,0,0.0,0.1388
8351,0,0.1392,,-0.02,0.03,-0.03,-0,1,0,0.05,0.06,84,,,,,,,,,,,,,,,,,,,,,,,,,,,,,,,,,,,,,,,,,,,,,,,,,,,,,,,,,,,,,,,,,,,,,,,,,,,,,,,,,,,,,,,,,,,,,,,,,,,,,,,,,,,,,,,,,,,
8391,0,0.1398,,-0.02,0.03,-0.03,-0,1,0,0.05,0.06,83,,,,,,,,,,,,,,,,,,,,,,,,,,,,,,,,,,,,,,,,,,,,,,,,,,,,,,,,,,,,,,,,,,,,,,,,,,,,,,,,,,,,,,,,,,,,,,,,,,,,,,,,,,,,,,,,,,,
8431,0,0.1405,12.38,-0.02,0.03,-0.04,-0,1,0,0.05,0.06,85,0,0,0,0,32,0,0,1,0,0,0,0,0,9,7,1,12,0,0,76,0,0,138,13,13,0,83,0,0,0,2,1,1,0,53,52,51,0,0,0,0,0,0,0,1,1,0,0,51,51,50,0,0,0,0,0,0,0,0,0,0,0,0,0,0,0,4,4,4,1,392,392,0,0,0,0,0,0,0,0,0,0,0,0,0,0,0,0,0,0,0,0,0,0,0,0,0,0,0,0,0.0,0.0,0.0,0.0,0,0,0.0,0,0.0,-1,0.0,0.0,0,0.0,0.1405
8471,0,0.1412,,-0.02,0.03,-0.04,-0,0,0,0.05,0.06,86,,,,,,,,,,,,,,,,,,,,,,,,,,,,,,,,,,,,,,,,,,,,,,,,,,,,,,,,,,,,,,,,,,,,,,,,,,,,,,,,,,,,,,,,,,,,,,,,,,,,,,,,,,,,,,,,,,,
8511,0,0.1418,,-0.02,0.03,-0.04,-0,0,0,0.05,0.06,85,,,,,,,,,,,,,,,,,,,,,,,,,,,,,,,,,,,,,,,,,,,,,,,,,,,,,,,,,,,,,,,,,,,,,,,,,,,,,,,,,,,,,,,,,,,,,,,,,,,,,,,,,,,,,,,,,,,
8531,0,0.1422,,,,,,,,,,,0,0,0,0,32,0,0,1,0,0,0,0,0,9,7,1,12,0,0,77,0,0,138,13,13,0,86,0,0,0,2,1,1,0,53,52,51,0,0,0,0,0,0,0,1,1,0,0,51,51,50,0,0,0,0,0,0,0,0,0,0,0,0,0,0,1,1,0,0,51,51,50,0,0,0,0,0,0,0,0,0,0,0,0,0,0,0,0,0,0,0,0,0,0,0,0,0,0,0,0,0.0,0.0,0.0,0.0,0,0,0.0,0,0.0,-1,0.0,,0,0.0,0.1422
8551,0,0.1425,,-0.02,0.03,-0.04,-0,1,0,0.05,0.06,84,,,,,,,,,,,,,,,,,,,,,,,,,,,,,,,,,,,,,,,,,,,,,,,,,,,,,,,,,,,,,,,,,,,,,,,,,,,,,,,,,,,,,,,,,,,,,,,,,,,,,,,,,,,,,,,,,,,
8591,0,0.1432,,-0.02,0.03,-0.04,-0,1,0,0.05,0.06,84,,,,,,,,,,,,,,,,,,,,,,,,,,,,,,,,,,,,,,,,,,,,,,,,,,,,,,,,,,,,,,,,,,,,,,,,,,,,,,,,,,,,,,,,,,,,,,,,,,,,,,,,,,,,,,,,,,,
8631,0,0.1438,,-0.02,0.03,-0.04,-0,1,0,0.05,0.06,84,0,0,0,0,32,0,0,1,0,0,0,0,0,9,7,1,12,0,0,77,0,0,138,13,13,0,85,0,0,0,2,1,1,0,53,52,51,0,0,0,0,0,0,0,1,1,0,0,51,51,50,0,0,0,0,0,0,0,0,0,0,0,0,0,0,1,1,0,0,51,51,50,0,0,0,0,0,0,0,0,0,0,0,0,0,0,0,0,0,0,0,0,0,0,0,0,0,0,0,0,0.0,0.0,0.0,0.0,0,0,0.0,0,0.0,-1,0.0,0.0,0,0.0,0.1438
8671,0,0.1445,,-0.02,0.03,-0.04,-0,1,0,0.05,0.06,85,,,,,,,,,,,,,,,,,,,,,,,,,,,,,,,,,,,,,,,,,,,,,,,,,,,,,,,,,,,,,,,,,,,,,,,,,,,,,,,,,,,,,,,,,,,,,,,,,,,,,,,,,,,,,,,,,,,
8711,0,0.1452,,-0.02,0.03,-0.04,-0,1,0,0.05,0.06,85,,,,,,,,,,,,,,,,,,,,,,,,,,,,,,,,,,,,,,,,,,,,,,,,,,,,,,,,,,,,,,,,,,,,,,,,,,,,,,,,,,,,,,,,,,,,,,,,,,,,,,,,,,,,,,,,,,,
8731,0,0.1455,,,,,,,,,,,0,0,0,0,32,0,0,1,0,0,0,0,0,9,7,1,12,0,0,77,0,0,138,13,13,0,85,0,0,0,2,1,1,0,53,52,51,0,0,0,0,0,0,0,1,1,0,0,51,51,50,0,0,0,0,0,0,0,0,0,0,0,0,0,0,1,1,0,0,51,51,50,0,0,0,0,0,0,0,0,0,0,0,0,0,0,0,0,0,0,0,0,0,0,0,0,0,0,0,0,0.0,0.0,0.0,0.0,0,0,0.0,0,0.0,-1,0.0,,0,0.0,0.1455
8751,0,0.1458,,-0.02,0.03,-0.04,-0,1,0,0.05,0.06,85,,,,,,,,,,,,,,,,,,,,,,,,,,,,,,,,,,,,,,,,,,,,,,,,,,,,,,,,,,,,,,,,,,,,,,,,,,,,,,,,,,,,,,,,,,,,,,,,,,,,,,,,,,,,,,,,,,,
8791,0,0.1465,,-0.02,0.03,-0.04,-0,1,0,0.05,0.06,85,,,,,,,,,,,,,,,,,,,,,,,,,,,,,,,,,,,,,,,,,,,,,,,,,,,,,,,,,,,,,,,,,,,,,,,,,,,,,,,,,,,,,,,,,,,,,,,,,,,,,,,,,,,,,,,,,,,
8831,0,0.1472,,-0.02,0.03,-0.04,-0,1,0,0.05,0.06,84,0,0,0,0,32,0,0,1,0,0,0,0,0,9,7,1,12,0,0,77,0,0,138,13,13,0,85,0,0,0,2,1,1,0,53,52,51,0,0,0,0,0,0,0,1,1,0,0,51,51,50,0,0,0,0,0,0,0,0,0,0,0,0,0,0,1,1,0,0,51,51,50,0,0,0,0,0,0,0,0,0,0,0,0,0,0,0,0,0,0,0,0,0,0,0,0,0,0,0,0,0.0,0.0,0.0,0.0,0,0,0.0,0,0.0,-1,0.0,0.0,0,0.0,0.1472
8871,0,0.1479,,-0.02,0.03,-0.04,-0,1,0,0.05,0.06,83,,,,,,,,,,,,,,,,,,,,,,,,,,,,,,,,,,,,,,,,,,,,,,,,,,,,,,,,,,,,,,,,,,,,,,,,,,,,,,,,,,,,,,,,,,,,,,,,,,,,,,,,,,,,,,,,,,,
8911,0,0.1485,,-0.02,0.03,-0.03,-0,1,0,0.05,0.06,83,,,,,,,,,,,,,,,,,,,,,,,,,,,,,,,,,,,,,,,,,,,,,,,,,,,,,,,,,,,,,,,,,,,,,,,,,,,,,,,,,,,,,,,,,,,,,,,,,,,,,,,,,,,,,,,,,,,
8931,0,0.1488,,,,,,,,,,,0,0,0,0,32,0,0,1,0,0,0,0,0,9,7,1,12,0,0,77,0,0,138,13,13,0,88,0,0,0,2,1,1,0,53,52,51,0,0,0,0,0,0,0,1,1,0,0,51,51,50,0,0,0,0,0,0,0,0,0,0,0,0,0,0,1,1,0,0,51,51,50,0,0,0,0,0,0,0,0,0,0,0,0,0,0,0,0,0,0,0,0,0,0,0,0,0,0,0,0,0.0,0.0,0.0,0.0,0,0,0.0,0,0.0,-1,0.0,,0,0.0,0.1488
8951,0,0.1492,,-0.02,0.03,-0.04,-0,1,0,0.05,0.06,84,,,,,,,,,,,,,,,,,,,,,,,,,,,,,,,,,,,,,,,,,,,,,,,,,,,,,,,,,,,,,,,,,,,,,,,,,,,,,,,,,,,,,,,,,,,,,,,,,,,,,,,,,,,,,,,,,,,
8991,0,0.1498,,-0.02,0.03,-0.04,-0,0,0,0.05,0.06,83,,,,,,,,,,,,,,,,,,,,,,,,,,,,,,,,,,,,,,,,,,,,,,,,,,,,,,,,,,,,,,,,,,,,,,,,,,,,,,,,,,,,,,,,,,,,,,,,,,,,,,,,,,,,,,,,,,,
9031,0,0.1505,,-0.02,0.03,-0.03,-0,1,0,0.05,0.06,82,0,0,0,0,32,0,0,1,0,0,0,0,0,9,7,1,12,0,0,77,0,0,138,13,13,0,86,0,0,0,2,1,1,0,53,52,51,0,0,0,0,0,0,0,1,1,0,0,51,51,50,0,0,0,0,0,0,0,0,0,0,0,0,0,0,1,1,0,0,51,51,50,0,0,0,0,0,0,0,0,0,0,0,0,0,0,0,0,0,0,0,0,0,0,0,0,0,0,0,0,0.0,0.0,0.0,0.0,0,0,0.0,0,0.0,-1,0.0,0.0,0,0.0,0.1505
9071,0,0.1512,,-0.02,0.03,-0.03,-0,0,0,0.05,0.06,82,,,,,,,,,,,,,,,,,,,,,,,,,,,,,,,,,,,,,,,,,,,,,,,,,,,,,,,,,,,,,,,,,,,,,,,,,,,,,,,,,,,,,,,,,,,,,,,,,,,,,,,,,,,,,,,,,,,
9111,0,0.1518,,-0.02,0.03,-0.03,-0,0,0,0.05,0.06,82,,,,,,,,,,,,,,,,,,,,,,,,,,,,,,,,,,,,,,,,,,,,,,,,,,,,,,,,,,,,,,,,,,,,,,,,,,,,,,,,,,,,,,,,,,,,,,,,,,,,,,,,,,,,,,,,,,,
9131,0,0.1522,,,,,,,,,,,0,0,0,0,32,0,0,1,0,0,0,0,0,9,7,1,12,0,0,77,0,0,138,13,13,0,89,0,0,0,2,1,1,0,53,52,51,0,0,0,0,0,0,0,1,1,0,0,51,51,50,0,0,0,0,0,0,0,0,0,0,0,0,0,0,1,1,0,0,51,51,50,0,0,0,0,0,0,0,0,0,0,0,0,0,0,0,0,0,0,0,0,0,0,0,0,0,0,0,0,0.0,0.0,0.0,0.0,0,0,0.0,0,0.0,-1,0.0,,0,0.0,0.1522
9151,0,0.1525,,-0.02,0.03,-0.03,-0,0,0,0.05,0.06,81,,,,,,,,,,,,,,,,,,,,,,,,,,,,,,,,,,,,,,,,,,,,,,,,,,,,,,,,,,,,,,,,,,,,,,,,,,,,,,,,,,,,,,,,,,,,,,,,,,,,,,,,,,,,,,,,,,,
9191,0,0.1532,,-0.02,0.03,-0.03,-0,0,0,0.05,0.06,82,,,,,,,,,,,,,,,,,,,,,,,,,,,,,,,,,,,,,,,,,,,,,,,,,,,,,,,,,,,,,,,,,,,,,,,,,,,,,,,,,,,,,,,,,,,,,,,,,,,,,,,,,,,,,,,,,,,
9231,0,0.1538,,-0.02,0.03,-0.03,-0,0,0,0.05,0.06,82,0,0,0,0,32,0,0,1,0,0,0,0,0,9,7,1,12,0,0,77,0,0,138,13,13,0,88,0,0,0,2,1,1,0,53,52,51,0,0,0,0,0,0,0,0,4,4,4,0,390,389,0,0,0,0,0,0,0,0,0,0,0,0,0,0,1,1,0,0,51,51,50,0,0,0,0,0,0,0,0,0,0,0,0,0,0,0,0,0,0,0,0,0,0,0,0,0,0,0,0,0.0,0.0,0.0,0.0,0,0,0.0,0,0.0,-1,0.0,0.0,0,0.0,0.1538
9271,0,0.1545,,-0.02,0.03,-0.03,-0,0,0,0.05,0.06,82,,,,,,,,,,,,,,,,,,,,,,,,,,,,,,,,,,,,,,,,,,,,,,,,,,,,,,,,,,,,,,,,,,,,,,,,,,,,,,,,,,,,,,,,,,,,,,,,,,,,,,,,,,,,,,,,,,,
9311,0,0.1552,,-0.02,0.03,-0.03,-0,0,0,0.05,0.06,81,,,,,,,,,,,,,,,,,,,,,,,,,,,,,,,,,,,,,,,,,,,,,,,,,,,,,,,,,,,,,,,,,,,,,,,,,,,,,,,,,,,,,,,,,,,,,,,,,,,,,,,,,,,,,,,,,,,
9331,0,0.1555,,,,,,,,,,,0,0,0,0,32,0,0,1,0,0,0,0,0,9,7,1,12,0,0,77,0,0,138,13,13,0,88,0,0,0,2,1,1,0,53,52,51,0,0,0,0,0,0,0,0,4,4,4,0,390,389,0,0,0,0,0,0,0,0,0,0,0,0,0,0,1,1,0,0,51,51,50,0,0,0,0,0,0,0,0,0,0,0,0,0,0,0,0,0,0,0,0,0,0,0,0,0,0,0,0,0.0,0.0,0.0,0.0,0,0,0.0,0,0.0,-1,0.0,,0,0.0,0.1555
9351,0,0.1558,,-0.02,0.03,-0.03,-0,0,0,0.05,0.06,81,,,,,,,,,,,,,,,,,,,,,,,,,,,,,,,,,,,,,,,,,,,,,,,,,,,,,,,,,,,,,,,,,,,,,,,,,,,,,,,,,,,,,,,,,,,,,,,,,,,,,,,,,,,,,,,,,,,
9391,0,0.1565,,-0.02,0.03,-0.03,-0,0,0,0.05,0.06,81,,,,,,,,,,,,,,,,,,,,,,,,,,,,,,,,,,,,,,,,,,,,,,,,,,,,,,,,,,,,,,,,,,,,,,,,,,,,,,,,,,,,,,,,,,,,,,,,,,,,,,,,,,,,,,,,,,,
9431,0,0.1572,12.4,-0.02,0.03,-0.03,-0,0,0,0.05,0.06,82,0,0,0,0,32,0,0,1,0,0,0,0,0,9,7,1,12,0,0,78,0,0,138,14,14,0,86,0,0,0,2,1,1,0,53,52,51,0,0,0,0,0,0,0,0,4,4,4,0,390,389,0,0,0,0,0,0,0,0,0,0,0,0,0,0,1,1,0,0,51,51,50,0,0,0,0,0,0,0,0,0,0,0,0,0,0,0,0,0,0,0,0,0,0,0,0,0,0,0,0,0.0,0.0,0.0,0.0,0,0,0.0,0,0.0,-1,0.0,0.0,0,0.0,0.1572
9471,0,0.1578,,-0.02,0.03,-0.04,-0,0,0,0.05,0.06,82,,,,,,,,,,,,,,,,,,,,,,,,,,,,,,,,,,,,,,,,,,,,,,,,,,,,,,,,,,,,,,,,,,,,,,,,,,,,,,,,,,,,,,,,,,,,,,,,,,,,,,,,,,,,,,,,,,,
9511,0,0.1585,,-0.02,0.03,-0.03,-0,0,0,0.05,0.06,83,,,,,,,,,,,,,,,,,,,,,,,,,,,,,,,,,,,,,,,,,,,,,,,,,,,,,,,,,,,,,,,,,,,,,,,,,,,,,,,,,,,,,,,,,,,,,,,,,,,,,,,,,,,,,,,,,,,
9531,0,0.1588,,,,,,,,,,,0,0,0,0,32,0,0,1,0,0,0,0,0,9,7,1,12,0,0,78,0,0,138,14,14,0,86,0,0,0,2,1,1,0,53,52,51,0,0,0,0,0,0,0,0,4,4,4,0,390,389,0,0,0,0,0,0,0,0,0,0,0,0,0,0,1,1,0,0,51,51,50,0,0,0,0,0,0,0,0,0,0,0,0,0,0,0,0,0,0,0,0,0,0,0,0,0,0,0,0,0.0,0.0,0.0,0.0,0,0,0.0,0,0.0,-1,0.0,,0,0.0,0.1588
9551,0,0.1592,,-0.02,0.03,-0.04,-0,0,0,0.05,0.06,83,,,,,,,,,,,,,,,,,,,,,,,,,,,,,,,,,,,,,,,,,,,,,,,,,,,,,,,,,,,,,,,,,,,,,,,,,,,,,,,,,,,,,,,,,,,,,,,,,,,,,,,,,,,,,,,,,,,
9591,0,0.1598,,-0.02,0.03,-0.03,-0,1,0,0.05,0.06,82,,,,,,,,,,,,,,,,,,,,,,,,,,,,,,,,,,,,,,,,,,,,,,,,,,,,,,,,,,,,,,,,,,,,,,,,,,,,,,,,,,,,,,,,,,,,,,,,,,,,,,,,,,,,,,,,,,,
9631,0,0.1605,,-0.02,0.03,-0.03,-0,1,0,0.05,0.06,83,0,0,0,0,32,0,0,1,0,0,0,0,0,9,7,1,12,0,0,78,0,0,138,14,14,0,86,0,0,0,2,1,1,0,53,52,51,0,0,0,0,0,0,0,0,4,4,4,0,390,389,0,0,0,0,0,0,0,0,0,0,0,0,0,0,1,1,0,0,51,51,50,0,0,0,0,0,0,0,0,0,0,0,0,0,0,0,0,0,0,0,0,0,0,0,0,0,0,0,0,0.0,0.0,0.0,0.0,0,0,0.0,0,0.0,-1,0.0,0.0,0,0.0,0.1605
9671,0,0.1612,,-0.02,0.03,-0.03,-0,1,0,0.05,0.06,83,,,,,,,,,,,,,,,,,,,,,,,,,,,,,,,,,,,,,,,,,,,,,,,,,,,,,,,,,,,,,,,,,,,,,,,,,,,,,,,,,,,,,,,,,,,,,,,,,,,,,,,,,,,,,,,,,,,
9711,0,0.1618,,-0.02,0.03,-0.04,-0,0,0,0.05,0.06,85,,,,,,,,,,,,,,,,,,,,,,,,,,,,,,,,,,,,,,,,,,,,,,,,,,,,,,,,,,,,,,,,,,,,,,,,,,,,,,,,,,,,,,,,,,,,,,,,,,,,,,,,,,,,,,,,,,,
9731,0,0.1622,,,,,,,,,,,0,0,0,0,32,0,0,1,0,0,0,0,0,9,7,1,12,0,0,78,0,0,138,14,14,0,88,0,0,0,2,1,1,0,53,52,51,0,0,0,0,0,0,0,0,4,4,4,0,390,389,0,0,0,0,0,0,0,0,0,0,0,0,0,0,1,1,0,0,51,51,50,0,0,0,0,0,0,0,0,0,0,0,0,0,0,0,0,0,0,0,0,0,0,0,0,0,0,0,0,0.0,0.0,0.0,0.0,0,0,0.0,0,0.0,-1,0.0,,0,0.0,0.1622
9751,0,0.1625,,-0.02,0.03,-0.03,-0,0,0,0.05,0.06,83,,,,,,,,,,,,,,,,,,,,,,,,,,,,,,,,,,,,,,,,,,,,,,,,,,,,,,,,,,,,,,,,,,,,,,,,,,,,,,,,,,,,,,,,,,,,,,,,,,,,,,,,,,,,,,,,,,,
9791,0,0.1632,,-0.02,0.03,-0.03,-0,0,0,0.05,0.06,83,,,,,,,,,,,,,,,,,,,,,,,,,,,,,,,,,,,,,,,,,,,,,,,,,,,,,,,,,,,,,,,,,,,,,,,,,,,,,,,,,,,,,,,,,,,,,,,,,,,,,,,,,,,,,,,,,,,
9831,0,0.1638,,-0.02,0.03,-0.03,-0,0,0,0.05,0.06,83,0,0,0,0,32,0,0,1,0,0,0,0,0,9,7,1,12,0,0,78,0,0,138,14,14,0,86,0,0,0,2,1,1,0,53,52,51,0,0,0,0,0,0,0,0,4,4,4,0,390,389,0,0,0,0,0,0,0,0,0,0,0,0,0,0,1,1,0,0,51,51,50,0,0,0,0,0,0,0,0,0,0,0,0,0,0,0,0,0,0,0,0,0,0,0,0,0,0,0,0,0.0,0.0,0.0,0.0,0,0,0.0,0,0.0,-1,0.0,0.0,0,0.0,0.1638
9871,0,0.1645,,-0.02,0.03,-0.04,-0,0,0,0.05,0.06,84,,,,,,,,,,,,,,,,,,,,,,,,,,,,,,,,,,,,,,,,,,,,,,,,,,,,,,,,,,,,,,,,,,,,,,,,,,,,,,,,,,,,,,,,,,,,,,,,,,,,,,,,,,,,,,,,,,,
9911,0,0.1652,,-0.02,0.03,-0.04,-0,0,0,0.05,0.06,84,,,,,,,,,,,,,,,,,,,,,,,,,,,,,,,,,,,,,,,,,,,,,,,,,,,,,,,,,,,,,,,,,,,,,,,,,,,,,,,,,,,,,,,,,,,,,,,,,,,,,,,,,,,,,,,,,,,
9931,0,0.1655,,,,,,,,,,,0,0,0,0,32,0,0,1,0,0,0,0,0,9,7,1,12,0,0,78,0,0,138,14,14,0,88,0,0,0,2,1,1,0,53,52,51,0,0,0,0,0,0,0,0,4,4,4,0,390,389,0,0,0,0,0,0,0,0,0,0,0,0,0,0,1,1,0,0,51,51,50,0,0,0,0,0,0,0,0,0,0,0,0,0,0,0,0,0,0,0,0,0,0,0,0,0,0,0,0,0.0,0.0,0.0,0.0,0,0,0.0,0,0.0,-1,0.0,,0,0.0,0.1655
9951,0,0.1658,,-0.02,0.03,-0.04,-0,0,0,0.05,0.06,84,,,,,,,,,,,,,,,,,,,,,,,,,,,,,,,,,,,,,,,,,,,,,,,,,,,,,,,,,,,,,,,,,,,,,,,,,,,,,,,,,,,,,,,,,,,,,,,,,,,,,,,,,,,,,,,,,,,
9991,0,0.1665,,-0.02,0.03,-0.04,-0,0,0,0.05,0.06,83,,,,,,,,,,,,,,,,,,,,,,,,,,,,,,,,,,,,,,,,,,,,,,,,,,,,,,,,,,,,,,,,,,,,,,,,,,,,,,,,,,,,,,,,,,,,,,,,,,,,,,,,,,,,,,,,,,,
10031,0,0.1672,,-0.02,0.03,-0.04,-0,0,0,0.05,0.06,84,0,0,0,0,32,0,0,1,0,0,0,0,0,9,7,1,12,0,0,78,0,0,138,14,14,0,88,0,0,0,2,1,1,0,53,52,51,0,0,0,0,0,0,0,0,4,4,4,0,390,389,0,0,0,0,0,0,0,0,0,0,0,0,0,0,1,1,0,0,51,51,50,0,0,0,0,0,0,0,0,0,0,0,0,0,0,0,0,0,0,0,0,0,0,0,0,0,0,0,0,0.0,0.0,0.0,0.0,0,0,0.0,0,0.0,-1,0.0,0.0,0,0.0,0.1672
10071,0,0.1678,,-0.02,0.03,-0.04,-0,0,0,0.05,0.06,84,,,,,,,,,,,,,,,,,,,,,,,,,,,,,,,,,,,,,,,,,,,,,,,,,,,,,,,,,,,,,,,,,,,,,,,,,,,,,,,,,,,,,,,,,,,,,,,,,,,,,,,,,,,,,,,,,,,
10111,0,0.1685,,-0.02,0.03,-0.04,-0,0,0,0.05,0.06,85,,,,,,,,,,,,,,,,,,,,,,,,,,,,,,,,,,,,,,,,,,,,,,,,,,,,,,,,,,,,,,,,,,,,,,,,,,,,,,,,,,,,,,,,,,,,,,,,,,,,,,,,,,,,,,,,,,,
10131,0,0.1688,,,,,,,,,,,0,0,0,0,32,0,0,1,0,0,0,0,0,9,7,1,12,0,0,78,0,0,138,14,14,0,88,0,0,0,2,1,1,0,53,52,51,0,0,0,0,0,0,0,0,4,4,4,0,390,389,0,0,0,0,0,0,0,0,0,0,0,0,0,0,1,1,0,0,51,51,50,0,0,0,0,0,0,0,0,0,0,0,0,0,0,0,0,0,0,0,0,0,0,0,0,0,0,0,0,0.0,0.0,0.0,0.0,0,0,0.0,0,0.0,-1,0.0,,0,0.0,0.1688
10151,0,0.1692,,-0.02,0.03,-0.04,-0,0,0,0.05,0.06,85,,,,,,,,,,,,,,,,,,,,,,,,,,,,,,,,,,,,,,,,,,,,,,,,,,,,,,,,,,,,,,,,,,,,,,,,,,,,,,,,,,,,,,,,,,,,,,,,,,,,,,,,,,,,,,,,,,,
10191,0,0.1699,,-0.02,0.03,-0.04,-0,0,0,0.05,0.06,85,,,,,,,,,,,,,,,,,,,,,,,,,,,,,,,,,,,,,,,,,,,,,,,,,,,,,,,,,,,,,,,,,,,,,,,,,,,,,,,,,,,,,,,,,,,,,,,,,,,,,,,,,,,,,,,,,,,
10231,0,0.1705,,-0.02,0.03,-0.04,-0,1,0,0.05,0.06,85,0,0,0,0,32,0,0,1,0,0,0,0,0,9,7,1,12,0,0,78,0,0,138,14,14,0,88,0,0,0,2,1,1,0,53,52,51,0,0,0,0,0,0,0,1,1,0,0,51,51,50,0,0,0,0,0,0,0,0,0,0,0,0,0,0,1,1,0,0,51,51,50,0,0,0,0,0,0,0,0,0,0,0,0,0,0,0,0,0,0,0,0,0,0,0,0,0,0,0,0,0.0,0.0,0.0,0.0,0,0,0.0,0,0.0,-1,0.0,0.0,0,0.0,0.1705
10271,0,0.1712,,-0.02,0.03,-0.04,-0,1,0,0.05,0.06,85,,,,,,,,,,,,,,,,,,,,,,,,,,,,,,,,,,,,,,,,,,,,,,,,,,,,,,,,,,,,,,,,,,,,,,,,,,,,,,,,,,,,,,,,,,,,,,,,,,,,,,,,,,,,,,,,,,,
10311,0,0.1718,,-0.02,0.03,-0.04,-0,1,0,0.05,0.06,86,,,,,,,,,,,,,,,,,,,,,,,,,,,,,,,,,,,,,,,,,,,,,,,,,,,,,,,,,,,,,,,,,,,,,,,,,,,,,,,,,,,,,,,,,,,,,,,,,,,,,,,,,,,,,,,,,,,
10331,0,0.1722,,,,,,,,,,,0,0,0,0,32,0,0,1,0,0,0,0,0,9,7,1,12,0,0,78,0,0,138,14,14,0,85,0,0,0,2,1,1,0,53,52,51,0,0,0,0,0,0,0,1,1,0,0,51,51,50,0,0,0,0,0,0,0,0,0,0,0,0,0,0,1,1,0,0,51,51,50,0,0,0,0,0,0,0,0,0,0,0,0,0,0,0,0,0,0,0,0,0,0,0,0,0,0,0,0,0.0,0.0,0.0,0.0,0,0,0.0,0,0.0,-1,0.0,,0,0.0,0.1722
10351,0,0.1725,,-0.02,0.03,-0.04,-0,0,0,0.05,0.06,85,,,,,,,,,,,,,,,,,,,,,,,,,,,,,,,,,,,,,,,,,,,,,,,,,,,,,,,,,,,,,,,,,,,,,,,,,,,,,,,,,,,,,,,,,,,,,,,,,,,,,,,,,,,,,,,,,,,
10391,0,0.1732,,-0.02,0.03,-0.04,-0,0,0,0.05,0.06,86,,,,,,,,,,,,,,,,,,,,,,,,,,,,,,,,,,,,,,,,,,,,,,,,,,,,,,,,,,,,,,,,,,,,,,,,,,,,,,,,,,,,,,,,,,,,,,,,,,,,,,,,,,,,,,,,,,,
10431,0,0.1738,12.37,-0.02,0.03,-0.04,-0,0,0,0.05,0.06,85,0,0,0,0,32,0,0,1,0,0,0,0,0,9,7,1,12,0,0,78,0,0,138,14,14,0,88,0,0,0,2,1,1,0,53,52,51,0,0,0,0,0,0,0,1,1,0,0,51,51,50,0,0,0,0,0,0,0,0,0,0,0,0,0,0,1,1,0,0,51,51,50,0,0,0,0,0,0,0,0,0,0,0,0,0,0,0,0,0,0,0,0,0,0,0,0,0,0,0,0,0.0,0.0,0.0,0.0,0,0,0.0,0,0.0,-1,0.0,0.0,0,0.0,0.1738
10471,0,0.1745,,-0.02,0.03,-0.04,-0,1,0,0.05,0.06,84,,,,,,,,,,,,,,,,,,,,,,,,,,,,,,,,,,,,,,,,,,,,,,,,,,,,,,,,,,,,,,,,,,,,,,,,,,,,,,,,,,,,,,,,,,,,,,,,,,,,,,,,,,,,,,,,,,,
