"Interval"|"ms"|0|0|1,"Utc"|"ms"|0|0|1,"ElapsedTime"|"Min"|0.0|0.0|10,"Battery"|"Volts"|0.0|20.0|1,"AccelX"|"G"|-3.0|3.0|25,"AccelY"|"G"|-3.0|3.0|25,"AccelZ"|"G"|-3.0|3.0|25,"Yaw"|"Deg/Sec"|-120|120|25,"Pitch"|"Deg/Sec"|-120|120|25,"Roll"|"Deg/Sec"|-120|120|25,"Gsum"|"G"|0.0|3.0|25,"GsumMax"|"G"|0.0|3.0|25,"GsumPct"|"%"|0|100|25,"INV_Command"|""|-3277|3277|10,"VCU_INV_Inv"|""|0|1|10,"VCU_INV_Tor"|""|-3277|3277|10,"INV_Run_Fau"|""|0|65535|10,"INV_Post_Fa"|""|0|65535|10,"INV_Run_Fau"|""|0|65535|10,"INV_Post_Fa"|""|0|65535|10,"INV_Directi"|""|0|1|10,"INV_Inverte"|""|0|1|10,"INV_Relay_2"|""|0|1|10,"INV_Inverte"|""|0|1|10,"INV_Inverte"|""|0|1|10,"INV_Relay_1"|""|0|1|10,"INV_Inverte"|""|0|255|10,"INV_VSM_Sta"|""|0|15|10,"INV_Inverte"|""|0|1|10,"INV_PWM_Fre"|""|0|255|10,"INV_DC_Bus_"|""|-3277|3277|10,"INV_DC_Bus_"|""|-3277|3277|10,"INV_Delta_R"|""|-3277|3277|10,"INV_Motor_S"|""|-32768|32767|10,"INV_Torque_"|""|-3277|3277|10,"INV_Motor_T"|""|-3277|3277|10,"INV_Hot_Spo"|""|-3277|3277|10,"INV_Coolant"|""|-3277|3277|10,"INV_Fast_DC"|""|-3277|3277|10,"APPS1"|""|-32768|32767|10,"APPS2"|""|-32768|32767|10,"c_apps"|""|-32768|32767|10,"Faultcode"|""|0|4|10,"Multiplexor"|""|0|0|10,"BMS_1_1_Vol"|""|0|10|10,"BMS_1_1_Vol"|""|0|10|10,"BMS_1_1_Vol"|""|0|10|10,"BMS_1_1_Tem"|""|0|200|10,"BMS_1_1_Tem"|""|0|200|10,"BMS_1_1_Tem"|""|0|200|10,"Multiplexor"|""|0|0|10,"BMS_1_2_Vol"|""|0|10|10,"BMS_1_2_Vol"|""|0|10|10,"BMS_1_2_Vol"|""|0|10|10,"BMS_1_2_Tem"|""|0|200|10,"BMS_1_2_Tem"|""|0|200|10,"BMS_1_2_Tem"|""|0|200|10,"Multiplexor"|""|0|0|10,"BMS_2_1_Vol"|""|0|10|10,"BMS_2_1_Vol"|""|0|10|10,"BMS_2_1_Vol"|""|0|10|10,"BMS_2_1_Tem"|""|0|200|10,"BMS_2_1_Tem"|""|0|200|10,"BMS_2_1_Tem"|""|0|200|10,"Multiplexor"|""|0|0|10,"BMS_2_2_Vol"|""|0|10|10,"BMS_2_2_Vol"|""|0|10|10,"BMS_2_2_Vol"|""|0|10|10,"BMS_2_2_Tem"|""|0|200|10,"BMS_2_2_Tem"|""|0|200|10,"BMS_2_2_Tem"|""|0|200|10,"Multiplexor"|""|0|0|10,"BMS_3_1_Vol"|""|0|10|10,"BMS_3_1_Vol"|""|0|10|10,"BMS_3_1_Vol"|""|0|10|10,"BMS_3_1_Tem"|""|0|200|10,"BMS_3_1_Tem"|""|0|200|10,"BMS_3_1_Tem"|""|0|200|10,"Multiplexor"|""|0|0|10,"BMS_3_2_Vol"|""|0|10|10,"BMS_3_2_Vol"|""|0|10|10,"BMS_3_2_Vol"|""|0|10|10,"BMS_3_2_Tem"|""|0|200|10,"BMS_3_2_Tem"|""|0|200|10,"BMS_3_2_Tem"|""|0|200|10,"Multiplexor"|""|0|0|10,"BMS_4_1_Vol"|""|0|10|10,"BMS_4_1_Vol"|""|0|10|10,"BMS_4_1_Vol"|""|0|10|10,"BMS_4_1_Tem"|""|0|200|10,"BMS_4_1_Tem"|""|0|200|10,"BMS_4_1_Tem"|""|0|200|10,"Multiplexor"|""|0|0|10,"BMS_4_2_Vol"|""|0|10|10,"BMS_4_2_Vol"|""|0|10|10,"BMS_4_2_Vol"|""|0|10|10,"BMS_4_2_Tem"|""|0|200|10,"BMS_4_2_Tem"|""|0|200|10,"BMS_4_2_Tem"|""|0|200|10,"HS_MaxVolta"|""|0|655|10,"HS_MinVolta"|""|0|655|10,"HS_AverageV"|""|0|655|10,"HS_MaxTemp"|""|0|6553|10,"HS_MinTemp"|""|0|6553|10,"HS_AverageT"|""|0|6553|10,"HS_MaxTemp"|""|0|6553|10,"HS_MinTemp"|""|0|6553|10,"HS_AverageT"|""|0|6553|10,"HS_MaxTemp"|""|0|6553|10,"HS_MinTemp"|""|0|6553|10,"HS_AverageT"|""|0|6553|10,"HS_MaxTemp"|""|0|6553|10,"HS_MinTemp"|""|0|6553|10,"Latitude"|"Degrees"|-180.0|180.0|10,"Longitude"|"Degrees"|-180.0|180.0|10,"Speed"|"mph"|0.0|150.0|10,"Altitude"|"ft"|0.0|4000.0|10,"GPSSats"|""|0|20|10,"GPSQual"|""|0|5|10,"GPSDOP"|""|0.0|20.0|10,"LapCount"|""|0|0|10,"LapTime"|"Min"|0.0|0.0|10,"Sector"|""|0|0|10,"SectorTime"|"Min"|0.0|0.0|10,"PredTime"|"Min"|0.0|0.0|5,"CurrentLap"|""|0|0|10,"Distance"|"mi"|0.0|0.0|10,"SessionTime"|"Min"|0.0|0.0|10
1628,0,0.0271,,-0.02,0.03,-0.05,0,1,0,0.06,0.06,99,,,,,,,,,,,,,,,,,,,,,,,,,,,,,,,,,,,,,,,,,,,,,,,,,,,,,,,,,,,,,,,,,,,,,,,,,,,,,,,,,,,,,,,,,,,,,,,,,,,,,,,,,,,,,,,,,,,
1668,0,0.0278,,-0.02,0.03,-0.05,0,1,0,0.06,0.06,98,,,,,,,,,,,,,,,,,,,,,,,,,,,,,,,,,,,,,,,,,,,,,,,,,,,,,,,,,,,,,,,,,,,,,,,,,,,,,,,,,,,,,,,,,,,,,,,,,,,,,,,,,,,,,,,,,,,
1688,0,0.0281,,,,,,,,,,,0,0,0,0,0,0,0,1,0,0,0,0,1,9,2,1,12,0,0,24,0,0,138,3,3,0,0,0,0,1,0,0,0,0,0,0,0,0,0,0,0,0,0,0,3,1,1,0,86,84,78,0,0,0,0,0,0,0,0,0,0,0,0,0,0,0,2,1,0,1,240,88,0,0,0,0,0,0,0,0,0,0,0,0,0,0,0,0,0,0,0,0,0,0,0,0,0,0,0,0,0.0,0.0,0.0,0.0,0,0,0.0,0,0.0,-1,0.0,,0,0.0,0.0281
1708,0,0.0285,,-0.02,0.03,-0.05,0,1,0,0.06,0.06,96,,,,,,,,,,,,,,,,,,,,,,,,,,,,,,,,,,,,,,,,,,,,,,,,,,,,,,,,,,,,,,,,,,,,,,,,,,,,,,,,,,,,,,,,,,,,,,,,,,,,,,,,,,,,,,,,,,,
1748,0,0.0291,,-0.02,0.03,-0.05,0,1,0,0.06,0.06,95,,,,,,,,,,,,,,,,,,,,,,,,,,,,,,,,,,,,,,,,,,,,,,,,,,,,,,,,,,,,,,,,,,,,,,,,,,,,,,,,,,,,,,,,,,,,,,,,,,,,,,,,,,,,,,,,,,,
1788,0,0.0298,,-0.02,0.03,-0.05,0,1,0,0.06,0.06,97,0,0,0,0,0,0,0,1,0,0,0,0,1,9,2,1,12,0,0,24,0,0,138,3,3,0,0,0,0,1,0,0,0,0,0,0,0,0,0,0,0,0,0,0,3,1,1,0,86,84,78,0,0,0,0,0,0,0,0,0,0,0,0,0,0,0,2,1,0,1,240,88,0,0,0,0,0,0,0,0,0,0,0,0,0,0,0,0,0,0,0,0,0,0,0,0,0,0,0,0,0.0,0.0,0.0,0.0,0,0,0.0,0,0.0,-1,0.0,0.0,0,0.0,0.0298
1828,0,0.0305,,-0.02,0.03,-0.05,0,1,0,0.06,0.06,98,,,,,,,,,,,,,,,,,,,,,,,,,,,,,,,,,,,,,,,,,,,,,,,,,,,,,,,,,,,,,,,,,,,,,,,,,,,,,,,,,,,,,,,,,,,,,,,,,,,,,,,,,,,,,,,,,,,
1868,0,0.0311,,-0.02,0.03,-0.05,0,1,0,0.06,0.06,95,,,,,,,,,,,,,,,,,,,,,,,,,,,,,,,,,,,,,,,,,,,,,,,,,,,,,,,,,,,,,,,,,,,,,,,,,,,,,,,,,,,,,,,,,,,,,,,,,,,,,,,,,,,,,,,,,,,
1888,0,0.0315,,,,,,,,,,,0,0,0,0,0,0,0,1,0,0,0,0,1,9,2,1,12,0,0,24,0,0,138,4,4,0,0,0,0,1,0,0,0,0,0,0,0,0,0,0,0,0,0,0,3,1,1,0,86,84,78,0,0,0,0,0,0,0,0,0,0,0,0,0,0,0,2,1,0,1,240,88,0,0,0,0,0,0,0,0,0,0,0,0,0,0,0,0,0,0,0,0,0,0,0,0,0,0,0,0,0.0,0.0,0.0,0.0,0,0,0.0,0,0.0,-1,0.0,,0,0.0,0.0315
1908,0,0.0318,,-0.02,0.03,-0.05,0,1,0,0.06,0.06,95,,,,,,,,,,,,,,,,,,,,,,,,,,,,,,,,,,,,,,,,,,,,,,,,,,,,,,,,,,,,,,,,,,,,,,,,,,,,,,,,,,,,,,,,,,,,,,,,,,,,,,,,,,,,,,,,,,,
1948,0,0.0325,,-0.02,0.03,-0.05,0,1,0,0.06,0.06,92,,,,,,,,,,,,,,,,,,,,,,,,,,,,,,,,,,,,,,,,,,,,,,,,,,,,,,,,,,,,,,,,,,,,,,,,,,,,,,,,,,,,,,,,,,,,,,,,,,,,,,,,,,,,,,,,,,,
1988,0,0.0331,,-0.02,0.03,-0.05,0,1,0,0.06,0.06,93,0,0,0,0,0,0,0,1,0,0,0,0,1,9,2,1,12,0,0,24,0,0,138,4,4,0,0,0,0,1,0,0,0,0,0,0,0,0,0,0,0,0,0,0,3,1,1,0,86,84,78,0,0,0,0,0,0,0,0,0,0,0,0,0,0,0,2,1,0,1,240,88,0,0,0,0,0,0,0,0,0,0,0,0,0,0,0,0,0,0,0,0,0,0,0,0,0,0,0,0,0.0,0.0,0.0,0.0,0,0,0.0,0,0.0,-1,0.0,0.0,0,0.0,0.0331
2028,0,0.0338,,-0.02,0.03,-0.05,0,1,0,0.06,0.06,95,,,,,,,,,,,,,,,,,,,,,,,,,,,,,,,,,,,,,,,,,,,,,,,,,,,,,,,,,,,,,,,,,,,,,,,,,,,,,,,,,,,,,,,,,,,,,,,,,,,,,,,,,,,,,,,,,,,
2068,0,0.0345,,-0.02,0.03,-0.05,0,1,0,0.06,0.06,94,,,,,,,,,,,,,,,,,,,,,,,,,,,,,,,,,,,,,,,,,,,,,,,,,,,,,,,,,,,,,,,,,,,,,,,,,,,,,,,,,,,,,,,,,,,,,,,,,,,,,,,,,,,,,,,,,,,
2088,0,0.0348,,,,,,,,,,,0,0,0,0,0,0,0,1,0,0,0,0,1,9,2,1,12,0,0,24,0,0,138,4,4,0,0,0,0,1,0,0,0,0,0,0,0,0,0,0,0,0,0,0,3,1,1,0,86,84,78,0,0,0,0,0,0,0,0,0,0,0,0,0,0,0,2,1,0,1,240,88,0,0,0,0,0,0,0,0,0,0,0,0,0,0,0,0,0,0,0,0,0,0,0,0,0,0,0,0,0.0,0.0,0.0,0.0,0,0,0.0,0,0.0,-1,0.0,,0,0.0,0.0348
2108,0,0.0351,,-0.02,0.03,-0.05,0,1,0,0.06,0.06,92,,,,,,,,,,,,,,,,,,,,,,,,,,,,,,,,,,,,,,,,,,,,,,,,,,,,,,,,,,,,,,,,,,,,,,,,,,,,,,,,,,,,,,,,,,,,,,,,,,,,,,,,,,,,,,,,,,,
2148,0,0.0358,,-0.02,0.03,-0.05,0,1,0,0.06,0.06,93,,,,,,,,,,,,,,,,,,,,,,,,,,,,,,,,,,,,,,,,,,,,,,,,,,,,,,,,,,,,,,,,,,,,,,,,,,,,,,,,,,,,,,,,,,,,,,,,,,,,,,,,,,,,,,,,,,,
2188,0,0.0365,,-0.02,0.03,-0.05,0,1,0,0.06,0.06,94,0,0,0,0,0,0,0,1,0,0,0,0,1,9,2,1,12,0,0,24,0,0,138,4,4,0,0,0,0,1,0,0,0,0,0,0,0,0,0,0,0,0,0,0,3,1,1,0,86,84,78,0,0,0,0,0,0,0,0,0,0,0,0,0,0,0,2,1,0,1,240,88,0,0,0,0,0,0,0,0,0,0,0,0,0,0,0,0,0,0,0,0,0,0,0,0,0,0,0,0,0.0,0.0,0.0,0.0,0,0,0.0,0,0.0,-1,0.0,0.0,0,0.0,0.0365
2228,0,0.0371,,-0.02,0.03,-0.05,0,1,0,0.06,0.06,93,,,,,,,,,,,,,,,,,,,,,,,,,,,,,,,,,,,,,,,,,,,,,,,,,,,,,,,,,,,,,,,,,,,,,,,,,,,,,,,,,,,,,,,,,,,,,,,,,,,,,,,,,,,,,,,,,,,
2268,0,0.0378,,-0.02,0.03,-0.05,0,1,0,0.06,0.06,95,,,,,,,,,,,,,,,,,,,,,,,,,,,,,,,,,,,,,,,,,,,,,,,,,,,,,,,,,,,,,,,,,,,,,,,,,,,,,,,,,,,,,,,,,,,,,,,,,,,,,,,,,,,,,,,,,,,
2288,0,0.0381,,,,,,,,,,,0,0,0,0,0,0,0,1,0,0,0,0,1,9,2,1,12,0,0,24,0,0,138,4,4,0,0,0,0,1,0,0,0,0,0,0,0,0,0,0,0,0,0,0,3,1,1,0,86,84,78,0,0,0,0,0,0,0,0,0,0,0,0,0,0,0,2,1,0,1,240,88,0,0,0,0,0,0,0,0,0,0,0,0,0,0,0,0,0,0,0,0,0,0,0,0,0,0,0,0,0.0,0.0,0.0,0.0,0,0,0.0,0,0.0,-1,0.0,,0,0.0,0.0381
2308,0,0.0385,,-0.02,0.03,-0.05,0,1,0,0.06,0.06,97,,,,,,,,,,,,,,,,,,,,,,,,,,,,,,,,,,,,,,,,,,,,,,,,,,,,,,,,,,,,,,,,,,,,,,,,,,,,,,,,,,,,,,,,,,,,,,,,,,,,,,,,,,,,,,,,,,,
2348,0,0.0391,,-0.02,0.03,-0.05,0,1,0,0.06,0.06,96,,,,,,,,,,,,,,,,,,,,,,,,,,,,,,,,,,,,,,,,,,,,,,,,,,,,,,,,,,,,,,,,,,,,,,,,,,,,,,,,,,,,,,,,,,,,,,,,,,,,,,,,,,,,,,,,,,,
2388,0,0.0398,12.43,-0.02,0.03,-0.05,0,1,0,0.06,0.06,96,0,0,0,0,0,0,0,1,0,0,0,0,1,9,2,1,12,0,0,24,0,0,138,5,5,0,0,0,0,1,0,0,0,0,0,0,0,0,0,0,0,0,0,0,3,1,1,0,86,84,78,0,0,0,0,0,0,0,0,0,0,0,0,0,0,0,2,1,0,1,240,88,0,0,0,0,0,0,0,0,0,0,0,0,0,0,0,0,0,0,0,0,0,0,0,0,0,0,0,0,0.0,0.0,0.0,0.0,0,0,0.0,0,0.0,-1,0.0,0.0,0,0.0,0.0398
2428,0,0.0405,,-0.02,0.03,-0.05,0,1,0,0.06,0.06,97,,,,,,,,,,,,,,,,,,,,,,,,,,,,,,,,,,,,,,,,,,,,,,,,,,,,,,,,,,,,,,,,,,,,,,,,,,,,,,,,,,,,,,,,,,,,,,,,,,,,,,,,,,,,,,,,,,,
2468,0,0.0411,,-0.02,0.03,-0.05,0,1,0,0.06,0.06,98,,,,,,,,,,,,,,,,,,,,,,,,,,,,,,,,,,,,,,,,,,,,,,,,,,,,,,,,,,,,,,,,,,,,,,,,,,,,,,,,,,,,,,,,,,,,,,,,,,,,,,,,,,,,,,,,,,,
2488,0,0.0415,,,,,,,,,,,0,0,0,0,0,0,0,1,0,0,0,0,1,9,2,1,12,0,0,24,0,0,138,5,5,0,0,0,0,1,0,0,0,0,0,0,0,0,0,0,0,0,0,0,3,1,1,0,86,84,78,0,0,0,0,0,0,0,0,0,0,0,0,0,0,3,1,1,0,86,85,82,0,0,0,0,0,0,0,0,0,0,0,0,0,0,0,0,0,0,0,0,0,0,0,0,0,0,0,0,0.0,0.0,0.0,0.0,0,0,0.0,0,0.0,-1,0.0,,0,0.0,0.0415
2508,0,0.0418,,-0.02,0.03,-0.05,0,1,0,0.06,0.06,97,,,,,,,,,,,,,,,,,,,,,,,,,,,,,,,,,,,,,,,,,,,,,,,,,,,,,,,,,,,,,,,,,,,,,,,,,,,,,,,,,,,,,,,,,,,,,,,,,,,,,,,,,,,,,,,,,,,
2548,0,0.0425,,-0.02,0.03,-0.05,0,1,0,0.06,0.06,96,,,,,,,,,,,,,,,,,,,,,,,,,,,,,,,,,,,,,,,,,,,,,,,,,,,,,,,,,,,,,,,,,,,,,,,,,,,,,,,,,,,,,,,,,,,,,,,,,,,,,,,,,,,,,,,,,,,
2588,0,0.0431,,-0.02,0.03,-0.05,0,1,0,0.06,0.06,94,0,0,0,0,0,0,0,1,0,0,0,0,1,9,2,1,12,0,0,24,0,0,138,5,5,0,0,0,0,1,0,0,0,0,0,0,0,0,0,0,0,0,0,0,3,1,1,0,86,84,78,0,0,0,0,0,0,0,0,0,0,0,0,0,0,3,1,1,0,86,85,82,0,0,0,0,0,0,0,0,0,0,0,0,0,0,0,0,0,0,0,0,0,0,0,0,0,0,0,0,0.0,0.0,0.0,0.0,0,0,0.0,0,0.0,-1,0.0,0.0,0,0.0,0.0431
2628,0,0.0438,,-0.02,0.03,-0.05,0,1,0,0.06,0.06,94,,,,,,,,,,,,,,,,,,,,,,,,,,,,,,,,,,,,,,,,,,,,,,,,,,,,,,,,,,,,,,,,,,,,,,,,,,,,,,,,,,,,,,,,,,,,,,,,,,,,,,,,,,,,,,,,,,,
2668,0,0.0445,,-0.02,0.03,-0.05,0,1,0,0.06,0.06,93,,,,,,,,,,,,,,,,,,,,,,,,,,,,,,,,,,,,,,,,,,,,,,,,,,,,,,,,,,,,,,,,,,,,,,,,,,,,,,,,,,,,,,,,,,,,,,,,,,,,,,,,,,,,,,,,,,,
2688,0,0.0448,,,,,,,,,,,0,0,0,0,0,0,0,1,0,0,0,0,1,9,2,1,12,0,0,24,0,0,138,6,6,0,0,0,0,1,0,0,0,0,0,0,0,0,0,0,0,0,0,0,3,1,1,0,86,84,78,0,0,0,0,0,0,0,0,0,0,0,0,0,0,3,1,1,0,86,85,82,0,0,0,0,0,0,0,255,65,0,0,6554,6541,0,0,0,0,0,0,0,0,0,0,0,0,0,0,0,0.0,0.0,0.0,0.0,0,0,0.0,0,0.0,-1,0.0,,0,0.0,0.0448
2708,0,0.0451,,-0.02,0.03,-0.05,0,1,0,0.06,0.06,93,,,,,,,,,,,,,,,,,,,,,,,,,,,,,,,,,,,,,,,,,,,,,,,,,,,,,,,,,,,,,,,,,,,,,,,,,,,,,,,,,,,,,,,,,,,,,,,,,,,,,,,,,,,,,,,,,,,
2748,0,0.0458,,-0.02,0.03,-0.05,0,1,0,0.06,0.06,94,,,,,,,,,,,,,,,,,,,,,,,,,,,,,,,,,,,,,,,,,,,,,,,,,,,,,,,,,,,,,,,,,,,,,,,,,,,,,,,,,,,,,,,,,,,,,,,,,,,,,,,,,,,,,,,,,,,
2788,0,0.0465,,-0.02,0.03,-0.05,0,1,0,0.06,0.06,93,0,0,0,0,0,0,0,1,0,0,0,0,1,9,2,1,12,0,0,24,0,0,138,6,6,0,0,0,0,1,0,0,0,0,0,0,0,0,0,0,0,0,0,0,3,1,1,0,86,84,78,0,0,0,0,0,0,0,0,0,0,0,0,0,0,3,1,1,0,86,85,82,0,0,0,0,0,0,0,0,0,0,0,0,0,0,0,0,0,0,0,0,0,0,0,0,0,0,0,0,0.0,0.0,0.0,0.0,0,0,0.0,0,0.0,-1,0.0,0.0,0,0.0,0.0465
2828,0,0.0471,,-0.02,0.03,-0.05,0,1,0,0.06,0.06,93,,,,,,,,,,,,,,,,,,,,,,,,,,,,,,,,,,,,,,,,,,,,,,,,,,,,,,,,,,,,,,,,,,,,,,,,,,,,,,,,,,,,,,,,,,,,,,,,,,,,,,,,,,,,,,,,,,,
2868,0,0.0478,,-0.02,0.03,-0.05,0,1,0,0.06,0.06,93,,,,,,,,,,,,,,,,,,,,,,,,,,,,,,,,,,,,,,,,,,,,,,,,,,,,,,,,,,,,,,,,,,,,,,,,,,,,,,,,,,,,,,,,,,,,,,,,,,,,,,,,,,,,,,,,,,,
2888,0,0.0481,,,,,,,,,,,0,0,0,0,0,0,0,1,0,0,0,0,1,9,2,1,12,0,0,24,0,0,138,6,6,0,0,0,0,1,0,0,0,0,0,0,0,0,0,0,0,0,0,0,3,1,1,0,86,84,78,0,0,0,0,0,0,0,0,0,0,0,0,0,0,3,1,1,0,86,85,82,0,0,0,0,0,0,0,0,0,0,0,0,0,0,0,0,0,0,0,0,0,0,0,0,0,0,0,0,0.0,0.0,0.0,0.0,0,0,0.0,0,0.0,-1,0.0,,0,0.0,0.0481
2908,0,0.0485,,-0.02,0.03,-0.05,0,1,0,0.06,0.06,94,,,,,,,,,,,,,,,,,,,,,,,,,,,,,,,,,,,,,,,,,,,,,,,,,,,,,,,,,,,,,,,,,,,,,,,,,,,,,,,,,,,,,,,,,,,,,,,,,,,,,,,,,,,,,,,,,,,
2948,0,0.0491,,-0.02,0.03,-0.05,0,1,0,0.06,0.06,94,,,,,,,,,,,,,,,,,,,,,,,,,,,,,,,,,,,,,,,,,,,,,,,,,,,,,,,,,,,,,,,,,,,,,,,,,,,,,,,,,,,,,,,,,,,,,,,,,,,,,,,,,,,,,,,,,,,
2988,0,0.0498,,-0.02,0.03,-0.05,0,1,0,0.06,0.06,93,0,0,0,0,0,0,0,1,0,0,0,0,1,9,2,1,12,0,0,24,0,0,138,6,6,0,0,0,0,1,0,0,0,0,0,0,0,0,0,0,0,0,0,0,3,1,1,0,86,84,78,0,0,0,0,0,0,0,0,0,0,0,0,0,0,3,1,1,0,86,85,82,0,0,0,0,0,0,0,0,0,0,0,0,0,0,0,0,0,0,0,0,0,0,0,0,0,0,0,0,0.0,0.0,0.0,0.0,0,0,0.0,0,0.0,-1,0.0,0.0,0,0.0,0.0498
3028,0,0.0505,,-0.02,0.03,-0.05,0,1,0,0.06,0.06,93,,,,,,,,,,,,,,,,,,,,,,,,,,,,,,,,,,,,,,,,,,,,,,,,,,,,,,,,,,,,,,,,,,,,,,,,,,,,,,,,,,,,,,,,,,,,,,,,,,,,,,,,,,,,,,,,,,,
3068,0,0.0511,,-0.02,0.03,-0.05,0,1,0,0.06,0.06,93,,,,,,,,,,,,,,,,,,,,,,,,,,,,,,,,,,,,,,,,,,,,,,,,,,,,,,,,,,,,,,,,,,,,,,,,,,,,,,,,,,,,,,,,,,,,,,,,,,,,,,,,,,,,,,,,,,,
3088,0,0.0515,,,,,,,,,,,0,0,0,0,0,0,0,1,0,0,0,0,1,9,2,1,12,0,0,24,0,0,138,6,6,0,0,0,0,1,3,1,1,0,84,82,78,0,0,0,0,0,0,0,3,1,1,0,86,84,78,0,0,0,0,0,0,0,0,0,0,0,0,0,0,3,1,1,0,86,85,82,0,0,0,0,0,0,0,0,0,0,0,0,0,0,0,0,0,0,0,0,0,0,0,0,0,0,0,0,0.0,0.0,0.0,0.0,0,0,0.0,0,0.0,-1,0.0,,0,0.0,0.0515
3108,0,0.0518,,-0.02,0.03,-0.05,0,1,0,0.06,0.06,96,,,,,,,,,,,,,,,,,,,,,,,,,,,,,,,,,,,,,,,,,,,,,,,,,,,,,,,,,,,,,,,,,,,,,,,,,,,,,,,,,,,,,,,,,,,,,,,,,,,,,,,,,,,,,,,,,,,
3148,0,0.0525,,-0.02,0.03,-0.05,0,1,0,0.06,0.06,97,,,,,,,,,,,,,,,,,,,,,,,,,,,,,,,,,,,,,,,,,,,,,,,,,,,,,,,,,,,,,,,,,,,,,,,,,,,,,,,,,,,,,,,,,,,,,,,,,,,,,,,,,,,,,,,,,,,
3188,0,0.0531,,-0.02,0.03,-0.05,0,1,0,0.06,0.06,94,0,0,0,0,0,0,0,1,0,0,0,0,1,9,2,1,12,0,0,24,0,0,138,7,7,0,0,0,0,1,3,1,1,0,84,82,78,0,0,0,0,0,0,0,3,1,1,0,86,84,78,0,0,0,0,0,0,0,0,0,0,0,0,0,0,3,1,1,0,86,85,82,0,0,0,0,0,0,0,0,0,0,0,0,0,0,0,0,0,0,0,0,0,0,0,0,0,0,0,0,0.0,0.0,0.0,0.0,0,0,0.0,0,0.0,-1,0.0,0.0,0,0.0,0.0531
3228,0,0.0538,,-0.02,0.03,-0.05,0,1,0,0.06,0.06,94,,,,,,,,,,,,,,,,,,,,,,,,,,,,,,,,,,,,,,,,,,,,,,,,,,,,,,,,,,,,,,,,,,,,,,,,,,,,,,,,,,,,,,,,,,,,,,,,,,,,,,,,,,,,,,,,,,,
3268,0,0.0545,,-0.02,0.03,-0.05,0,1,0,0.06,0.06,93,,,,,,,,,,,,,,,,,,,,,,,,,,,,,,,,,,,,,,,,,,,,,,,,,,,,,,,,,,,,,,,,,,,,,,,,,,,,,,,,,,,,,,,,,,,,,,,,,,,,,,,,,,,,,,,,,,,
3288,0,0.0548,,,,,,,,,,,0,0,0,0,32,0,0,1,0,0,0,0,0,9,7,1,12,0,0,24,0,0,138,7,7,0,0,0,0,1,3,1,1,0,84,82,78,0,0,0,0,0,0,0,0,3,3,3,0,347,346,0,0,0,0,0,0,0,0,0,0,0,0,0,0,3,1,1,0,86,85,82,0,0,0,0,0,0,0,0,0,0,0,0,0,0,0,0,0,0,0,0,0,0,0,0,0,0,0,0,0.0,0.0,0.0,0.0,0,0,0.0,0,0.0,-1,0.0,,0,0.0,0.0548
3308,0,0.0551,,-0.02,0.03,-0.05,0,1,0,0.06,0.06,94,,,,,,,,,,,,,,,,,,,,,,,,,,,,,,,,,,,,,,,,,,,,,,,,,,,,,,,,,,,,,,,,,,,,,,,,,,,,,,,,,,,,,,,,,,,,,,,,,,,,,,,,,,,,,,,,,,,
3348,0,0.0558,,-0.02,0.03,-0.05,0,1,0,0.06,0.06,95,,,,,,,,,,,,,,,,,,,,,,,,,,,,,,,,,,,,,,,,,,,,,,,,,,,,,,,,,,,,,,,,,,,,,,,,,,,,,,,,,,,,,,,,,,,,,,,,,,,,,,,,,,,,,,,,,,,
3388,0,0.0565,12.5,-0.02,0.03,-0.05,0,1,0,0.06,0.06,94,0,0,0,0,32,0,0,1,0,0,0,0,0,9,7,1,12,0,0,24,0,0,138,7,7,0,0,0,0,1,3,1,1,0,84,82,78,0,0,0,0,0,0,0,0,3,3,3,0,347,346,0,0,0,0,0,0,0,0,0,0,0,0,0,0,3,1,1,0,86,85,82,0,0,0,0,0,0,0,0,0,0,0,0,0,0,0,0,0,0,0,0,0,0,0,0,0,0,0,0,0.0,0.0,0.0,0.0,0,0,0.0,0,0.0,-1,0.0,0.0,0,0.0,0.0565
3428,0,0.0571,,-0.02,0.03,-0.05,0,1,0,0.06,0.06,94,,,,,,,,,,,,,,,,,,,,,,,,,,,,,,,,,,,,,,,,,,,,,,,,,,,,,,,,,,,,,,,,,,,,,,,,,,,,,,,,,,,,,,,,,,,,,,,,,,,,,,,,,,,,,,,,,,,
3468,0,0.0578,,-0.02,0.03,-0.05,0,1,0,0.06,0.06,95,,,,,,,,,,,,,,,,,,,,,,,,,,,,,,,,,,,,,,,,,,,,,,,,,,,,,,,,,,,,,,,,,,,,,,,,,,,,,,,,,,,,,,,,,,,,,,,,,,,,,,,,,,,,,,,,,,,
3488,0,0.0581,,,,,,,,,,,0,0,0,0,32,0,0,1,0,0,0,0,0,9,7,1,12,0,0,24,0,0,138,7,7,0,0,0,0,1,3,1,1,0,84,82,78,0,0,0,0,0,0,0,0,3,3,3,0,347,346,0,0,0,0,0,0,0,0,0,0,0,0,0,0,3,1,1,0,86,85,82,0,0,0,0,0,0,0,0,0,0,0,0,0,0,0,0,0,0,0,0,0,0,0,0,0,0,0,0,0.0,0.0,0.0,0.0,0,0,0.0,0,0.0,-1,0.0,,0,0.0,0.0581
3508,0,0.0585,,-0.02,0.03,-0.05,0,1,0,0.06,0.06,96,,,,,,,,,,,,,,,,,,,,,,,,,,,,,,,,,,,,,,,,,,,,,,,,,,,,,,,,,,,,,,,,,,,,,,,,,,,,,,,,,,,,,,,,,,,,,,,,,,,,,,,,,,,,,,,,,,,
3548,0,0.0591,,-0.02,0.03,-0.05,0,1,0,0.06,0.06,96,,,,,,,,,,,,,,,,,,,,,,,,,,,,,,,,,,,,,,,,,,,,,,,,,,,,,,,,,,,,,,,,,,,,,,,,,,,,,,,,,,,,,,,,,,,,,,,,,,,,,,,,,,,,,,,,,,,
3588,0,0.0598,,-0.02,0.03,-0.05,0,1,0,0.06,0.06,95,0,0,0,0,32,0,0,1,0,0,0,0,0,9,7,1,12,0,0,24,0,0,138,7,7,0,0,0,0,1,3,1,1,0,84,82,78,0,0,0,0,0,0,0,0,3,3,3,0,347,346,0,0,0,0,0,0,0,0,0,0,0,0,0,0,3,1,1,0,86,85,82,0,0,0,0,0,0,0,0,0,0,0,0,0,0,0,0,0,0,0,0,0,0,0,0,0,0,0,0,0.0,0.0,0.0,0.0,0,0,0.0,0,0.0,-1,0.0,0.0,0,0.0,0.0598
3628,0,0.0605,,-0.02,0.03,-0.05,0,1,0,0.06,0.06,94,,,,,,,,,,,,,,,,,,,,,,,,,,,,,,,,,,,,,,,,,,,,,,,,,,,,,,,,,,,,,,,,,,,,,,,,,,,,,,,,,,,,,,,,,,,,,,,,,,,,,,,,,,,,,,,,,,,
3668,0,0.0611,,-0.02,0.03,-0.05,0,1,0,0.06,0.06,97,,,,,,,,,,,,,,,,,,,,,,,,,,,,,,,,,,,,,,,,,,,,,,,,,,,,,,,,,,,,,,,,,,,,,,,,,,,,,,,,,,,,,,,,,,,,,,,,,,,,,,,,,,,,,,,,,,,
3688,0,0.0615,,,,,,,,,,,0,0,0,0,32,0,0,1,0,0,0,0,0,9,7,1,12,0,0,24,0,0,138,7,7,0,0,0,0,1,3,1,1,0,84,82,78,0,0,0,0,0,0,0,0,3,3,3,0,347,346,0,0,0,0,0,0,0,0,0,0,0,0,0,0,3,1,1,0,86,85,82,0,0,0,0,0,0,0,0,0,0,0,0,0,0,0,0,0,0,0,0,0,0,0,0,0,0,0,0,0.0,0.0,0.0,0.0,0,0,0.0,0,0.0,-1,0.0,,0,0.0,0.0615
3708,0,0.0618,,-0.02,0.03,-0.05,0,1,0,0.06,0.06,98,,,,,,,,,,,,,,,,,,,,,,,,,,,,,,,,,,,,,,,,,,,,,,,,,,,,,,,,,,,,,,,,,,,,,,,,,,,,,,,,,,,,,,,,,,,,,,,,,,,,,,,,,,,,,,,,,,,
3748,0,0.0625,,-0.02,0.03,-0.05,0,1,0,0.06,0.06,97,,,,,,,,,,,,,,,,,,,,,,,,,,,,,,,,,,,,,,,,,,,,,,,,,,,,,,,,,,,,,,,,,,,,,,,,,,,,,,,,,,,,,,,,,,,,,,,,,,,,,,,,,,,,,,,,,,,
3788,0,0.0631,,-0.02,0.03,-0.05,0,1,0,0.06,0.06,97,0,0,0,0,32,0,0,1,0,0,0,0,0,9,7,1,12,0,0,24,0,0,138,8,8,0,0,0,0,1,3,1,1,0,84,82,78,0,0,0,0,0,0,0,0,3,3,3,0,347,346,0,0,0,0,0,0,0,0,0,0,0,0,0,0,3,1,1,0,86,85,82,0,0,0,0,0,0,0,0,0,0,0,0,0,0,0,0,0,0,0,0,0,0,0,0,0,0,0,0,0.0,0.0,0.0,0.0,0,0,0.0,0,0.0,-1,0.0,0.0,0,0.0,0.0631
3828,0,0.0638,,-0.02,0.03,-0.05,0,1,0,0.06,0.06,97,,,,,,,,,,,,,,,,,,,,,,,,,,,,,,,,,,,,,,,,,,,,,,,,,,,,,,,,,,,,,,,,,,,,,,,,,,,,,,,,,,,,,,,,,,,,,,,,,,,,,,,,,,,,,,,,,,,
3868,0,0.0645,,-0.02,0.02,-0.05,0,1,0,0.06,0.06,96,,,,,,,,,,,,,,,,,,,,,,,,,,,,,,,,,,,,,,,,,,,,,,,,,,,,,,,,,,,,,,,,,,,,,,,,,,,,,,,,,,,,,,,,,,,,,,,,,,,,,,,,,,,,,,,,,,,
3888,0,0.0648,,,,,,,,,,,0,0,0,0,32,0,0,1,0,0,0,0,0,9,7,1,12,0,0,24,0,0,138,8,8,0,0,0,0,1,3,1,1,0,84,82,78,0,0,0,0,0,0,0,0,3,3,3,0,347,346,0,0,0,0,0,0,0,0,0,0,0,0,0,0,3,1,1,0,86,85,82,0,0,0,0,0,0,0,0,0,0,0,0,0,0,0,0,0,0,0,0,0,0,0,0,0,0,0,0,0.0,0.0,0.0,0.0,0,0,0.0,0,0.0,-1,0.0,,0,0.0,0.0648
3908,0,0.0651,,-0.02,0.02,-0.05,0,1,0,0.06,0.06,94,,,,,,,,,,,,,,,,,,,,,,,,,,,,,,,,,,,,,,,,,,,,,,,,,,,,,,,,,,,,,,,,,,,,,,,,,,,,,,,,,,,,,,,,,,,,,,,,,,,,,,,,,,,,,,,,,,,
3948,0,0.0658,,-0.02,0.02,-0.05,0,1,0,0.06,0.06,93,,,,,,,,,,,,,,,,,,,,,,,,,,,,,,,,,,,,,,,,,,,,,,,,,,,,,,,,,,,,,,,,,,,,,,,,,,,,,,,,,,,,,,,,,,,,,,,,,,,,,,,,,,,,,,,,,,,
3988,0,0.0665,,-0.02,0.02,-0.05,0,1,0,0.06,0.06,93,0,0,0,0,32,0,0,1,0,0,0,0,0,9,7,1,12,0,0,24,0,0,138,8,8,0,0,0,0,1,3,1,1,0,84,82,78,0,0,0,0,0,0,0,0,3,3,3,0,347,346,0,0,0,0,0,0,0,0,0,0,0,0,0,0,3,1,1,0,86,85,82,0,0,0,0,0,0,0,0,0,0,0,0,0,0,0,0,0,0,0,0,0,0,0,0,0,0,0,0,0.0,0.0,0.0,0.0,0,0,0.0,0,0.0,-1,0.0,0.0,0,0.0,0.0665
4028,0,0.0671,,-0.02,0.03,-0.05,0,1,0,0.06,0.06,96,,,,,,,,,,,,,,,,,,,,,,,,,,,,,,,,,,,,,,,,,,,,,,,,,,,,,,,,,,,,,,,,,,,,,,,,,,,,,,,,,,,,,,,,,,,,,,,,,,,,,,,,,,,,,,,,,,,
4068,0,0.0678,,-0.02,0.03,-0.05,0,1,0,0.06,0.06,96,,,,,,,,,,,,,,,,,,,,,,,,,,,,,,,,,,,,,,,,,,,,,,,,,,,,,,,,,,,,,,,,,,,,,,,,,,,,,,,,,,,,,,,,,,,,,,,,,,,,,,,,,,,,,,,,,,,
4088,0,0.0681,,,,,,,,,,,0,0,0,0,32,0,0,1,0,0,0,0,0,9,7,1,12,0,0,24,0,0,138,8,8,0,0,0,0,1,3,1,1,0,84,82,78,0,0,0,0,0,0,0,0,3,3,3,0,347,346,0,0,0,0,0,0,0,0,0,0,0,0,0,0,3,1,1,0,86,85,82,0,0,0,0,0,0,0,0,0,0,0,0,0,0,0,0,0,0,0,0,0,0,0,0,0,0,0,0,0.0,0.0,0.0,0.0,0,0,0.0,0,0.0,-1,0.0,,0,0.0,0.0681
4108,0,0.0685,,-0.02,0.03,-0.05,0,1,0,0.06,0.06,95,,,,,,,,,,,,,,,,,,,,,,,,,,,,,,,,,,,,,,,,,,,,,,,,,,,,,,,,,,,,,,,,,,,,,,,,,,,,,,,,,,,,,,,,,,,,,,,,,,,,,,,,,,,,,,,,,,,
4148,0,0.0691,,-0.02,0.03,-0.05,0,1,0,0.06,0.06,95,,,,,,,,,,,,,,,,,,,,,,,,,,,,,,,,,,,,,,,,,,,,,,,,,,,,,,,,,,,,,,,,,,,,,,,,,,,,,,,,,,,,,,,,,,,,,,,,,,,,,,,,,,,,,,,,,,,
4188,0,0.0698,,-0.02,0.03,-0.05,0,1,0,0.06,0.06,95,0,0,0,0,32,0,0,1,0,0,0,0,0,9,7,1,12,0,0,24,0,0,138,8,8,0,0,0,0,1,3,1,1,0,84,82,78,0,0,0,0,0,0,0,0,3,3,3,0,347,346,0,0,0,0,0,0,0,0,0,0,0,0,0,0,3,1,1,0,86,85,82,0,0,0,0,0,0,0,0,0,0,0,0,0,0,0,0,0,0,0,0,0,0,0,0,0,0,0,0,0.0,0.0,0.0,0.0,0,0,0.0,0,0.0,-1,0.0,0.0,0,0.0,0.0698
4228,0,0.0705,,-0.02,0.03,-0.05,0,1,0,0.06,0.06,95,,,,,,,,,,,,,,,,,,,,,,,,,,,,,,,,,,,,,,,,,,,,,,,,,,,,,,,,,,,,,,,,,,,,,,,,,,,,,,,,,,,,,,,,,,,,,,,,,,,,,,,,,,,,,,,,,,,
4268,0,0.0711,,-0.02,0.03,-0.05,0,1,0,0.06,0.06,96,,,,,,,,,,,,,,,,,,,,,,,,,,,,,,,,,,,,,,,,,,,,,,,,,,,,,,,,,,,,,,,,,,,,,,,,,,,,,,,,,,,,,,,,,,,,,,,,,,,,,,,,,,,,,,,,,,,
4288,0,0.0715,,,,,,,,,,,0,0,0,0,32,0,0,1,0,0,0,0,0,9,7,1,12,0,0,24,0,0,138,9,9,0,0,0,0,1,3,1,1,0,84,82,78,0,0,0,0,0,0,0,3,1,1,0,86,84,80,0,0,0,0,0,0,0,0,0,0,0,0,0,0,3,1,1,0,86,85,82,0,0,0,0,0,0,0,0,0,0,0,0,0,0,0,0,0,0,0,0,0,0,0,0,0,0,0,0,0.0,0.0,0.0,0.0,0,0,0.0,0,0.0,-1,0.0,,0,0.0,0.0715
4308,0,0.0718,,-0.02,0.03,-0.05,0,1,0,0.06,0.06,97,,,,,,,,,,,,,,,,,,,,,,,,,,,,,,,,,,,,,,,,,,,,,,,,,,,,,,,,,,,,,,,,,,,,,,,,,,,,,,,,,,,,,,,,,,,,,,,,,,,,,,,,,,,,,,,,,,,
4348,0,0.0725,,-0.02,0.03,-0.05,0,1,0,0.06,0.06,97,,,,,,,,,,,,,,,,,,,,,,,,,,,,,,,,,,,,,,,,,,,,,,,,,,,,,,,,,,,,,,,,,,,,,,,,,,,,,,,,,,,,,,,,,,,,,,,,,,,,,,,,,,,,,,,,,,,
4388,0,0.0731,12.47,-0.02,0.03,-0.05,0,1,0,0.06,0.06,95,0,0,0,0,32,0,0,1,0,0,0,0,0,9,7,1,12,0,0,24,0,0,138,9,9,0,0,0,0,1,3,1,1,0,84,82,78,0,0,0,0,0,0,0,3,1,1,0,86,84,80,0,0,0,0,0,0,0,0,0,0,0,0,0,0,3,1,1,0,86,85,82,0,0,0,0,0,0,0,0,0,0,0,0,0,0,0,0,0,0,0,0,0,0,0,0,0,0,0,0,0.0,0.0,0.0,0.0,0,0,0.0,0,0.0,-1,0.0,0.0,0,0.0,0.0731
4428,0,0.0738,,-0.02,0.03,-0.05,0,1,0,0.06,0.06,95,,,,,,,,,,,,,,,,,,,,,,,,,,,,,,,,,,,,,,,,,,,,,,,,,,,,,,,,,,,,,,,,,,,,,,,,,,,,,,,,,,,,,,,,,,,,,,,,,,,,,,,,,,,,,,,,,,,
4468,0,0.0745,,-0.02,0.03,-0.05,0,1,0,0.06,0.06,96,,,,,,,,,,,,,,,,,,,,,,,,,,,,,,,,,,,,,,,,,,,,,,,,,,,,,,,,,,,,,,,,,,,,,,,,,,,,,,,,,,,,,,,,,,,,,,,,,,,,,,,,,,,,,,,,,,,
4488,0,0.0748,,,,,,,,,,,0,0,0,0,32,0,0,1,0,0,0,0,0,9,7,1,12,0,0,24,0,0,138,9,9,0,0,0,0,1,3,1,1,0,84,82,78,0,0,0,0,0,0,0,3,1,1,0,86,84,80,0,0,0,0,0,0,0,0,0,0,0,0,0,0,3,1,1,0,86,85,82,0,0,0,0,0,0,0,0,0,0,0,0,0,0,0,0,0,0,0,0,0,0,0,0,0,0,0,0,0.0,0.0,0.0,0.0,0,0,0.0,0,0.0,-1,0.0,,0,0.0,0.0748
4508,0,0.0751,,-0.02,0.03,-0.05,0,1,0,0.06,0.06,96,,,,,,,,,,,,,,,,,,,,,,,,,,,,,,,,,,,,,,,,,,,,,,,,,,,,,,,,,,,,,,,,,,,,,,,,,,,,,,,,,,,,,,,,,,,,,,,,,,,,,,,,,,,,,,,,,,,
4548,0,0.0758,,-0.02,0.03,-0.05,0,1,0,0.06,0.06,96,,,,,,,,,,,,,,,,,,,,,,,,,,,,,,,,,,,,,,,,,,,,,,,,,,,,,,,,,,,,,,,,,,,,,,,,,,,,,,,,,,,,,,,,,,,,,,,,,,,,,,,,,,,,,,,,,,,
4588,0,0.0765,,-0.02,0.03,-0.05,0,1,0,0.06,0.06,95,0,0,0,0,32,0,0,1,0,0,0,0,0,9,7,1,12,0,0,24,0,0,138,9,9,0,0,0,0,1,3,1,1,0,84,82,78,0,0,0,0,0,0,0,3,1,1,0,86,84,80,0,0,0,0,0,0,0,0,0,0,0,0,0,0,0,3,3,3,1,350,349,0,0,0,0,0,0,0,0,0,0,0,0,0,0,0,0,0,0,0,0,0,0,0,0,0,0,0,0,0.0,0.0,0.0,0.0,0,0,0.0,0,0.0,-1,0.0,0.0,0,0.0,0.0765
4628,0,0.0771,,-0.02,0.03,-0.05,0,1,0,0.06,0.06,95,,,,,,,,,,,,,,,,,,,,,,,,,,,,,,,,,,,,,,,,,,,,,,,,,,,,,,,,,,,,,,,,,,,,,,,,,,,,,,,,,,,,,,,,,,,,,,,,,,,,,,,,,,,,,,,,,,,
4668,0,0.0778,,-0.02,0.03,-0.05,0,1,0,0.06,0.06,93,,,,,,,,,,,,,,,,,,,,,,,,,,,,,,,,,,,,,,,,,,,,,,,,,,,,,,,,,,,,,,,,,,,,,,,,,,,,,,,,,,,,,,,,,,,,,,,,,,,,,,,,,,,,,,,,,,,
4688,0,0.0781,,,,,,,,,,,0,0,0,0,32,0,0,1,0,0,0,0,0,9,7,1,12,0,0,24,0,0,138,9,9,0,0,0,0,1,3,1,1,0,84,82,78,0,0,0,0,0,0,0,3,1,1,0,86,84,80,0,0,0,0,0,0,0,0,0,0,0,0,0,0,0,3,3,3,1,350,349,0,0,0,0,0,0,0,0,0,0,0,0,0,0,0,0,0,0,0,0,0,0,0,0,0,0,0,0,0.0,0.0,0.0,0.0,0,0,0.0,0,0.0,-1,0.0,,0,0.0,0.0781
4708,0,0.0785,,-0.02,0.03,-0.05,0,1,0,0.06,0.06,93,,,,,,,,,,,,,,,,,,,,,,,,,,,,,,,,,,,,,,,,,,,,,,,,,,,,,,,,,,,,,,,,,,,,,,,,,,,,,,,,,,,,,,,,,,,,,,,,,,,,,,,,,,,,,,,,,,,
4748,0,0.0791,,-0.02,0.03,-0.05,0,1,0,0.06,0.06,95,,,,,,,,,,,,,,,,,,,,,,,,,,,,,,,,,,,,,,,,,,,,,,,,,,,,,,,,,,,,,,,,,,,,,,,,,,,,,,,,,,,,,,,,,,,,,,,,,,,,,,,,,,,,,,,,,,,
4788,0,0.0798,,-0.02,0.03,-0.05,0,1,0,0.06,0.06,98,0,0,0,0,32,0,0,1,0,0,0,0,0,9,7,1,12,0,0,24,0,0,138,10,10,0,0,0,0,1,3,1,1,0,84,82,78,0,0,0,0,0,0,0,3,1,1,0,86,84,80,0,0,0,0,0,0,0,0,0,0,0,0,0,0,0,3,3,3,1,350,349,0,0,0,0,0,0,0,0,0,0,0,0,0,0,0,0,0,0,0,0,0,0,0,0,0,0,0,0,0.0,0.0,0.0,0.0,0,0,0.0,0,0.0,-1,0.0,0.0,0,0.0,0.0798
4828,0,0.0805,,-0.02,0.03,-0.05,0,1,0,0.06,0.06,97,,,,,,,,,,,,,,,,,,,,,,,,,,,,,,,,,,,,,,,,,,,,,,,,,,,,,,,,,,,,,,,,,,,,,,,,,,,,,,,,,,,,,,,,,,,,,,,,,,,,,,,,,,,,,,,,,,,
4868,0,0.0811,,-0.02,0.03,-0.05,0,1,0,0.06,0.06,96,,,,,,,,,,,,,,,,,,,,,,,,,,,,,,,,,,,,,,,,,,,,,,,,,,,,,,,,,,,,,,,,,,,,,,,,,,,,,,,,,,,,,,,,,,,,,,,,,,,,,,,,,,,,,,,,,,,
4888,0,0.0815,,,,,,,,,,,0,0,0,0,32,0,0,1,0,0,0,0,0,9,7,1,12,0,0,24,0,0,138,10,10,0,0,0,0,1,3,1,1,0,84,82,78,0,0,0,0,0,0,0,3,1,1,0,86,84,80,0,0,0,0,0,0,0,0,0,0,0,0,0,0,0,3,3,3,1,350,349,0,0,0,0,0,0,0,0,0,0,0,0,0,0,0,0,0,0,0,0,0,0,0,0,0,0,0,0,0.0,0.0,0.0,0.0,0,0,0.0,0,0.0,-1,0.0,,0,0.0,0.0815
4908,0,0.0818,,-0.02,0.03,-0.05,0,1,0,0.06,0.06,96,,,,,,,,,,,,,,,,,,,,,,,,,,,,,,,,,,,,,,,,,,,,,,,,,,,,,,,,,,,,,,,,,,,,,,,,,,,,,,,,,,,,,,,,,,,,,,,,,,,,,,,,,,,,,,,,,,,
4948,0,0.0825,,-0.02,0.03,-0.05,0,1,0,0.06,0.06,97,,,,,,,,,,,,,,,,,,,,,,,,,,,,,,,,,,,,,,,,,,,,,,,,,,,,,,,,,,,,,,,,,,,,,,,,,,,,,,,,,,,,,,,,,,,,,,,,,,,,,,,,,,,,,,,,,,,
4988,0,0.0831,,-0.02,0.03,-0.05,0,1,0,0.06,0.06,98,0,0,0,0,32,0,0,1,0,0,0,0,0,9,7,1,12,0,0,24,0,0,138,10,10,0,0,0,0,1,3,1,1,0,84,82,78,0,0,0,0,0,0,0,3,1,1,0,86,84,80,0,0,0,0,0,0,0,0,0,0,0,0,0,0,0,3,3,3,1,350,349,0,0,0,0,0,0,0,0,0,0,0,0,0,0,0,0,0,0,0,0,0,0,0,0,0,0,0,0,0.0,0.0,0.0,0.0,0,0,0.0,0,0.0,-1,0.0,0.0,0,0.0,0.0831
5028,0,0.0838,,-0.02,0.03,-0.05,0,1,0,0.06,0.06,98,,,,,,,,,,,,,,,,,,,,,,,,,,,,,,,,,,,,,,,,,,,,,,,,,,,,,,,,,,,,,,,,,,,,,,,,,,,,,,,,,,,,,,,,,,,,,,,,,,,,,,,,,,,,,,,,,,,
5068,0,0.0845,,-0.02,0.03,-0.05,0,1,0,0.06,0.06,97,,,,,,,,,,,,,,,,,,,,,,,,,,,,,,,,,,,,,,,,,,,,,,,,,,,,,,,,,,,,,,,,,,,,,,,,,,,,,,,,,,,,,,,,,,,,,,,,,,,,,,,,,,,,,,,,,,,
5088,0,0.0848,,,,,,,,,,,0,0,0,0,32,0,0,1,0,0,0,0,0,9,7,1,12,0,0,24,0,0,138,10,10,0,0,0,0,1,3,1,1,0,84,82,78,0,0,0,0,0,0,0,3,1,1,0,86,84,80,0,0,0,0,0,0,0,0,0,0,0,0,0,0,0,3,3,3,1,350,349,0,0,0,0,0,0,0,0,0,0,0,0,0,0,0,0,0,0,0,0,0,0,0,0,0,0,0,0,0.0,0.0,0.0,0.0,0,0,0.0,0,0.0,-1,0.0,,0,0.0,0.0848
5108,0,0.0851,,-0.02,0.03,-0.05,0,1,0,0.06,0.06,97,,,,,,,,,,,,,,,,,,,,,,,,,,,,,,,,,,,,,,,,,,,,,,,,,,,,,,,,,,,,,,,,,,,,,,,,,,,,,,,,,,,,,,,,,,,,,,,,,,,,,,,,,,,,,,,,,,,
5148,0,0.0858,,-0.02,0.03,-0.05,0,1,0,0.06,0.06,98,,,,,,,,,,,,,,,,,,,,,,,,,,,,,,,,,,,,,,,,,,,,,,,,,,,,,,,,,,,,,,,,,,,,,,,,,,,,,,,,,,,,,,,,,,,,,,,,,,,,,,,,,,,,,,,,,,,
5188,0,0.0865,,-0.02,0.03,-0.05,0,1,0,0.06,0.06,97,0,0,0,0,32,0,0,1,0,0,0,0,0,9,7,1,12,0,0,24,0,0,138,10,10,0,0,0,0,1,3,1,1,0,84,82,78,0,0,0,0,0,0,0,3,1,1,0,86,84,80,0,0,0,0,0,0,0,0,0,0,0,0,0,0,0,3,3,3,1,350,349,0,0,0,0,0,0,0,0,0,0,0,0,0,0,0,0,0,0,0,0,0,0,0,0,0,0,0,0,0.0,0.0,0.0,0.0,0,0,0.0,0,0.0,-1,0.0,0.0,0,0.0,0.0865
5228,0,0.0871,,-0.02,0.03,-0.05,0,1,0,0.06,0.06,97,,,,,,,,,,,,,,,,,,,,,,,,,,,,,,,,,,,,,,,,,,,,,,,,,,,,,,,,,,,,,,,,,,,,,,,,,,,,,,,,,,,,,,,,,,,,,,,,,,,,,,,,,,,,,,,,,,,
5268,0,0.0878,,-0.02,0.03,-0.05,0,1,0,0.06,0.06,96,,,,,,,,,,,,,,,,,,,,,,,,,,,,,,,,,,,,,,,,,,,,,,,,,,,,,,,,,,,,,,,,,,,,,,,,,,,,,,,,,,,,,,,,,,,,,,,,,,,,,,,,,,,,,,,,,,,
5288,0,0.0881,,,,,,,,,,,0,0,0,0,32,0,0,1,0,0,0,0,0,9,7,1,12,0,0,24,0,0,138,10,10,0,0,0,0,1,3,1,1,0,84,82,78,0,0,0,0,0,0,0,3,1,1,0,86,84,80,0,0,0,0,0,0,0,0,0,0,0,0,0,0,0,3,3,3,1,350,349,0,0,0,0,0,0,0,0,0,0,0,0,0,0,0,0,0,0,0,0,0,0,0,0,0,0,0,0,0.0,0.0,0.0,0.0,0,0,0.0,0,0.0,-1,0.0,,0,0.0,0.0881
5308,0,0.0885,,-0.02,0.03,-0.05,0,1,0,0.06,0.06,96,,,,,,,,,,,,,,,,,,,,,,,,,,,,,,,,,,,,,,,,,,,,,,,,,,,,,,,,,,,,,,,,,,,,,,,,,,,,,,,,,,,,,,,,,,,,,,,,,,,,,,,,,,,,,,,,,,,
5348,0,0.0891,,-0.02,0.03,-0.05,0,1,0,0.06,0.06,96,,,,,,,,,,,,,,,,,,,,,,,,,,,,,,,,,,,,,,,,,,,,,,,,,,,,,,,,,,,,,,,,,,,,,,,,,,,,,,,,,,,,,,,,,,,,,,,,,,,,,,,,,,,,,,,,,,,
5388,0,0.0898,12.48,-0.02,0.03,-0.05,0,1,0,0.06,0.06,96,0,0,0,0,32,0,0,1,0,0,0,0,0,9,7,1,12,0,0,24,0,0,138,11,11,0,0,0,0,1,3,1,1,0,84,82,78,0,0,0,0,0,0,0,3,1,1,0,86,84,80,0,0,0,0,0,0,0,0,0,0,0,0,0,0,0,3,3,3,1,350,349,0,0,0,0,0,0,0,0,0,0,0,0,0,0,0,0,0,0,0,0,0,0,0,0,0,0,0,0,0.0,0.0,0.0,0.0,0,0,0.0,0,0.0,-1,0.0,0.0,0,0.0,0.0898
5428,0,0.0905,,-0.02,0.03,-0.05,0,1,0,0.06,0.06,95,,,,,,,,,,,,,,,,,,,,,,,,,,,,,,,,,,,,,,,,,,,,,,,,,,,,,,,,,,,,,,,,,,,,,,,,,,,,,,,,,,,,,,,,,,,,,,,,,,,,,,,,,,,,,,,,,,,
5468,0,0.0911,,-0.02,0.03,-0.05,0,1,0,0.06,0.06,95,,,,,,,,,,,,,,,,,,,,,,,,,,,,,,,,,,,,,,,,,,,,,,,,,,,,,,,,,,,,,,,,,,,,,,,,,,,,,,,,,,,,,,,,,,,,,,,,,,,,,,,,,,,,,,,,,,,
5488,0,0.0915,,,,,,,,,,,0,0,0,0,32,0,0,1,0,0,0,0,0,9,7,1,12,0,0,24,0,0,138,11,11,0,0,0,0,1,3,1,1,0,84,82,78,0,0,0,0,0,0,0,3,1,1,0,86,84,80,0,0,0,0,0,0,0,0,0,0,0,0,0,0,0,3,3,3,1,350,349,0,0,0,0,0,0,0,0,0,0,0,0,0,0,0,0,0,0,0,0,0,0,0,0,0,0,0,0,0.0,0.0,0.0,0.0,0,0,0.0,0,0.0,-1,0.0,,0,0.0,0.0915
5508,0,0.0918,,-0.02,0.03,-0.05,0,1,0,0.06,0.06,95,,,,,,,,,,,,,,,,,,,,,,,,,,,,,,,,,,,,,,,,,,,,,,,,,,,,,,,,,,,,,,,,,,,,,,,,,,,,,,,,,,,,,,,,,,,,,,,,,,,,,,,,,,,,,,,,,,,
5548,0,0.0925,,-0.02,0.03,-0.05,0,1,0,0.06,0.06,96,,,,,,,,,,,,,,,,,,,,,,,,,,,,,,,,,,,,,,,,,,,,,,,,,,,,,,,,,,,,,,,,,,,,,,,,,,,,,,,,,,,,,,,,,,,,,,,,,,,,,,,,,,,,,,,,,,,
5588,0,0.0931,,-0.02,0.03,-0.05,0,1,0,0.06,0.06,96,0,0,0,0,32,0,0,1,0,0,0,0,0,9,7,1,12,0,0,24,0,0,138,11,11,0,0,0,0,1,3,1,1,0,84,82,78,0,0,0,0,0,0,0,3,1,1,0,86,84,80,0,0,0,0,0,0,0,0,0,0,0,0,0,0,3,1,1,0,86,85,82,0,0,0,0,0,0,0,0,0,0,0,0,0,0,0,0,0,0,0,0,0,0,0,0,0,0,0,0,0.0,0.0,0.0,0.0,0,0,0.0,0,0.0,-1,0.0,0.0,0,0.0,0.0931
5628,0,0.0938,,-0.02,0.03,-0.05,0,1,0,0.06,0.06,96,,,,,,,,,,,,,,,,,,,,,,,,,,,,,,,,,,,,,,,,,,,,,,,,,,,,,,,,,,,,,,,,,,,,,,,,,,,,,,,,,,,,,,,,,,,,,,,,,,,,,,,,,,,,,,,,,,,
5668,0,0.0945,,-0.02,0.03,-0.05,0,1,0,0.06,0.06,95,,,,,,,,,,,,,,,,,,,,,,,,,,,,,,,,,,,,,,,,,,,,,,,,,,,,,,,,,,,,,,,,,,,,,,,,,,,,,,,,,,,,,,,,,,,,,,,,,,,,,,,,,,,,,,,,,,,
5688,0,0.0948,,,,,,,,,,,0,0,0,0,32,0,0,1,0,0,0,0,0,9,7,1,12,0,0,24,0,0,138,11,11,0,0,0,0,1,3,1,1,0,84,82,78,0,0,0,0,0,0,0,3,1,1,0,86,84,80,0,0,0,0,0,0,0,0,0,0,0,0,0,0,3,1,1,0,86,85,82,0,0,0,0,0,0,0,0,0,0,0,0,0,0,0,0,0,0,0,0,0,0,0,0,0,0,0,0,0.0,0.0,0.0,0.0,0,0,0.0,0,0.0,-1,0.0,,0,0.0,0.0948
5708,0,0.0951,,-0.02,0.03,-0.05,0,1,0,0.06,0.06,96,,,,,,,,,,,,,,,,,,,,,,,,,,,,,,,,,,,,,,,,,,,,,,,,,,,,,,,,,,,,,,,,,,,,,,,,,,,,,,,,,,,,,,,,,,,,,,,,,,,,,,,,,,,,,,,,,,,
5748,0,0.0958,,-0.02,0.03,-0.05,0,1,0,0.06,0.06,95,,,,,,,,,,,,,,,,,,,,,,,,,,,,,,,,,,,,,,,,,,,,,,,,,,,,,,,,,,,,,,,,,,,,,,,,,,,,,,,,,,,,,,,,,,,,,,,,,,,,,,,,,,,,,,,,,,,
5788,0,0.0965,,-0.02,0.03,-0.05,0,1,0,0.06,0.06,94,0,0,0,0,32,0,0,1,0,0,0,0,0,9,7,1,12,0,0,24,0,0,138,11,11,0,0,0,0,1,3,1,1,0,84,82,78,0,0,0,0,0,0,0,3,1,1,0,86,84,80,0,0,0,0,0,0,0,0,0,0,0,0,0,0,3,1,1,0,86,85,82,0,0,0,0,0,0,0,0,0,0,0,0,0,0,0,0,0,0,0,0,0,0,0,0,0,0,0,0,0.0,0.0,0.0,0.0,0,0,0.0,0,0.0,-1,0.0,0.0,0,0.0,0.0965
5828,0,0.0971,,-0.02,0.03,-0.05,0,1,0,0.06,0.06,94,,,,,,,,,,,,,,,,,,,,,,,,,,,,,,,,,,,,,,,,,,,,,,,,,,,,,,,,,,,,,,,,,,,,,,,,,,,,,,,,,,,,,,,,,,,,,,,,,,,,,,,,,,,,,,,,,,,
5868,0,0.0978,,-0.02,0.03,-0.05,0,1,0,0.06,0.06,95,,,,,,,,,,,,,,,,,,,,,,,,,,,,,,,,,,,,,,,,,,,,,,,,,,,,,,,,,,,,,,,,,,,,,,,,,,,,,,,,,,,,,,,,,,,,,,,,,,,,,,,,,,,,,,,,,,,
5888,0,0.0981,,,,,,,,,,,0,0,0,0,32,0,0,1,0,0,0,0,0,9,7,1,12,0,0,24,0,0,138,11,11,0,0,0,0,1,3,1,1,0,84,82,78,0,0,0,0,0,0,0,3,1,1,0,86,84,80,0,0,0,0,0,0,0,0,0,0,0,0,0,0,3,1,1,0,86,85,82,0,0,0,0,0,0,0,0,0,0,0,0,0,0,0,0,0,0,0,0,0,0,0,0,0,0,0,0,0.0,0.0,0.0,0.0,0,0,0.0,0,0.0,-1,0.0,,0,0.0,0.0981
5908,0,0.0985,,-0.02,0.03,-0.05,0,1,0,0.06,0.06,98,,,,,,,,,,,,,,,,,,,,,,,,,,,,,,,,,,,,,,,,,,,,,,,,,,,,,,,,,,,,,,,,,,,,,,,,,,,,,,,,,,,,,,,,,,,,,,,,,,,,,,,,,,,,,,,,,,,
5948,0,0.0991,,-0.02,0.03,-0.05,0,1,0,0.06,0.06,97,,,,,,,,,,,,,,,,,,,,,,,,,,,,,,,,,,,,,,,,,,,,,,,,,,,,,,,,,,,,,,,,,,,,,,,,,,,,,,,,,,,,,,,,,,,,,,,,,,,,,,,,,,,,,,,,,,,
5988,0,0.0998,,-0.02,0.03,-0.05,0,1,0,0.06,0.06,95,0,0,0,0,32,0,0,1,0,0,0,0,0,9,7,1,12,0,0,24,0,0,138,12,12,0,0,0,0,1,3,1,1,0,84,82,78,0,0,0,0,0,0,0,3,1,1,0,86,84,80,0,0,0,0,0,0,0,0,0,0,0,0,0,0,3,1,1,0,86,85,82,0,0,0,0,0,0,0,0,0,0,0,0,0,0,0,0,0,0,0,0,0,0,0,0,0,0,0,0,0.0,0.0,0.0,0.0,0,0,0.0,0,0.0,-1,0.0,0.0,0,0.0,0.0998
6028,0,0.1005,,-0.02,0.03,-0.05,0,1,0,0.06,0.06,96,,,,,,,,,,,,,,,,,,,,,,,,,,,,,,,,,,,,,,,,,,,,,,,,,,,,,,,,,,,,,,,,,,,,,,,,,,,,,,,,,,,,,,,,,,,,,,,,,,,,,,,,,,,,,,,,,,,
6068,0,0.1011,,-0.02,0.03,-0.05,0,1,0,0.06,0.06,96,,,,,,,,,,,,,,,,,,,,,,,,,,,,,,,,,,,,,,,,,,,,,,,,,,,,,,,,,,,,,,,,,,,,,,,,,,,,,,,,,,,,,,,,,,,,,,,,,,,,,,,,,,,,,,,,,,,
6088,0,0.1015,,,,,,,,,,,0,0,0,0,32,0,0,1,0,0,0,0,0,9,7,1,12,0,0,24,0,0,138,12,12,0,0,0,0,1,3,1,1,0,84,82,78,0,0,0,0,0,0,0,3,1,1,0,86,84,80,0,0,0,0,0,0,0,0,0,0,0,0,0,0,3,1,1,0,86,85,82,0,0,0,0,0,0,0,0,0,0,0,0,0,0,0,0,0,0,0,0,0,0,0,0,0,0,0,0,0.0,0.0,0.0,0.0,0,0,0.0,0,0.0,-1,0.0,,0,0.0,0.1015
6108,0,0.1018,,-0.02,0.03,-0.05,0,1,0,0.06,0.06,96,,,,,,,,,,,,,,,,,,,,,,,,,,,,,,,,,,,,,,,,,,,,,,,,,,,,,,,,,,,,,,,,,,,,,,,,,,,,,,,,,,,,,,,,,,,,,,,,,,,,,,,,,,,,,,,,,,,
6148,0,0.1025,,-0.02,0.03,-0.05,0,1,0,0.06,0.06,95,,,,,,,,,,,,,,,,,,,,,,,,,,,,,,,,,,,,,,,,,,,,,,,,,,,,,,,,,,,,,,,,,,,,,,,,,,,,,,,,,,,,,,,,,,,,,,,,,,,,,,,,,,,,,,,,,,,
6188,0,0.1031,,-0.02,0.03,-0.05,0,1,0,0.06,0.06,95,0,0,0,0,32,0,0,1,0,0,0,0,0,9,7,1,12,0,0,24,0,0,138,12,12,0,0,0,0,1,3,1,1,0,84,82,78,0,0,0,0,0,0,0,3,1,1,0,86,84,80,0,0,0,0,0,0,0,0,0,0,0,0,0,0,3,1,1,0,86,85,82,0,0,0,0,0,0,0,0,0,0,0,0,0,0,0,0,0,0,0,0,0,0,0,0,0,0,0,0,0.0,0.0,0.0,0.0,0,0,0.0,0,0.0,-1,0.0,0.0,0,0.0,0.1031
6228,0,0.1038,,-0.02,0.03,-0.05,0,1,0,0.06,0.06,95,,,,,,,,,,,,,,,,,,,,,,,,,,,,,,,,,,,,,,,,,,,,,,,,,,,,,,,,,,,,,,,,,,,,,,,,,,,,,,,,,,,,,,,,,,,,,,,,,,,,,,,,,,,,,,,,,,,
6268,0,0.1045,,-0.02,0.03,-0.05,0,1,0,0.06,0.06,96,,,,,,,,,,,,,,,,,,,,,,,,,,,,,,,,,,,,,,,,,,,,,,,,,,,,,,,,,,,,,,,,,,,,,,,,,,,,,,,,,,,,,,,,,,,,,,,,,,,,,,,,,,,,,,,,,,,
6288,0,0.1048,,,,,,,,,,,0,0,0,0,32,0,0,1,0,0,0,0,0,9,7,1,12,0,0,24,0,0,138,12,12,0,0,0,0,1,3,1,1,0,84,82,78,0,0,0,0,0,0,0,0,3,3,3,0,347,346,0,0,0,0,0,0,0,0,0,0,0,0,0,0,3,1,1,0,86,85,82,0,0,0,0,0,0,0,0,0,0,0,0,0,0,0,0,0,0,0,0,0,0,0,0,0,0,0,0,0.0,0.0,0.0,0.0,0,0,0.0,0,0.0,-1,0.0,,0,0.0,0.1048
6308,0,0.1051,,-0.02,0.03,-0.05,0,1,0,0.06,0.06,97,,,,,,,,,,,,,,,,,,,,,,,,,,,,,,,,,,,,,,,,,,,,,,,,,,,,,,,,,,,,,,,,,,,,,,,,,,,,,,,,,,,,,,,,,,,,,,,,,,,,,,,,,,,,,,,,,,,
6348,0,0.1058,,-0.02,0.03,-0.05,0,1,0,0.06,0.06,97,,,,,,,,,,,,,,,,,,,,,,,,,,,,,,,,,,,,,,,,,,,,,,,,,,,,,,,,,,,,,,,,,,,,,,,,,,,,,,,,,,,,,,,,,,,,,,,,,,,,,,,,,,,,,,,,,,,
6388,0,0.1065,12.45,-0.02,0.03,-0.05,0,1,0,0.06,0.06,96,0,0,0,0,32,0,0,1,0,0,0,0,0,9,7,1,12,0,0,24,0,0,138,12,12,0,0,0,0,1,3,1,1,0,84,82,78,0,0,0,0,0,0,0,0,3,3,3,0,347,346,0,0,0,0,0,0,0,0,0,0,0,0,0,0,3,1,1,0,86,85,82,0,0,0,0,0,0,0,0,0,0,0,0,0,0,0,0,0,0,0,0,0,0,0,0,0,0,0,0,0.0,0.0,0.0,0.0,0,0,0.0,0,0.0,-1,0.0,0.0,0,0.0,0.1065
6428,0,0.1071,,-0.02,0.03,-0.05,0,1,0,0.06,0.06,95,,,,,,,,,,,,,,,,,,,,,,,,,,,,,,,,,,,,,,,,,,,,,,,,,,,,,,,,,,,,,,,,,,,,,,,,,,,,,,,,,,,,,,,,,,,,,,,,,,,,,,,,,,,,,,,,,,,
6468,0,0.1078,,-0.02,0.03,-0.05,0,1,0,0.06,0.06,95,,,,,,,,,,,,,,,,,,,,,,,,,,,,,,,,,,,,,,,,,,,,,,,,,,,,,,,,,,,,,,,,,,,,,,,,,,,,,,,,,,,,,,,,,,,,,,,,,,,,,,,,,,,,,,,,,,,
6488,0,0.1081,,,,,,,,,,,0,0,0,0,32,0,0,1,0,0,0,0,0,9,7,1,12,0,0,24,0,0,138,12,12,0,0,0,0,1,3,1,1,0,84,82,78,0,0,0,0,0,0,0,0,3,3,3,0,347,346,0,0,0,0,0,0,0,0,0,0,0,0,0,0,3,1,1,0,86,85,82,0,0,0,0,0,0,0,0,0,0,0,0,0,0,0,0,0,0,0,0,0,0,0,0,0,0,0,0,0.0,0.0,0.0,0.0,0,0,0.0,0,0.0,-1,0.0,,0,0.0,0.1081
6508,0,0.1085,,-0.02,0.03,-0.05,0,1,0,0.06,0.06,97,,,,,,,,,,,,,,,,,,,,,,,,,,,,,,,,,,,,,,,,,,,,,,,,,,,,,,,,,,,,,,,,,,,,,,,,,,,,,,,,,,,,,,,,,,,,,,,,,,,,,,,,,,,,,,,,,,,
6548,0,0.1091,,-0.02,0.03,-0.05,0,1,0,0.06,0.06,97,,,,,,,,,,,,,,,,,,,,,,,,,,,,,,,,,,,,,,,,,,,,,,,,,,,,,,,,,,,,,,,,,,,,,,,,,,,,,,,,,,,,,,,,,,,,,,,,,,,,,,,,,,,,,,,,,,,
6588,0,0.1098,,-0.02,0.03,-0.05,0,1,0,0.06,0.06,97,0,0,0,0,32,0,0,1,0,0,0,0,0,9,7,1,12,0,0,24,0,0,138,12,12,0,0,0,0,1,3,1,1,0,84,82,78,0,0,0,0,0,0,0,0,3,3,3,0,347,346,0,0,0,0,0,0,0,0,0,0,0,0,0,0,3,1,1,0,86,85,82,0,0,0,0,0,0,0,0,0,0,0,0,0,0,0,0,0,0,0,0,0,0,0,0,0,0,0,0,0.0,0.0,0.0,0.0,0,0,0.0,0,0.0,-1,0.0,0.0,0,0.0,0.1098
6628,0,0.1105,,-0.02,0.03,-0.05,0,1,0,0.06,0.06,98,,,,,,,,,,,,,,,,,,,,,,,,,,,,,,,,,,,,,,,,,,,,,,,,,,,,,,,,,,,,,,,,,,,,,,,,,,,,,,,,,,,,,,,,,,,,,,,,,,,,,,,,,,,,,,,,,,,
6668,0,0.1111,,-0.02,0.03,-0.05,0,1,0,0.06,0.06,99,,,,,,,,,,,,,,,,,,,,,,,,,,,,,,,,,,,,,,,,,,,,,,,,,,,,,,,,,,,,,,,,,,,,,,,,,,,,,,,,,,,,,,,,,,,,,,,,,,,,,,,,,,,,,,,,,,,
6688,0,0.1115,,,,,,,,,,,0,0,0,0,32,0,0,1,0,0,0,0,0,9,7,1,12,0,0,24,0,0,138,13,13,0,0,0,0,1,3,1,1,0,84,82,78,0,0,0,0,0,0,0,0,3,3,3,0,347,346,0,0,0,0,0,0,0,0,0,0,0,0,0,0,3,1,1,0,86,85,82,0,0,0,0,0,0,0,0,0,0,0,0,0,0,0,0,0,0,0,0,0,0,0,0,0,0,0,0,0.0,0.0,0.0,0.0,0,0,0.0,0,0.0,-1,0.0,,0,0.0,0.1115
6708,0,0.1118,,-0.02,0.03,-0.05,0,1,0,0.06,0.06,98,,,,,,,,,,,,,,,,,,,,,,,,,,,,,,,,,,,,,,,,,,,,,,,,,,,,,,,,,,,,,,,,,,,,,,,,,,,,,,,,,,,,,,,,,,,,,,,,,,,,,,,,,,,,,,,,,,,
6748,0,0.1125,,-0.02,0.03,-0.05,0,1,0,0.06,0.06,99,,,,,,,,,,,,,,,,,,,,,,,,,,,,,,,,,,,,,,,,,,,,,,,,,,,,,,,,,,,,,,,,,,,,,,,,,,,,,,,,,,,,,,,,,,,,,,,,,,,,,,,,,,,,,,,,,,,
6788,0,0.1131,,-0.02,0.03,-0.05,0,1,0,0.06,0.06,99,0,0,0,0,32,0,0,1,0,0,0,0,0,9,7,1,12,0,0,24,0,0,138,13,13,0,0,0,0,1,3,1,1,0,84,82,78,0,0,0,0,0,0,0,0,3,3,3,0,347,346,0,0,0,0,0,0,0,0,0,0,0,0,0,0,3,1,1,0,86,85,82,0,0,0,0,0,0,0,0,0,0,0,0,0,0,0,0,0,0,0,0,0,0,0,0,0,0,0,0,0.0,0.0,0.0,0.0,0,0,0.0,0,0.0,-1,0.0,0.0,0,0.0,0.1131
6828,0,0.1138,,-0.02,0.03,-0.05,0,1,0,0.06,0.06,99,,,,,,,,,,,,,,,,,,,,,,,,,,,,,,,,,,,,,,,,,,,,,,,,,,,,,,,,,,,,,,,,,,,,,,,,,,,,,,,,,,,,,,,,,,,,,,,,,,,,,,,,,,,,,,,,,,,
6868,0,0.1145,,-0.02,0.03,-0.05,0,1,0,0.06,0.06,98,,,,,,,,,,,,,,,,,,,,,,,,,,,,,,,,,,,,,,,,,,,,,,,,,,,,,,,,,,,,,,,,,,,,,,,,,,,,,,,,,,,,,,,,,,,,,,,,,,,,,,,,,,,,,,,,,,,
6888,0,0.1148,,,,,,,,,,,0,0,0,0,32,0,0,1,0,0,0,0,0,9,7,1,12,0,0,24,0,0,138,13,13,0,0,0,0,1,3,1,1,0,84,82,78,0,0,0,0,0,0,0,0,3,3,3,0,347,346,0,0,0,0,0,0,0,0,0,0,0,0,0,0,3,1,1,0,86,85,82,0,0,0,0,0,0,0,0,0,0,0,0,0,0,0,0,0,0,0,0,0,0,0,0,0,0,0,0,0.0,0.0,0.0,0.0,0,0,0.0,0,0.0,-1,0.0,,0,0.0,0.1148
6908,0,0.1151,,-0.02,0.03,-0.05,0,1,0,0.06,0.06,97,,,,,,,,,,,,,,,,,,,,,,,,,,,,,,,,,,,,,,,,,,,,,,,,,,,,,,,,,,,,,,,,,,,,,,,,,,,,,,,,,,,,,,,,,,,,,,,,,,,,,,,,,,,,,,,,,,,
6948,0,0.1158,,-0.02,0.03,-0.05,0,1,0,0.06,0.06,98,,,,,,,,,,,,,,,,,,,,,,,,,,,,,,,,,,,,,,,,,,,,,,,,,,,,,,,,,,,,,,,,,,,,,,,,,,,,,,,,,,,,,,,,,,,,,,,,,,,,,,,,,,,,,,,,,,,
6988,0,0.1165,,-0.02,0.03,-0.05,0,1,0,0.06,0.06,97,0,0,0,0,32,0,0,1,0,0,0,0,0,9,7,1,12,0,0,24,0,0,138,13,13,0,0,0,0,1,3,1,1,0,84,82,78,0,0,0,0,0,0,0,0,3,3,3,0,347,346,0,0,0,0,0,0,0,0,0,0,0,0,0,0,3,1,1,0,86,85,82,0,0,0,0,0,0,0,0,0,0,0,0,0,0,0,0,0,0,0,0,0,0,0,0,0,0,0,0,0.0,0.0,0.0,0.0,0,0,0.0,0,0.0,-1,0.0,0.0,0,0.0,0.1165
7028,0,0.1171,,-0.02,0.03,-0.05,0,1,0,0.06,0.06,97,,,,,,,,,,,,,,,,,,,,,,,,,,,,,,,,,,,,,,,,,,,,,,,,,,,,,,,,,,,,,,,,,,,,,,,,,,,,,,,,,,,,,,,,,,,,,,,,,,,,,,,,,,,,,,,,,,,
7068,0,0.1178,,-0.02,0.03,-0.05,0,1,0,0.06,0.06,96,,,,,,,,,,,,,,,,,,,,,,,,,,,,,,,,,,,,,,,,,,,,,,,,,,,,,,,,,,,,,,,,,,,,,,,,,,,,,,,,,,,,,,,,,,,,,,,,,,,,,,,,,,,,,,,,,,,
7088,0,0.1181,,,,,,,,,,,0,0,0,0,32,0,0,1,0,0,0,0,0,9,7,1,12,0,0,24,0,0,138,13,13,0,0,0,0,1,3,1,1,0,84,82,78,0,0,0,0,0,0,0,0,3,3,3,0,347,346,0,0,0,0,0,0,0,0,0,0,0,0,0,0,3,1,1,0,86,85,82,0,0,0,0,0,0,0,0,0,0,0,0,0,0,0,0,0,0,0,0,0,0,0,0,0,0,0,0,0.0,0.0,0.0,0.0,0,0,0.0,0,0.0,-1,0.0,,0,0.0,0.1181
7108,0,0.1185,,-0.02,0.03,-0.05,0,1,0,0.06,0.06,96,,,,,,,,,,,,,,,,,,,,,,,,,,,,,,,,,,,,,,,,,,,,,,,,,,,,,,,,,,,,,,,,,,,,,,,,,,,,,,,,,,,,,,,,,,,,,,,,,,,,,,,,,,,,,,,,,,,
7148,0,0.1191,,-0.02,0.03,-0.05,0,1,-0,0.06,0.06,96,,,,,,,,,,,,,,,,,,,,,,,,,,,,,,,,,,,,,,,,,,,,,,,,,,,,,,,,,,,,,,,,,,,,,,,,,,,,,,,,,,,,,,,,,,,,,,,,,,,,,,,,,,,,,,,,,,,
7188,0,0.1198,,-0.02,0.03,-0.05,0,1,-0,0.06,0.06,95,0,0,0,0,32,0,0,1,0,0,0,0,0,9,7,1,12,0,0,24,0,0,138,13,13,0,0,0,0,1,3,1,1,0,84,82,78,0,0,0,0,0,0,0,0,3,3,3,0,347,346,0,0,0,0,0,0,0,0,0,0,0,0,0,0,3,1,1,0,86,85,82,0,0,0,0,0,0,0,0,0,0,0,0,0,0,0,0,0,0,0,0,0,0,0,0,0,0,0,0,0.0,0.0,0.0,0.0,0,0,0.0,0,0.0,-1,0.0,0.0,0,0.0,0.1198
7228,0,0.1205,,-0.02,0.03,-0.05,0,1,0,0.06,0.06,96,,,,,,,,,,,,,,,,,,,,,,,,,,,,,,,,,,,,,,,,,,,,,,,,,,,,,,,,,,,,,,,,,,,,,,,,,,,,,,,,,,,,,,,,,,,,,,,,,,,,,,,,,,,,,,,,,,,
7268,0,0.1211,,-0.02,0.03,-0.05,0,1,0,0.06,0.06,96,,,,,,,,,,,,,,,,,,,,,,,,,,,,,,,,,,,,,,,,,,,,,,,,,,,,,,,,,,,,,,,,,,,,,,,,,,,,,,,,,,,,,,,,,,,,,,,,,,,,,,,,,,,,,,,,,,,
7288,0,0.1215,,,,,,,,,,,0,0,0,0,32,0,0,1,0,0,0,0,0,9,7,1,12,0,0,24,0,0,138,14,14,0,0,0,0,1,3,1,1,0,84,82,78,0,0,0,0,0,0,0,3,1,1,0,86,84,80,0,0,0,0,0,0,0,0,0,0,0,0,0,0,3,1,1,0,86,85,82,0,0,0,0,0,0,0,0,0,0,0,0,0,0,0,0,0,0,0,0,0,0,0,0,0,0,0,0,0.0,0.0,0.0,0.0,0,0,0.0,0,0.0,-1,0.0,,0,0.0,0.1215
7308,0,0.1218,,-0.02,0.03,-0.05,0,1,0,0.06,0.06,96,,,,,,,,,,,,,,,,,,,,,,,,,,,,,,,,,,,,,,,,,,,,,,,,,,,,,,,,,,,,,,,,,,,,,,,,,,,,,,,,,,,,,,,,,,,,,,,,,,,,,,,,,,,,,,,,,,,
7348,0,0.1225,,-0.02,0.03,-0.05,0,1,0,0.06,0.06,95,,,,,,,,,,,,,,,,,,,,,,,,,,,,,,,,,,,,,,,,,,,,,,,,,,,,,,,,,,,,,,,,,,,,,,,,,,,,,,,,,,,,,,,,,,,,,,,,,,,,,,,,,,,,,,,,,,,
7388,0,0.1231,12.47,-0.02,0.03,-0.05,0,1,0,0.06,0.06,95,0,0,0,0,32,0,0,1,0,0,0,0,0,9,7,1,12,0,0,24,0,0,138,14,14,0,0,0,0,1,3,1,1,0,84,82,78,0,0,0,0,0,0,0,3,1,1,0,86,84,80,0,0,0,0,0,0,0,0,0,0,0,0,0,0,3,1,1,0,86,85,82,0,0,0,0,0,0,0,0,0,0,0,0,0,0,0,0,0,0,0,0,0,0,0,0,0,0,0,0,0.0,0.0,0.0,0.0,0,0,0.0,0,0.0,-1,0.0,0.0,0,0.0,0.1231
7428,0,0.1238,,-0.02,0.03,-0.05,0,1,0,0.06,0.06,95,,,,,,,,,,,,,,,,,,,,,,,,,,,,,,,,,,,,,,,,,,,,,,,,,,,,,,,,,,,,,,,,,,,,,,,,,,,,,,,,,,,,,,,,,,,,,,,,,,,,,,,,,,,,,,,,,,,
7468,0,0.1245,,-0.02,0.03,-0.05,0,1,0,0.06,0.06,94,,,,,,,,,,,,,,,,,,,,,,,,,,,,,,,,,,,,,,,,,,,,,,,,,,,,,,,,,,,,,,,,,,,,,,,,,,,,,,,,,,,,,,,,,,,,,,,,,,,,,,,,,,,,,,,,,,,
7488,0,0.1248,,,,,,,,,,,0,0,0,0,32,0,0,1,0,0,0,0,0,9,7,1,12,0,0,24,0,0,138,14,14,0,0,0,0,1,3,1,1,0,84,82,78,0,0,0,0,0,0,0,3,1,1,0,86,84,80,0,0,0,0,0,0,0,0,0,0,0,0,0,0,3,1,1,0,86,85,82,0,0,0,0,0,0,0,0,0,0,0,0,0,0,0,0,0,0,0,0,0,0,0,0,0,0,0,0,0.0,0.0,0.0,0.0,0,0,0.0,0,0.0,-1,0.0,,0,0.0,0.1248
7508,0,0.1251,,-0.02,0.03,-0.05,0,1,0,0.06,0.06,93,,,,,,,,,,,,,,,,,,,,,,,,,,,,,,,,,,,,,,,,,,,,,,,,,,,,,,,,,,,,,,,,,,,,,,,,,,,,,,,,,,,,,,,,,,,,,,,,,,,,,,,,,,,,,,,,,,,
7548,0,0.1258,,-0.02,0.03,-0.05,0,1,0,0.06,0.06,94,,,,,,,,,,,,,,,,,,,,,,,,,,,,,,,,,,,,,,,,,,,,,,,,,,,,,,,,,,,,,,,,,,,,,,,,,,,,,,,,,,,,,,,,,,,,,,,,,,,,,,,,,,,,,,,,,,,
7588,0,0.1265,,-0.02,0.03,-0.05,0,1,0,0.06,0.06,95,0,0,0,0,32,0,0,1,0,0,0,0,0,9,7,1,12,0,0,24,0,0,138,14,14,0,0,0,0,1,3,1,1,0,84,82,78,0,0,0,0,0,0,0,3,1,1,0,86,84,80,0,0,0,0,0,0,0,0,0,0,0,0,0,0,0,3,3,3,1,349,349,0,0,0,0,0,0,0,0,0,0,0,0,0,0,0,0,0,0,0,0,0,0,0,0,0,0,0,0,0.0,0.0,0.0,0.0,0,0,0.0,0,0.0,-1,0.0,0.0,0,0.0,0.1265
7628,0,0.1271,,-0.02,0.02,-0.05,0,1,0,0.06,0.06,96,,,,,,,,,,,,,,,,,,,,,,,,,,,,,,,,,,,,,,,,,,,,,,,,,,,,,,,,,,,,,,,,,,,,,,,,,,,,,,,,,,,,,,,,,,,,,,,,,,,,,,,,,,,,,,,,,,,
7668,0,0.1278,,-0.02,0.03,-0.05,0,1,0,0.06,0.06,94,,,,,,,,,,,,,,,,,,,,,,,,,,,,,,,,,,,,,,,,,,,,,,,,,,,,,,,,,,,,,,,,,,,,,,,,,,,,,,,,,,,,,,,,,,,,,,,,,,,,,,,,,,,,,,,,,,,
7688,0,0.1281,,,,,,,,,,,0,0,0,0,32,0,0,1,0,0,0,0,0,9,7,1,12,0,0,24,0,0,138,14,14,0,0,0,0,1,3,1,1,0,84,82,78,0,0,0,0,0,0,0,3,1,1,0,86,84,80,0,0,0,0,0,0,0,0,0,0,0,0,0,0,0,3,3,3,1,349,349,0,0,0,0,0,0,0,0,0,0,0,0,0,0,0,0,0,0,0,0,0,0,0,0,0,0,0,0,0.0,0.0,0.0,0.0,0,0,0.0,0,0.0,-1,0.0,,0,0.0,0.1281
7708,0,0.1285,,-0.02,0.03,-0.05,0,1,0,0.06,0.06,95,,,,,,,,,,,,,,,,,,,,,,,,,,,,,,,,,,,,,,,,,,,,,,,,,,,,,,,,,,,,,,,,,,,,,,,,,,,,,,,,,,,,,,,,,,,,,,,,,,,,,,,,,,,,,,,,,,,
7748,0,0.1291,,-0.02,0.03,-0.05,0,1,0,0.06,0.06,95,,,,,,,,,,,,,,,,,,,,,,,,,,,,,,,,,,,,,,,,,,,,,,,,,,,,,,,,,,,,,,,,,,,,,,,,,,,,,,,,,,,,,,,,,,,,,,,,,,,,,,,,,,,,,,,,,,,
7788,0,0.1298,,-0.02,0.03,-0.05,0,1,0,0.06,0.06,97,0,0,0,0,32,0,0,1,0,0,0,0,0,9,7,1,12,0,0,24,0,0,138,14,14,0,0,0,0,1,3,1,1,0,84,82,78,0,0,0,0,0,0,0,3,1,1,0,86,84,80,0,0,0,0,0,0,0,0,0,0,0,0,0,0,0,3,3,3,1,349,349,0,0,0,0,0,0,0,0,0,0,0,0,0,0,0,0,0,0,0,0,0,0,0,0,0,0,0,0,0.0,0.0,0.0,0.0,0,0,0.0,0,0.0,-1,0.0,0.0,0,0.0,0.1298
7828,0,0.1305,,-0.02,0.03,-0.05,0,1,0,0.06,0.06,97,,,,,,,,,,,,,,,,,,,,,,,,,,,,,,,,,,,,,,,,,,,,,,,,,,,,,,,,,,,,,,,,,,,,,,,,,,,,,,,,,,,,,,,,,,,,,,,,,,,,,,,,,,,,,,,,,,,
7868,0,0.1311,,-0.02,0.03,-0.05,0,1,0,0.06,0.06,97,,,,,,,,,,,,,,,,,,,,,,,,,,,,,,,,,,,,,,,,,,,,,,,,,,,,,,,,,,,,,,,,,,,,,,,,,,,,,,,,,,,,,,,,,,,,,,,,,,,,,,,,,,,,,,,,,,,
7888,0,0.1315,,,,,,,,,,,0,0,0,0,32,0,0,1,0,0,0,0,0,9,7,1,12,0,0,24,0,0,138,14,14,0,0,0,0,1,3,1,1,0,84,82,78,0,0,0,0,0,0,0,3,1,1,0,86,84,80,0,0,0,0,0,0,0,0,0,0,0,0,0,0,0,3,3,3,1,349,349,0,0,0,0,0,0,0,0,0,0,0,0,0,0,0,0,0,0,0,0,0,0,0,0,0,0,0,0,0.0,0.0,0.0,0.0,0,0,0.0,0,0.0,-1,0.0,,0,0.0,0.1315
7908,0,0.1318,,-0.02,0.03,-0.05,0,1,0,0.06,0.06,97,,,,,,,,,,,,,,,,,,,,,,,,,,,,,,,,,,,,,,,,,,,,,,,,,,,,,,,,,,,,,,,,,,,,,,,,,,,,,,,,,,,,,,,,,,,,,,,,,,,,,,,,,,,,,,,,,,,
7948,0,0.1325,,-0.02,0.03,-0.05,0,1,0,0.06,0.06,97,,,,,,,,,,,,,,,,,,,,,,,,,,,,,,,,,,,,,,,,,,,,,,,,,,,,,,,,,,,,,,,,,,,,,,,,,,,,,,,,,,,,,,,,,,,,,,,,,,,,,,,,,,,,,,,,,,,
7988,0,0.1331,,-0.02,0.03,-0.05,0,1,0,0.06,0.06,97,0,0,0,0,32,0,0,1,0,0,0,0,0,9,7,1,12,0,0,24,0,0,138,14,14,0,0,0,0,1,3,1,1,0,84,82,78,0,0,0,0,0,0,0,3,1,1,0,86,84,80,0,0,0,0,0,0,0,0,0,0,0,0,0,0,0,3,3,3,1,349,349,0,0,0,0,0,0,0,0,0,0,0,0,0,0,0,0,0,0,0,0,0,0,0,0,0,0,0,0,0.0,0.0,0.0,0.0,0,0,0.0,0,0.0,-1,0.0,0.0,0,0.0,0.1331
8028,0,0.1338,,-0.02,0.03,-0.05,0,1,0,0.06,0.06,97,,,,,,,,,,,,,,,,,,,,,,,,,,,,,,,,,,,,,,,,,,,,,,,,,,,,,,,,,,,,,,,,,,,,,,,,,,,,,,,,,,,,,,,,,,,,,,,,,,,,,,,,,,,,,,,,,,,
8068,0,0.1345,,-0.02,0.03,-0.05,0,1,0,0.06,0.06,95,,,,,,,,,,,,,,,,,,,,,,,,,,,,,,,,,,,,,,,,,,,,,,,,,,,,,,,,,,,,,,,,,,,,,,,,,,,,,,,,,,,,,,,,,,,,,,,,,,,,,,,,,,,,,,,,,,,
8088,0,0.1348,,,,,,,,,,,0,0,0,0,32,0,0,1,0,0,0,0,0,9,7,1,12,0,0,24,0,0,138,15,15,0,0,0,0,1,3,1,1,0,84,82,78,0,0,0,0,0,0,0,3,1,1,0,86,84,80,0,0,0,0,0,0,0,0,0,0,0,0,0,0,0,3,3,3,1,349,349,0,0,0,0,0,0,0,0,0,0,0,0,0,0,0,0,0,0,0,0,0,0,0,0,0,0,0,0,0.0,0.0,0.0,0.0,0,0,0.0,0,0.0,-1,0.0,,0,0.0,0.1348
8108,0,0.1351,,-0.02,0.03,-0.05,0,1,0,0.06,0.06,94,,,,,,,,,,,,,,,,,,,,,,,,,,,,,,,,,,,,,,,,,,,,,,,,,,,,,,,,,,,,,,,,,,,,,,,,,,,,,,,,,,,,,,,,,,,,,,,,,,,,,,,,,,,,,,,,,,,
8148,0,0.1358,,-0.02,0.03,-0.05,0,1,0,0.06,0.06,94,,,,,,,,,,,,,,,,,,,,,,,,,,,,,,,,,,,,,,,,,,,,,,,,,,,,,,,,,,,,,,,,,,,,,,,,,,,,,,,,,,,,,,,,,,,,,,,,,,,,,,,,,,,,,,,,,,,
8188,0,0.1365,,-0.02,0.02,-0.05,0,1,0,0.06,0.06,96,0,0,0,0,32,0,0,1,0,0,0,0,0,9,7,1,12,0,0,24,0,0,138,15,15,0,0,0,0,1,3,1,1,0,84,82,78,0,0,0,0,0,0,0,3,1,1,0,86,84,80,0,0,0,0,0,0,0,0,0,0,0,0,0,0,0,3,3,3,1,349,349,0,0,0,0,0,0,0,0,0,0,0,0,0,0,0,0,0,0,0,0,0,0,0,0,0,0,0,0,0.0,0.0,0.0,0.0,0,0,0.0,0,0.0,-1,0.0,0.0,0,0.0,0.1365
8228,0,0.1371,,-0.02,0.03,-0.05,0,1,0,0.06,0.06,97,,,,,,,,,,,,,,,,,,,,,,,,,,,,,,,,,,,,,,,,,,,,,,,,,,,,,,,,,,,,,,,,,,,,,,,,,,,,,,,,,,,,,,,,,,,,,,,,,,,,,,,,,,,,,,,,,,,
8268,0,0.1378,,-0.02,0.03,-0.05,0,1,0,0.06,0.06,95,,,,,,,,,,,,,,,,,,,,,,,,,,,,,,,,,,,,,,,,,,,,,,,,,,,,,,,,,,,,,,,,,,,,,,,,,,,,,,,,,,,,,,,,,,,,,,,,,,,,,,,,,,,,,,,,,,,
8288,0,0.1381,,,,,,,,,,,0,0,0,0,32,0,0,1,0,0,0,0,0,9,7,1,12,0,0,24,0,0,138,15,15,0,0,0,0,1,3,1,1,0,84,82,78,0,0,0,0,0,0,0,3,1,1,0,86,84,80,0,0,0,0,0,0,0,0,0,0,0,0,0,0,0,3,3,3,1,349,349,0,0,0,0,0,0,0,0,0,0,0,0,0,0,0,0,0,0,0,0,0,0,0,0,0,0,0,0,0.0,0.0,0.0,0.0,0,0,0.0,0,0.0,-1,0.0,,0,0.0,0.1381
8308,0,0.1385,,-0.02,0.03,-0.05,0,1,0,0.06,0.06,95,,,,,,,,,,,,,,,,,,,,,,,,,,,,,,,,,,,,,,,,,,,,,,,,,,,,,,,,,,,,,,,,,,,,,,,,,,,,,,,,,,,,,,,,,,,,,,,,,,,,,,,,,,,,,,,,,,,
8348,0,0.1391,,-0.02,0.03,-0.05,0,1,0,0.06,0.06,95,,,,,,,,,,,,,,,,,,,,,,,,,,,,,,,,,,,,,,,,,,,,,,,,,,,,,,,,,,,,,,,,,,,,,,,,,,,,,,,,,,,,,,,,,,,,,,,,,,,,,,,,,,,,,,,,,,,
8388,0,0.1398,12.41,-0.02,0.03,-0.05,0,1,0,0.06,0.06,94,0,0,0,0,32,0,0,1,0,0,0,0,0,9,7,1,12,0,0,24,0,0,138,15,15,0,0,0,0,1,3,1,1,0,84,82,78,0,0,0,0,0,0,0,3,1,1,0,86,84,80,0,0,0,0,0,0,0,0,0,0,0,0,0,0,0,3,3,3,1,349,349,0,0,0,0,0,0,0,0,0,0,0,0,0,0,0,0,0,0,0,0,0,0,0,0,0,0,0,0,0.0,0.0,0.0,0.0,0,0,0.0,0,0.0,-1,0.0,0.0,0,0.0,0.1398
8428,0,0.1405,,-0.02,0.03,-0.05,0,1,0,0.06,0.06,94,,,,,,,,,,,,,,,,,,,,,,,,,,,,,,,,,,,,,,,,,,,,,,,,,,,,,,,,,,,,,,,,,,,,,,,,,,,,,,,,,,,,,,,,,,,,,,,,,,,,,,,,,,,,,,,,,,,
8468,0,0.1411,,-0.02,0.03,-0.05,0,1,0,0.06,0.06,95,,,,,,,,,,,,,,,,,,,,,,,,,,,,,,,,,,,,,,,,,,,,,,,,,,,,,,,,,,,,,,,,,,,,,,,,,,,,,,,,,,,,,,,,,,,,,,,,,,,,,,,,,,,,,,,,,,,
8488,0,0.1415,,,,,,,,,,,0,0,0,0,32,0,0,1,0,0,0,0,0,9,7,1,12,0,0,24,0,0,138,15,15,0,0,0,0,1,3,1,1,0,84,82,78,0,0,0,0,0,0,0,3,1,1,0,86,84,80,0,0,0,0,0,0,0,0,0,0,0,0,0,0,0,3,3,3,1,349,349,0,0,0,0,0,0,0,0,0,0,0,0,0,0,0,0,0,0,0,0,0,0,0,0,0,0,0,0,0.0,0.0,0.0,0.0,0,0,0.0,0,0.0,-1,0.0,,0,0.0,0.1415
8508,0,0.1418,,-0.02,0.03,-0.05,0,1,0,0.06,0.06,95,,,,,,,,,,,,,,,,,,,,,,,,,,,,,,,,,,,,,,,,,,,,,,,,,,,,,,,,,,,,,,,,,,,,,,,,,,,,,,,,,,,,,,,,,,,,,,,,,,,,,,,,,,,,,,,,,,,
8548,0,0.1425,,-0.02,0.03,-0.05,0,1,-0,0.06,0.06,95,,,,,,,,,,,,,,,,,,,,,,,,,,,,,,,,,,,,,,,,,,,,,,,,,,,,,,,,,,,,,,,,,,,,,,,,,,,,,,,,,,,,,,,,,,,,,,,,,,,,,,,,,,,,,,,,,,,
8588,0,0.1431,,-0.02,0.03,-0.05,0,1,0,0.06,0.06,95,0,0,0,0,32,0,0,1,0,0,0,0,0,9,7,1,12,0,0,24,0,0,138,15,15,0,0,0,0,1,3,1,1,0,84,82,78,0,0,0,0,0,0,0,3,1,1,0,86,84,80,0,0,0,0,0,0,0,0,0,0,0,0,0,0,3,1,1,0,86,85,82,0,0,0,0,0,0,0,0,0,0,0,0,0,0,0,0,0,0,0,0,0,0,0,0,0,0,0,0,0.0,0.0,0.0,0.0,0,0,0.0,0,0.0,-1,0.0,0.0,0,0.0,0.1431
8628,0,0.1438,,-0.02,0.03,-0.05,0,1,0,0.06,0.06,94,,,,,,,,,,,,,,,,,,,,,,,,,,,,,,,,,,,,,,,,,,,,,,,,,,,,,,,,,,,,,,,,,,,,,,,,,,,,,,,,,,,,,,,,,,,,,,,,,,,,,,,,,,,,,,,,,,,
8668,0,0.1445,,-0.02,0.03,-0.05,0,1,-0,0.06,0.06,94,,,,,,,,,,,,,,,,,,,,,,,,,,,,,,,,,,,,,,,,,,,,,,,,,,,,,,,,,,,,,,,,,,,,,,,,,,,,,,,,,,,,,,,,,,,,,,,,,,,,,,,,,,,,,,,,,,,
8688,0,0.1448,,,,,,,,,,,0,0,0,0,32,0,0,1,0,0,0,0,0,9,7,1,12,0,0,24,0,0,138,15,15,0,0,0,0,1,3,1,1,0,84,82,78,0,0,0,0,0,0,0,3,1,1,0,86,84,80,0,0,0,0,0,0,0,0,0,0,0,0,0,0,3,1,1,0,86,85,82,0,0,0,0,0,0,0,0,0,0,0,0,0,0,0,0,0,0,0,0,0,0,0,0,0,0,0,0,0.0,0.0,0.0,0.0,0,0,0.0,0,0.0,-1,0.0,,0,0.0,0.1448
8708,0,0.1451,,-0.02,0.03,-0.05,0,1,0,0.06,0.06,93,,,,,,,,,,,,,,,,,,,,,,,,,,,,,,,,,,,,,,,,,,,,,,,,,,,,,,,,,,,,,,,,,,,,,,,,,,,,,,,,,,,,,,,,,,,,,,,,,,,,,,,,,,,,,,,,,,,
8748,0,0.1458,,-0.02,0.03,-0.05,0,1,-0,0.06,0.06,93,,,,,,,,,,,,,,,,,,,,,,,,,,,,,,,,,,,,,,,,,,,,,,,,,,,,,,,,,,,,,,,,,,,,,,,,,,,,,,,,,,,,,,,,,,,,,,,,,,,,,,,,,,,,,,,,,,,
8788,0,0.1465,,-0.02,0.03,-0.05,0,1,0,0.06,0.06,96,0,0,0,0,32,0,0,1,0,0,0,0,0,9,7,1,12,0,0,24,0,0,138,16,16,0,0,0,0,1,3,1,1,0,84,82,78,0,0,0,0,0,0,0,3,1,1,0,86,84,80,0,0,0,0,0,0,0,0,0,0,0,0,0,0,3,1,1,0,86,85,82,0,0,0,0,0,0,0,0,0,0,0,0,0,0,0,0,0,0,0,0,0,0,0,0,0,0,0,0,0.0,0.0,0.0,0.0,0,0,0.0,0,0.0,-1,0.0,0.0,0,0.0,0.1465
8828,0,0.1471,,-0.02,0.03,-0.05,0,1,-0,0.06,0.06,97,,,,,,,,,,,,,,,,,,,,,,,,,,,,,,,,,,,,,,,,,,,,,,,,,,,,,,,,,,,,,,,,,,,,,,,,,,,,,,,,,,,,,,,,,,,,,,,,,,,,,,,,,,,,,,,,,,,
8868,0,0.1478,,-0.02,0.03,-0.05,0,1,-0,0.06,0.06,96,,,,,,,,,,,,,,,,,,,,,,,,,,,,,,,,,,,,,,,,,,,,,,,,,,,,,,,,,,,,,,,,,,,,,,,,,,,,,,,,,,,,,,,,,,,,,,,,,,,,,,,,,,,,,,,,,,,
8888,0,0.1481,,,,,,,,,,,0,0,0,0,32,0,0,1,0,0,0,0,0,9,7,1,12,0,0,24,0,0,138,16,16,0,0,0,0,1,3,1,1,0,84,82,78,0,0,0,0,0,0,0,3,1,1,0,86,84,80,0,0,0,0,0,0,0,0,0,0,0,0,0,0,3,1,1,0,86,85,82,0,0,0,0,0,0,0,0,0,0,0,0,0,0,0,0,0,0,0,0,0,0,0,0,0,0,0,0,0.0,0.0,0.0,0.0,0,0,0.0,0,0.0,-1,0.0,,0,0.0,0.1481
8908,0,0.1485,,-0.02,0.03,-0.05,0,1,-0,0.06,0.06,95,,,,,,,,,,,,,,,,,,,,,,,,,,,,,,,,,,,,,,,,,,,,,,,,,,,,,,,,,,,,,,,,,,,,,,,,,,,,,,,,,,,,,,,,,,,,,,,,,,,,,,,,,,,,,,,,,,,
8948,0,0.1491,,-0.02,0.03,-0.05,0,1,0,0.06,0.06,96,,,,,,,,,,,,,,,,,,,,,,,,,,,,,,,,,,,,,,,,,,,,,,,,,,,,,,,,,,,,,,,,,,,,,,,,,,,,,,,,,,,,,,,,,,,,,,,,,,,,,,,,,,,,,,,,,,,
8988,0,0.1498,,-0.02,0.03,-0.05,0,1,0,0.06,0.06,97,0,0,0,0,32,0,0,1,0,0,0,0,0,9,7,1,12,0,0,24,0,0,138,16,16,0,0,0,0,1,3,1,1,0,84,82,78,0,0,0,0,0,0,0,3,1,1,0,86,84,80,0,0,0,0,0,0,0,0,0,0,0,0,0,0,3,1,1,0,86,85,82,0,0,0,0,0,0,0,0,0,0,0,0,0,0,0,0,0,0,0,0,0,0,0,0,0,0,0,0,0.0,0.0,0.0,0.0,0,0,0.0,0,0.0,-1,0.0,0.0,0,0.0,0.1498
9028,0,0.1505,,-0.02,0.03,-0.05,0,1,0,0.06,0.06,96,,,,,,,,,,,,,,,,,,,,,,,,,,,,,,,,,,,,,,,,,,,,,,,,,,,,,,,,,,,,,,,,,,,,,,,,,,,,,,,,,,,,,,,,,,,,,,,,,,,,,,,,,,,,,,,,,,,
9068,0,0.1511,,-0.02,0.03,-0.05,0,1,0,0.06,0.06,96,,,,,,,,,,,,,,,,,,,,,,,,,,,,,,,,,,,,,,,,,,,,,,,,,,,,,,,,,,,,,,,,,,,,,,,,,,,,,,,,,,,,,,,,,,,,,,,,,,,,,,,,,,,,,,,,,,,
9088,0,0.1515,,,,,,,,,,,0,0,0,0,32,0,0,1,0,0,0,0,0,9,7,1,12,0,0,24,0,0,138,16,16,0,0,0,0,1,0,4,3,3,0,352,348,0,0,0,0,0,0,0,3,1,1,0,86,84,80,0,0,0,0,0,0,0,0,0,0,0,0,0,0,3,1,1,0,86,85,82,0,0,0,0,0,0,0,0,0,0,0,0,0,0,0,0,0,0,0,0,0,0,0,0,0,0,0,0,0.0,0.0,0.0,0.0,0,0,0.0,0,0.0,-1,0.0,,0,0.0,0.1515
9108,0,0.1518,,-0.02,0.03,-0.05,0,1,0,0.06,0.06,96,,,,,,,,,,,,,,,,,,,,,,,,,,,,,,,,,,,,,,,,,,,,,,,,,,,,,,,,,,,,,,,,,,,,,,,,,,,,,,,,,,,,,,,,,,,,,,,,,,,,,,,,,,,,,,,,,,,
9148,0,0.1525,,-0.02,0.03,-0.05,0,1,0,0.06,0.06,97,,,,,,,,,,,,,,,,,,,,,,,,,,,,,,,,,,,,,,,,,,,,,,,,,,,,,,,,,,,,,,,,,,,,,,,,,,,,,,,,,,,,,,,,,,,,,,,,,,,,,,,,,,,,,,,,,,,
9188,0,0.1531,,-0.02,0.03,-0.05,0,1,0,0.06,0.06,97,0,0,0,0,32,0,0,1,0,0,0,0,0,9,7,1,12,0,0,24,0,0,138,16,16,0,0,0,0,1,0,4,3,3,0,352,348,0,0,0,0,0,0,0,3,1,1,0,86,84,80,0,0,0,0,0,0,0,0,0,0,0,0,0,0,3,1,1,0,86,85,82,0,0,0,0,0,0,0,0,0,0,0,0,0,0,0,0,0,0,0,0,0,0,0,0,0,0,0,0,0.0,0.0,0.0,0.0,0,0,0.0,0,0.0,-1,0.0,0.0,0,0.0,0.1531
9228,0,0.1538,,-0.02,0.03,-0.05,0,1,0,0.06,0.06,95,,,,,,,,,,,,,,,,,,,,,,,,,,,,,,,,,,,,,,,,,,,,,,,,,,,,,,,,,,,,,,,,,,,,,,,,,,,,,,,,,,,,,,,,,,,,,,,,,,,,,,,,,,,,,,,,,,,
9268,0,0.1545,,-0.02,0.03,-0.05,0,1,0,0.06,0.06,93,,,,,,,,,,,,,,,,,,,,,,,,,,,,,,,,,,,,,,,,,,,,,,,,,,,,,,,,,,,,,,,,,,,,,,,,,,,,,,,,,,,,,,,,,,,,,,,,,,,,,,,,,,,,,,,,,,,
9288,0,0.1548,,,,,,,,,,,0,0,0,0,32,0,0,1,0,0,0,0,0,9,7,1,12,0,0,24,0,0,138,16,16,0,0,0,0,1,0,4,3,3,0,352,348,0,0,0,0,0,0,0,0,3,3,3,0,347,346,0,0,0,0,0,0,0,0,0,0,0,0,0,0,3,1,1,0,86,85,82,0,0,0,0,0,0,0,0,0,0,0,0,0,0,0,0,0,0,0,0,0,0,0,0,0,0,0,0,0.0,0.0,0.0,0.0,0,0,0.0,0,0.0,-1,0.0,,0,0.0,0.1548
9308,0,0.1551,,-0.02,0.02,-0.05,0,1,0,0.06,0.06,94,,,,,,,,,,,,,,,,,,,,,,,,,,,,,,,,,,,,,,,,,,,,,,,,,,,,,,,,,,,,,,,,,,,,,,,,,,,,,,,,,,,,,,,,,,,,,,,,,,,,,,,,,,,,,,,,,,,
9348,0,0.1558,,-0.02,0.02,-0.05,0,1,0,0.06,0.06,94,,,,,,,,,,,,,,,,,,,,,,,,,,,,,,,,,,,,,,,,,,,,,,,,,,,,,,,,,,,,,,,,,,,,,,,,,,,,,,,,,,,,,,,,,,,,,,,,,,,,,,,,,,,,,,,,,,,
9388,0,0.1565,12.43,-0.02,0.03,-0.05,0,1,0,0.06,0.06,94,0,0,0,0,32,0,0,1,0,0,0,0,0,9,7,1,12,0,0,24,0,0,138,16,16,0,0,0,0,1,0,4,3,3,0,352,348,0,0,0,0,0,0,0,0,3,3,3,0,347,346,0,0,0,0,0,0,0,0,0,0,0,0,0,0,3,1,1,0,86,85,82,0,0,0,0,0,0,0,0,0,0,0,0,0,0,0,0,0,0,0,0,0,0,0,0,0,0,0,0,0.0,0.0,0.0,0.0,0,0,0.0,0,0.0,-1,0.0,0.0,0,0.0,0.1565
9428,0,0.1571,,-0.02,0.03,-0.05,0,1,0,0.06,0.06,94,,,,,,,,,,,,,,,,,,,,,,,,,,,,,,,,,,,,,,,,,,,,,,,,,,,,,,,,,,,,,,,,,,,,,,,,,,,,,,,,,,,,,,,,,,,,,,,,,,,,,,,,,,,,,,,,,,,
9468,0,0.1578,,-0.02,0.03,-0.05,0,1,0,0.06,0.06,96,,,,,,,,,,,,,,,,,,,,,,,,,,,,,,,,,,,,,,,,,,,,,,,,,,,,,,,,,,,,,,,,,,,,,,,,,,,,,,,,,,,,,,,,,,,,,,,,,,,,,,,,,,,,,,,,,,,
9488,0,0.1581,,,,,,,,,,,0,0,0,0,32,0,0,1,0,0,0,0,0,9,7,1,12,0,0,24,0,0,138,16,16,0,0,0,0,1,0,4,3,3,0,352,348,0,0,0,0,0,0,0,0,3,3,3,0,347,346,0,0,0,0,0,0,0,0,0,0,0,0,0,0,3,1,1,0,86,85,82,0,0,0,0,0,0,0,0,0,0,0,0,0,0,0,0,0,0,0,0,0,0,0,0,0,0,0,0,0.0,0.0,0.0,0.0,0,0,0.0,0,0.0,-1,0.0,,0,0.0,0.1581
9508,0,0.1585,,-0.02,0.03,-0.05,0,1,0,0.06,0.06,95,,,,,,,,,,,,,,,,,,,,,,,,,,,,,,,,,,,,,,,,,,,,,,,,,,,,,,,,,,,,,,,,,,,,,,,,,,,,,,,,,,,,,,,,,,,,,,,,,,,,,,,,,,,,,,,,,,,
9548,0,0.1591,,-0.02,0.02,-0.05,0,1,0,0.06,0.06,96,,,,,,,,,,,,,,,,,,,,,,,,,,,,,,,,,,,,,,,,,,,,,,,,,,,,,,,,,,,,,,,,,,,,,,,,,,,,,,,,,,,,,,,,,,,,,,,,,,,,,,,,,,,,,,,,,,,
9588,0,0.1598,,-0.02,0.03,-0.05,0,1,0,0.06,0.06,95,0,0,0,0,32,0,0,1,0,0,0,0,0,9,7,1,12,0,0,24,0,0,138,16,16,0,0,0,0,1,0,4,3,3,0,352,348,0,0,0,0,0,0,0,0,3,3,3,0,347,346,0,0,0,0,0,0,0,0,0,0,0,0,0,0,3,1,1,0,86,85,82,0,0,0,0,0,0,0,0,0,0,0,0,0,0,0,0,0,0,0,0,0,0,0,0,0,0,0,0,0.0,0.0,0.0,0.0,0,0,0.0,0,0.0,-1,0.0,0.0,0,0.0,0.1598
9628,0,0.1605,,-0.02,0.02,-0.05,0,1,0,0.06,0.06,94,,,,,,,,,,,,,,,,,,,,,,,,,,,,,,,,,,,,,,,,,,,,,,,,,,,,,,,,,,,,,,,,,,,,,,,,,,,,,,,,,,,,,,,,,,,,,,,,,,,,,,,,,,,,,,,,,,,
9668,0,0.1611,,-0.02,0.03,-0.05,0,1,0,0.06,0.06,96,,,,,,,,,,,,,,,,,,,,,,,,,,,,,,,,,,,,,,,,,,,,,,,,,,,,,,,,,,,,,,,,,,,,,,,,,,,,,,,,,,,,,,,,,,,,,,,,,,,,,,,,,,,,,,,,,,,
9688,0,0.1615,,,,,,,,,,,0,0,0,0,32,0,0,1,0,0,0,0,0,9,7,1,12,0,0,24,0,0,138,16,16,0,0,0,0,1,0,4,3,3,0,352,348,0,0,0,0,0,0,0,0,3,3,3,0,347,346,0,0,0,0,0,0,0,0,0,0,0,0,0,0,3,1,1,0,86,85,82,0,0,0,0,0,0,0,0,0,0,0,0,0,0,0,0,0,0,0,0,0,0,0,0,0,0,0,0,0.0,0.0,0.0,0.0,0,0,0.0,0,0.0,-1,0.0,,0,0.0,0.1615
9708,0,0.1618,,-0.02,0.03,-0.05,0,1,0,0.06,0.06,95,,,,,,,,,,,,,,,,,,,,,,,,,,,,,,,,,,,,,,,,,,,,,,,,,,,,,,,,,,,,,,,,,,,,,,,,,,,,,,,,,,,,,,,,,,,,,,,,,,,,,,,,,,,,,,,,,,,
9748,0,0.1625,,-0.02,0.03,-0.05,0,1,0,0.06,0.06,94,,,,,,,,,,,,,,,,,,,,,,,,,,,,,,,,,,,,,,,,,,,,,,,,,,,,,,,,,,,,,,,,,,,,,,,,,,,,,,,,,,,,,,,,,,,,,,,,,,,,,,,,,,,,,,,,,,,
9788,0,0.1631,,-0.02,0.03,-0.05,0,1,0,0.06,0.06,95,0,0,0,0,32,0,0,1,0,0,0,0,0,9,7,1,12,0,0,24,0,0,138,17,17,0,0,0,0,1,0,4,3,3,0,352,348,0,0,0,0,0,0,0,0,3,3,3,0,347,346,0,0,0,0,0,0,0,0,0,0,0,0,0,0,3,1,1,0,86,85,82,0,0,0,0,0,0,0,0,0,0,0,0,0,0,0,0,0,0,0,0,0,0,0,0,0,0,0,0,0.0,0.0,0.0,0.0,0,0,0.0,0,0.0,-1,0.0,0.0,0,0.0,0.1631
9828,0,0.1638,,-0.02,0.03,-0.05,0,1,0,0.06,0.06,95,,,,,,,,,,,,,,,,,,,,,,,,,,,,,,,,,,,,,,,,,,,,,,,,,,,,,,,,,,,,,,,,,,,,,,,,,,,,,,,,,,,,,,,,,,,,,,,,,,,,,,,,,,,,,,,,,,,
9868,0,0.1645,,-0.02,0.03,-0.05,0,1,0,0.06,0.06,94,,,,,,,,,,,,,,,,,,,,,,,,,,,,,,,,,,,,,,,,,,,,,,,,,,,,,,,,,,,,,,,,,,,,,,,,,,,,,,,,,,,,,,,,,,,,,,,,,,,,,,,,,,,,,,,,,,,
9888,0,0.1648,,,,,,,,,,,0,0,0,0,32,0,0,1,0,0,0,0,0,9,7,1,12,0,0,24,0,0,138,17,17,0,0,0,0,1,0,4,3,3,0,352,348,0,0,0,0,0,0,0,0,3,3,3,0,347,346,0,0,0,0,0,0,0,0,0,0,0,0,0,0,3,1,1,0,86,85,82,0,0,0,0,0,0,0,0,0,0,0,0,0,0,0,0,0,0,0,0,0,0,0,0,0,0,0,0,0.0,0.0,0.0,0.0,0,0,0.0,0,0.0,-1,0.0,,0,0.0,0.1648
9908,0,0.1651,,-0.02,0.03,-0.05,0,1,0,0.06,0.06,95,,,,,,,,,,,,,,,,,,,,,,,,,,,,,,,,,,,,,,,,,,,,,,,,,,,,,,,,,,,,,,,,,,,,,,,,,,,,,,,,,,,,,,,,,,,,,,,,,,,,,,,,,,,,,,,,,,,
9948,0,0.1658,,-0.02,0.03,-0.05,0,1,0,0.06,0.06,96,,,,,,,,,,,,,,,,,,,,,,,,,,,,,,,,,,,,,,,,,,,,,,,,,,,,,,,,,,,,,,,,,,,,,,,,,,,,,,,,,,,,,,,,,,,,,,,,,,,,,,,,,,,,,,,,,,,
9988,0,0.1665,,-0.02,0.03,-0.05,0,1,0,0.06,0.06,95,0,0,0,0,32,0,0,1,0,0,0,0,0,9,7,1,12,0,0,24,0,0,138,17,17,0,0,0,0,1,0,4,3,3,0,352,348,0,0,0,0,0,0,0,0,3,3,3,0,347,346,0,0,0,0,0,0,0,0,0,0,0,0,0,0,3,1,1,0,86,85,82,0,0,0,0,0,0,0,0,0,0,0,0,0,0,0,0,0,0,0,0,0,0,0,0,0,0,0,0,0.0,0.0,0.0,0.0,0,0,0.0,0,0.0,-1,0.0,0.0,0,0.0,0.1665
10028,0,0.1671,,-0.02,0.03,-0.05,0,1,0,0.06,0.06,96,,,,,,,,,,,,,,,,,,,,,,,,,,,,,,,,,,,,,,,,,,,,,,,,,,,,,,,,,,,,,,,,,,,,,,,,,,,,,,,,,,,,,,,,,,,,,,,,,,,,,,,,,,,,,,,,,,,
10068,0,0.1678,,-0.02,0.03,-0.05,0,1,0,0.06,0.06,95,,,,,,,,,,,,,,,,,,,,,,,,,,,,,,,,,,,,,,,,,,,,,,,,,,,,,,,,,,,,,,,,,,,,,,,,,,,,,,,,,,,,,,,,,,,,,,,,,,,,,,,,,,,,,,,,,,,
10088,0,0.1681,,,,,,,,,,,0,0,0,0,32,0,0,1,0,0,0,0,0,9,7,1,12,0,0,24,0,0,138,17,17,0,0,0,0,1,0,4,3,3,0,352,348,0,0,0,0,0,0,0,0,3,3,3,0,347,346,0,0,0,0,0,0,0,0,0,0,0,0,0,0,3,1,1,0,86,85,82,0,0,0,0,0,0,0,0,0,0,0,0,0,0,0,0,0,0,0,0,0,0,0,0,0,0,0,0,0.0,0.0,0.0,0.0,0,0,0.0,0,0.0,-1,0.0,,0,0.0,0.1681
10108,0,0.1685,,-0.02,0.03,-0.05,0,1,0,0.06,0.06,95,,,,,,,,,,,,,,,,,,,,,,,,,,,,,,,,,,,,,,,,,,,,,,,,,,,,,,,,,,,,,,,,,,,,,,,,,,,,,,,,,,,,,,,,,,,,,,,,,,,,,,,,,,,,,,,,,,,
10148,0,0.1691,,-0.02,0.03,-0.05,0,1,0,0.06,0.06,97,,,,,,,,,,,,,,,,,,,,,,,,,,,,,,,,,,,,,,,,,,,,,,,,,,,,,,,,,,,,,,,,,,,,,,,,,,,,,,,,,,,,,,,,,,,,,,,,,,,,,,,,,,,,,,,,,,,
10188,0,0.1698,,-0.02,0.03,-0.05,0,1,0,0.06,0.06,95,0,0,0,0,32,0,0,1,0,0,0,0,0,9,7,1,12,0,0,24,0,0,138,17,17,0,0,0,0,1,0,4,3,3,0,352,348,0,0,0,0,0,0,0,0,3,3,3,0,347,346,0,0,0,0,0,0,0,0,0,0,0,0,0,0,3,1,1,0,86,85,82,0,0,0,0,0,0,0,0,0,0,0,0,0,0,0,0,0,0,0,0,0,0,0,0,0,0,0,0,0.0,0.0,0.0,0.0,0,0,0.0,0,0.0,-1,0.0,0.0,0,0.0,0.1698
10228,0,0.1705,,-0.02,0.03,-0.05,0,1,0,0.06,0.06,95,,,,,,,,,,,,,,,,,,,,,,,,,,,,,,,,,,,,,,,,,,,,,,,,,,,,,,,,,,,,,,,,,,,,,,,,,,,,,,,,,,,,,,,,,,,,,,,,,,,,,,,,,,,,,,,,,,,
10268,0,0.1711,,-0.02,0.03,-0.05,0,1,0,0.06,0.06,95,,,,,,,,,,,,,,,,,,,,,,,,,,,,,,,,,,,,,,,,,,,,,,,,,,,,,,,,,,,,,,,,,,,,,,,,,,,,,,,,,,,,,,,,,,,,,,,,,,,,,,,,,,,,,,,,,,,
10288,0,0.1715,,,,,,,,,,,0,0,0,0,32,0,0,1,0,0,0,0,0,9,7,1,12,0,0,24,0,0,138,17,17,0,0,0,0,1,0,4,3,3,0,352,348,0,0,0,0,0,0,0,3,1,1,0,86,84,80,0,0,0,0,0,0,0,0,0,0,0,0,0,0,3,1,1,0,86,85,82,0,0,0,0,0,0,0,0,0,0,0,0,0,0,0,0,0,0,0,0,0,0,0,0,0,0,0,0,0.0,0.0,0.0,0.0,0,0,0.0,0,0.0,-1,0.0,,0,0.0,0.1715
10308,0,0.1718,,-0.02,0.03,-0.05,0,1,0,0.06,0.06,95,,,,,,,,,,,,,,,,,,,,,,,,,,,,,,,,,,,,,,,,,,,,,,,,,,,,,,,,,,,,,,,,,,,,,,,,,,,,,,,,,,,,,,,,,,,,,,,,,,,,,,,,,,,,,,,,,,,
10348,0,0.1725,,-0.02,0.03,-0.05,0,1,0,0.06,0.06,95,,,,,,,,,,,,,,,,,,,,,,,,,,,,,,,,,,,,,,,,,,,,,,,,,,,,,,,,,,,,,,,,,,,,,,,,,,,,,,,,,,,,,,,,,,,,,,,,,,,,,,,,,,,,,,,,,,,
10388,0,0.1731,12.42,-0.02,0.02,-0.05,0,1,0,0.06,0.06,94,0,0,0,0,32,0,0,1,0,0,0,0,0,9,7,1,12,0,0,24,0,0,138,17,17,0,0,0,0,1,0,4,3,3,0,352,348,0,0,0,0,0,0,0,3,1,1,0,86,84,80,0,0,0,0,0,0,0,0,0,0,0,0,0,0,3,1,1,0,86,85,82,0,0,0,0,0,0,0,0,0,0,0,0,0,0,0,0,0,0,0,0,0,0,0,0,0,0,0,0,0.0,0.0,0.0,0.0,0,0,0.0,0,0.0,-1,0.0,0.0,0,0.0,0.1731
10428,0,0.1738,,-0.02,0.03,-0.05,0,1,0,0.06,0.06,94,,,,,,,,,,,,,,,,,,,,,,,,,,,,,,,,,,,,,,,,,,,,,,,,,,,,,,,,,,,,,,,,,,,,,,,,,,,,,,,,,,,,,,,,,,,,,,,,,,,,,,,,,,,,,,,,,,,
10468,0,0.1745,,-0.02,0.03,-0.05,0,1,0,0.06,0.06,96,,,,,,,,,,,,,,,,,,,,,,,,,,,,,,,,,,,,,,,,,,,,,,,,,,,,,,,,,,,,,,,,,,,,,,,,,,,,,,,,,,,,,,,,,,,,,,,,,,,,,,,,,,,,,,,,,,,
