"Interval"|"ms"|0|0|1,"Utc"|"ms"|0|0|1,"ElapsedTime"|"Min"|0.0|0.0|10,"Battery"|"Volts"|0.0|20.0|1,"AccelX"|"G"|-3.0|3.0|25,"AccelY"|"G"|-3.0|3.0|25,"AccelZ"|"G"|-3.0|3.0|25,"Yaw"|"Deg/Sec"|-120|120|25,"Pitch"|"Deg/Sec"|-120|120|25,"Roll"|"Deg/Sec"|-120|120|25,"Gsum"|"G"|0.0|3.0|25,"GsumMax"|"G"|0.0|3.0|25,"GsumPct"|"%"|0|100|25,"INV_Command"|""|-3277|3277|10,"VCU_INV_Inv"|""|0|1|10,"VCU_INV_Tor"|""|-3277|3277|10,"INV_Run_Fau"|""|0|65535|10,"INV_Post_Fa"|""|0|65535|10,"INV_Run_Fau"|""|0|65535|10,"INV_Post_Fa"|""|0|65535|10,"INV_Directi"|""|0|1|10,"INV_Inverte"|""|0|1|10,"INV_Relay_2"|""|0|1|10,"INV_Inverte"|""|0|1|10,"INV_Inverte"|""|0|1|10,"INV_Relay_1"|""|0|1|10,"INV_Inverte"|""|0|255|10,"INV_VSM_Sta"|""|0|15|10,"INV_Inverte"|""|0|1|10,"INV_PWM_Fre"|""|0|255|10,"INV_DC_Bus_"|""|-3277|3277|10,"INV_DC_Bus_"|""|-3277|3277|10,"INV_Delta_R"|""|-3277|3277|10,"INV_Motor_S"|""|-32768|32767|10,"INV_Torque_"|""|-3277|3277|10,"INV_Motor_T"|""|-3277|3277|10,"INV_Hot_Spo"|""|-3277|3277|10,"INV_Coolant"|""|-3277|3277|10,"INV_Fast_DC"|""|-3277|3277|10,"APPS1"|""|-32768|32767|10,"APPS2"|""|-32768|32767|10,"c_apps"|""|-32768|32767|10,"Faultcode"|""|0|4|10,"Multiplexor"|""|0|0|10,"BMS_1_1_Vol"|""|0|10|10,"BMS_1_1_Vol"|""|0|10|10,"BMS_1_1_Vol"|""|0|10|10,"BMS_1_1_Tem"|""|0|200|10,"BMS_1_1_Tem"|""|0|200|10,"BMS_1_1_Tem"|""|0|200|10,"Multiplexor"|""|0|0|10,"BMS_1_2_Vol"|""|0|10|10,"BMS_1_2_Vol"|""|0|10|10,"BMS_1_2_Vol"|""|0|10|10,"BMS_1_2_Tem"|""|0|200|10,"BMS_1_2_Tem"|""|0|200|10,"BMS_1_2_Tem"|""|0|200|10,"Multiplexor"|""|0|0|10,"BMS_2_1_Vol"|""|0|10|10,"BMS_2_1_Vol"|""|0|10|10,"BMS_2_1_Vol"|""|0|10|10,"BMS_2_1_Tem"|""|0|200|10,"BMS_2_1_Tem"|""|0|200|10,"BMS_2_1_Tem"|""|0|200|10,"Multiplexor"|""|0|0|10,"BMS_2_2_Vol"|""|0|10|10,"BMS_2_2_Vol"|""|0|10|10,"BMS_2_2_Vol"|""|0|10|10,"BMS_2_2_Tem"|""|0|200|10,"BMS_2_2_Tem"|""|0|200|10,"BMS_2_2_Tem"|""|0|200|10,"Multiplexor"|""|0|0|10,"BMS_3_1_Vol"|""|0|10|10,"BMS_3_1_Vol"|""|0|10|10,"BMS_3_1_Vol"|""|0|10|10,"BMS_3_1_Tem"|""|0|200|10,"BMS_3_1_Tem"|""|0|200|10,"BMS_3_1_Tem"|""|0|200|10,"Multiplexor"|""|0|0|10,"BMS_3_2_Vol"|""|0|10|10,"BMS_3_2_Vol"|""|0|10|10,"BMS_3_2_Vol"|""|0|10|10,"BMS_3_2_Tem"|""|0|200|10,"BMS_3_2_Tem"|""|0|200|10,"BMS_3_2_Tem"|""|0|200|10,"Multiplexor"|""|0|0|10,"BMS_4_1_Vol"|""|0|10|10,"BMS_4_1_Vol"|""|0|10|10,"BMS_4_1_Vol"|""|0|10|10,"BMS_4_1_Tem"|""|0|200|10,"BMS_4_1_Tem"|""|0|200|10,"BMS_4_1_Tem"|""|0|200|10,"Multiplexor"|""|0|0|10,"BMS_4_2_Vol"|""|0|10|10,"BMS_4_2_Vol"|""|0|10|10,"BMS_4_2_Vol"|""|0|10|10,"BMS_4_2_Tem"|""|0|200|10,"BMS_4_2_Tem"|""|0|200|10,"BMS_4_2_Tem"|""|0|200|10,"HS_MaxVolta"|""|0|655|10,"HS_MinVolta"|""|0|655|10,"HS_AverageV"|""|0|655|10,"HS_MaxTemp"|""|0|6553|10,"HS_MinTemp"|""|0|6553|10,"HS_AverageT"|""|0|6553|10,"HS_MaxTemp"|""|0|6553|10,"HS_MinTemp"|""|0|6553|10,"HS_AverageT"|""|0|6553|10,"HS_MaxTemp"|""|0|6553|10,"HS_MinTemp"|""|0|6553|10,"HS_AverageT"|""|0|6553|10,"HS_MaxTemp"|""|0|6553|10,"HS_MinTemp"|""|0|6553|10,"Latitude"|"Degrees"|-180.0|180.0|10,"Longitude"|"Degrees"|-180.0|180.0|10,"Speed"|"mph"|0.0|150.0|10,"Altitude"|"ft"|0.0|4000.0|10,"GPSSats"|""|0|20|10,"GPSQual"|""|0|5|10,"GPSDOP"|""|0.0|20.0|10,"LapCount"|""|0|0|10,"LapTime"|"Min"|0.0|0.0|10,"Sector"|""|0|0|10,"SectorTime"|"Min"|0.0|0.0|10,"PredTime"|"Min"|0.0|0.0|5,"CurrentLap"|""|0|0|10,"Distance"|"mi"|0.0|0.0|10,"SessionTime"|"Min"|0.0|0.0|10
1639,0,0.0273,,-0.02,0.03,-0.05,0,1,0,0.06,0.06,98,,,,,,,,,,,,,,,,,,,,,,,,,,,,,,,,,,,,,,,,,,,,,,,,,,,,,,,,,,,,,,,,,,,,,,,,,,,,,,,,,,,,,,,,,,,,,,,,,,,,,,,,,,,,,,,,,,,
1679,0,0.028,,-0.02,0.03,-0.05,0,1,0,0.06,0.06,96,,,,,,,,,,,,,,,,,,,,,,,,,,,,,,,,,,,,,,,,,,,,,,,,,,,,,,,,,,,,,,,,,,,,,,,,,,,,,,,,,,,,,,,,,,,,,,,,,,,,,,,,,,,,,,,,,,,
1699,0,0.0283,,,,,,,,,,,0,0,0,0,0,0,0,1,0,0,0,0,1,9,2,1,12,0,0,58,0,0,138,3,3,0,0,0,0,1,0,0,0,0,0,0,0,0,0,0,0,0,0,0,0,3,3,3,0,347,346,0,0,0,0,0,0,0,0,0,0,0,0,0,0,0,4,3,3,1,353,349,0,0,0,0,0,0,0,0,0,0,0,0,0,0,0,0,0,0,0,0,0,0,0,0,0,0,0,0,0.0,0.0,0.0,0.0,0,0,0.0,0,0.0,-1,0.0,,0,0.0,0.0283
1719,0,0.0286,,-0.02,0.03,-0.05,0,1,0,0.06,0.06,98,,,,,,,,,,,,,,,,,,,,,,,,,,,,,,,,,,,,,,,,,,,,,,,,,,,,,,,,,,,,,,,,,,,,,,,,,,,,,,,,,,,,,,,,,,,,,,,,,,,,,,,,,,,,,,,,,,,
1759,0,0.0293,,-0.02,0.02,-0.05,0,1,0,0.06,0.06,97,,,,,,,,,,,,,,,,,,,,,,,,,,,,,,,,,,,,,,,,,,,,,,,,,,,,,,,,,,,,,,,,,,,,,,,,,,,,,,,,,,,,,,,,,,,,,,,,,,,,,,,,,,,,,,,,,,,
1799,0,0.03,,-0.02,0.03,-0.05,0,1,0,0.06,0.06,97,0,0,0,0,0,0,0,1,0,0,0,0,1,9,2,1,12,0,0,58,0,0,138,3,3,0,0,0,0,1,0,0,0,0,0,0,0,0,0,0,0,0,0,0,0,3,3,3,0,347,346,0,0,0,0,0,0,0,0,0,0,0,0,0,0,0,4,3,3,1,353,349,0,0,0,0,0,0,0,0,0,0,0,0,0,0,0,0,0,0,0,0,0,0,0,0,0,0,0,0,0.0,0.0,0.0,0.0,0,0,0.0,0,0.0,-1,0.0,0.0,0,0.0,0.03
1839,0,0.0306,,-0.02,0.02,-0.05,0,1,0,0.06,0.06,96,,,,,,,,,,,,,,,,,,,,,,,,,,,,,,,,,,,,,,,,,,,,,,,,,,,,,,,,,,,,,,,,,,,,,,,,,,,,,,,,,,,,,,,,,,,,,,,,,,,,,,,,,,,,,,,,,,,
1879,0,0.0313,,-0.02,0.02,-0.05,0,1,0,0.06,0.06,96,,,,,,,,,,,,,,,,,,,,,,,,,,,,,,,,,,,,,,,,,,,,,,,,,,,,,,,,,,,,,,,,,,,,,,,,,,,,,,,,,,,,,,,,,,,,,,,,,,,,,,,,,,,,,,,,,,,
1899,0,0.0316,,,,,,,,,,,0,0,0,0,0,0,0,1,0,0,0,0,1,9,2,1,12,0,0,58,0,0,138,4,4,0,0,0,0,1,0,0,0,0,0,0,0,0,0,0,0,0,0,0,0,3,3,3,0,347,346,0,0,0,0,0,0,0,0,0,0,0,0,0,0,0,4,3,3,1,353,349,0,0,0,0,0,0,0,0,0,0,0,0,0,0,0,0,0,0,0,0,0,0,0,0,0,0,0,0,0.0,0.0,0.0,0.0,0,0,0.0,0,0.0,-1,0.0,,0,0.0,0.0316
1919,0,0.032,,-0.02,0.02,-0.05,0,1,0,0.06,0.06,98,,,,,,,,,,,,,,,,,,,,,,,,,,,,,,,,,,,,,,,,,,,,,,,,,,,,,,,,,,,,,,,,,,,,,,,,,,,,,,,,,,,,,,,,,,,,,,,,,,,,,,,,,,,,,,,,,,,
1959,0,0.0326,,-0.02,0.02,-0.05,0,1,0,0.06,0.06,99,,,,,,,,,,,,,,,,,,,,,,,,,,,,,,,,,,,,,,,,,,,,,,,,,,,,,,,,,,,,,,,,,,,,,,,,,,,,,,,,,,,,,,,,,,,,,,,,,,,,,,,,,,,,,,,,,,,
1999,0,0.0333,,-0.02,0.02,-0.05,0,1,0,0.06,0.06,99,0,0,0,0,0,0,0,1,0,0,0,0,1,9,2,1,12,0,0,58,0,0,138,4,4,0,0,0,0,1,0,0,0,0,0,0,0,0,0,0,0,0,0,0,0,3,3,3,0,347,346,0,0,0,0,0,0,0,0,0,0,0,0,0,0,0,4,3,3,1,353,349,0,0,0,0,0,0,0,0,0,0,0,0,0,0,0,0,0,0,0,0,0,0,0,0,0,0,0,0,0.0,0.0,0.0,0.0,0,0,0.0,0,0.0,-1,0.0,0.0,0,0.0,0.0333
2039,0,0.034,,-0.02,0.02,-0.05,0,1,0,0.06,0.06,97,,,,,,,,,,,,,,,,,,,,,,,,,,,,,,,,,,,,,,,,,,,,,,,,,,,,,,,,,,,,,,,,,,,,,,,,,,,,,,,,,,,,,,,,,,,,,,,,,,,,,,,,,,,,,,,,,,,
2079,0,0.0347,,-0.02,0.02,-0.05,0,1,0,0.06,0.06,98,,,,,,,,,,,,,,,,,,,,,,,,,,,,,,,,,,,,,,,,,,,,,,,,,,,,,,,,,,,,,,,,,,,,,,,,,,,,,,,,,,,,,,,,,,,,,,,,,,,,,,,,,,,,,,,,,,,
2099,0,0.035,,,,,,,,,,,0,0,0,0,0,0,0,1,0,0,0,0,1,9,2,1,12,0,0,58,0,0,138,4,4,0,0,0,0,1,0,0,0,0,0,0,0,0,0,0,0,0,0,0,0,3,3,3,0,347,346,0,0,0,0,0,0,0,0,0,0,0,0,0,0,0,4,3,3,1,353,349,0,0,0,0,0,0,0,0,0,0,0,0,0,0,0,0,0,0,0,0,0,0,0,0,0,0,0,0,0.0,0.0,0.0,0.0,0,0,0.0,0,0.0,-1,0.0,,0,0.0,0.035
2119,0,0.0353,,-0.02,0.03,-0.05,0,1,0,0.06,0.06,98,,,,,,,,,,,,,,,,,,,,,,,,,,,,,,,,,,,,,,,,,,,,,,,,,,,,,,,,,,,,,,,,,,,,,,,,,,,,,,,,,,,,,,,,,,,,,,,,,,,,,,,,,,,,,,,,,,,
2159,0,0.036,,-0.02,0.03,-0.05,0,1,0,0.06,0.06,99,,,,,,,,,,,,,,,,,,,,,,,,,,,,,,,,,,,,,,,,,,,,,,,,,,,,,,,,,,,,,,,,,,,,,,,,,,,,,,,,,,,,,,,,,,,,,,,,,,,,,,,,,,,,,,,,,,,
2199,0,0.0366,,-0.02,0.03,-0.05,0,1,0,0.06,0.06,98,0,0,0,0,0,0,0,1,0,0,0,0,1,9,2,1,12,0,0,58,0,0,138,4,4,0,0,0,0,1,0,0,0,0,0,0,0,0,0,0,0,0,0,0,0,3,3,3,0,347,346,0,0,0,0,0,0,0,0,0,0,0,0,0,0,0,4,3,3,1,353,349,0,0,0,0,0,0,0,0,0,0,0,0,0,0,0,0,0,0,0,0,0,0,0,0,0,0,0,0,0.0,0.0,0.0,0.0,0,0,0.0,0,0.0,-1,0.0,0.0,0,0.0,0.0366
2239,0,0.0373,,-0.02,0.03,-0.05,0,1,0,0.06,0.06,99,,,,,,,,,,,,,,,,,,,,,,,,,,,,,,,,,,,,,,,,,,,,,,,,,,,,,,,,,,,,,,,,,,,,,,,,,,,,,,,,,,,,,,,,,,,,,,,,,,,,,,,,,,,,,,,,,,,
2279,0,0.038,,-0.02,0.03,-0.05,0,1,0,0.06,0.06,99,,,,,,,,,,,,,,,,,,,,,,,,,,,,,,,,,,,,,,,,,,,,,,,,,,,,,,,,,,,,,,,,,,,,,,,,,,,,,,,,,,,,,,,,,,,,,,,,,,,,,,,,,,,,,,,,,,,
2299,0,0.0383,,,,,,,,,,,0,0,0,0,0,0,0,1,0,0,0,0,1,9,2,1,12,0,0,58,0,0,138,5,5,0,0,0,0,1,0,0,0,0,0,0,0,0,0,0,0,0,0,0,0,3,3,3,0,347,346,0,0,0,0,0,0,0,0,0,0,0,0,0,0,0,4,3,3,1,353,349,0,0,0,0,0,0,0,0,0,0,0,0,0,0,0,0,0,0,0,0,0,0,0,0,0,0,0,0,0.0,0.0,0.0,0.0,0,0,0.0,0,0.0,-1,0.0,,0,0.0,0.0383
2319,0,0.0386,,-0.02,0.03,-0.05,0,1,0,0.06,0.06,98,,,,,,,,,,,,,,,,,,,,,,,,,,,,,,,,,,,,,,,,,,,,,,,,,,,,,,,,,,,,,,,,,,,,,,,,,,,,,,,,,,,,,,,,,,,,,,,,,,,,,,,,,,,,,,,,,,,
2359,0,0.0393,,-0.02,0.03,-0.05,0,1,0,0.06,0.06,99,,,,,,,,,,,,,,,,,,,,,,,,,,,,,,,,,,,,,,,,,,,,,,,,,,,,,,,,,,,,,,,,,,,,,,,,,,,,,,,,,,,,,,,,,,,,,,,,,,,,,,,,,,,,,,,,,,,
2399,0,0.04,12.4,-0.02,0.03,-0.05,0,1,0,0.06,0.06,99,0,0,0,0,0,0,0,1,0,0,0,0,1,9,2,1,12,0,0,58,0,0,138,5,5,0,0,0,0,1,0,0,0,0,0,0,0,0,0,0,0,0,0,0,0,3,3,3,0,347,346,0,0,0,0,0,0,0,0,0,0,0,0,0,0,0,4,3,3,1,353,349,0,0,0,0,0,0,0,0,0,0,0,0,0,0,0,0,0,0,0,0,0,0,0,0,0,0,0,0,0.0,0.0,0.0,0.0,0,0,0.0,0,0.0,-1,0.0,0.0,0,0.0,0.04
2439,0,0.0406,,-0.02,0.03,-0.05,0,1,0,0.06,0.06,96,,,,,,,,,,,,,,,,,,,,,,,,,,,,,,,,,,,,,,,,,,,,,,,,,,,,,,,,,,,,,,,,,,,,,,,,,,,,,,,,,,,,,,,,,,,,,,,,,,,,,,,,,,,,,,,,,,,
2479,0,0.0413,,-0.02,0.03,-0.05,0,1,0,0.06,0.06,97,,,,,,,,,,,,,,,,,,,,,,,,,,,,,,,,,,,,,,,,,,,,,,,,,,,,,,,,,,,,,,,,,,,,,,,,,,,,,,,,,,,,,,,,,,,,,,,,,,,,,,,,,,,,,,,,,,,
2499,0,0.0416,,,,,,,,,,,0,0,0,0,0,0,0,1,0,0,0,0,1,9,2,1,12,0,0,58,0,0,138,5,5,0,0,0,0,1,0,0,0,0,0,0,0,0,0,0,0,0,0,0,0,3,3,3,0,347,346,0,0,0,0,0,0,0,0,0,0,0,0,0,0,3,1,1,0,86,85,82,0,0,0,0,0,0,0,0,0,0,0,0,0,0,0,0,0,0,0,0,0,0,0,0,0,0,0,0,0.0,0.0,0.0,0.0,0,0,0.0,0,0.0,-1,0.0,,0,0.0,0.0416
2519,0,0.042,,-0.02,0.03,-0.05,0,1,0,0.06,0.06,98,,,,,,,,,,,,,,,,,,,,,,,,,,,,,,,,,,,,,,,,,,,,,,,,,,,,,,,,,,,,,,,,,,,,,,,,,,,,,,,,,,,,,,,,,,,,,,,,,,,,,,,,,,,,,,,,,,,
2559,0,0.0426,,-0.02,0.03,-0.05,0,1,0,0.06,0.06,98,,,,,,,,,,,,,,,,,,,,,,,,,,,,,,,,,,,,,,,,,,,,,,,,,,,,,,,,,,,,,,,,,,,,,,,,,,,,,,,,,,,,,,,,,,,,,,,,,,,,,,,,,,,,,,,,,,,
2599,0,0.0433,,-0.02,0.03,-0.05,0,1,0,0.06,0.06,98,0,0,0,0,0,0,0,1,0,0,0,0,1,9,2,1,12,0,0,58,0,0,138,5,5,0,0,0,0,1,0,0,0,0,0,0,0,0,0,0,0,0,0,0,0,3,3,3,0,347,346,0,0,0,0,0,0,0,0,0,0,0,0,0,0,3,1,1,0,86,85,82,0,0,0,0,0,0,0,0,0,0,0,0,0,0,0,0,0,0,0,0,0,0,0,0,0,0,0,0,0.0,0.0,0.0,0.0,0,0,0.0,0,0.0,-1,0.0,0.0,0,0.0,0.0433
2639,0,0.044,,-0.02,0.03,-0.05,0,1,0,0.06,0.06,98,,,,,,,,,,,,,,,,,,,,,,,,,,,,,,,,,,,,,,,,,,,,,,,,,,,,,,,,,,,,,,,,,,,,,,,,,,,,,,,,,,,,,,,,,,,,,,,,,,,,,,,,,,,,,,,,,,,
2679,0,0.0446,,-0.02,0.03,-0.05,0,1,0,0.06,0.06,98,,,,,,,,,,,,,,,,,,,,,,,,,,,,,,,,,,,,,,,,,,,,,,,,,,,,,,,,,,,,,,,,,,,,,,,,,,,,,,,,,,,,,,,,,,,,,,,,,,,,,,,,,,,,,,,,,,,
2699,0,0.045,,,,,,,,,,,0,0,0,0,0,0,0,1,0,0,0,0,1,9,2,1,12,0,0,58,0,0,138,6,6,0,0,0,0,1,0,0,0,0,0,0,0,0,0,0,0,0,0,0,0,3,3,3,0,347,346,0,0,0,0,0,0,0,0,0,0,0,0,0,0,3,1,1,0,86,85,82,0,0,0,0,0,0,0,0,0,0,0,0,0,0,0,0,0,0,0,0,0,0,0,0,0,0,0,0,0.0,0.0,0.0,0.0,0,0,0.0,0,0.0,-1,0.0,,0,0.0,0.045
2719,0,0.0453,,-0.02,0.03,-0.05,0,1,0,0.06,0.06,98,,,,,,,,,,,,,,,,,,,,,,,,,,,,,,,,,,,,,,,,,,,,,,,,,,,,,,,,,,,,,,,,,,,,,,,,,,,,,,,,,,,,,,,,,,,,,,,,,,,,,,,,,,,,,,,,,,,
2759,0,0.046,,-0.02,0.03,-0.05,0,1,0,0.06,0.06,99,,,,,,,,,,,,,,,,,,,,,,,,,,,,,,,,,,,,,,,,,,,,,,,,,,,,,,,,,,,,,,,,,,,,,,,,,,,,,,,,,,,,,,,,,,,,,,,,,,,,,,,,,,,,,,,,,,,
2799,0,0.0466,,-0.02,0.03,-0.05,0,1,0,0.06,0.06,100,0,0,0,0,0,0,0,1,0,0,0,0,1,9,2,1,12,0,0,58,0,0,138,6,6,0,0,0,0,1,0,0,0,0,0,0,0,0,0,0,0,0,0,0,0,3,3,3,0,347,346,0,0,0,0,0,0,0,0,0,0,0,0,0,0,3,1,1,0,86,85,82,0,0,0,0,0,0,0,0,0,0,0,0,0,0,0,0,0,0,0,0,0,0,0,0,0,0,0,0,0.0,0.0,0.0,0.0,0,0,0.0,0,0.0,-1,0.0,0.0,0,0.0,0.0466
2839,0,0.0473,,-0.02,0.03,-0.05,0,1,0,0.06,0.06,100,,,,,,,,,,,,,,,,,,,,,,,,,,,,,,,,,,,,,,,,,,,,,,,,,,,,,,,,,,,,,,,,,,,,,,,,,,,,,,,,,,,,,,,,,,,,,,,,,,,,,,,,,,,,,,,,,,,
2879,0,0.048,,-0.02,0.03,-0.05,0,1,0,0.06,0.06,99,,,,,,,,,,,,,,,,,,,,,,,,,,,,,,,,,,,,,,,,,,,,,,,,,,,,,,,,,,,,,,,,,,,,,,,,,,,,,,,,,,,,,,,,,,,,,,,,,,,,,,,,,,,,,,,,,,,
2899,0,0.0483,,,,,,,,,,,0,0,0,0,0,0,0,1,0,0,0,0,1,9,2,1,12,0,0,58,0,0,138,6,6,0,0,0,0,1,0,0,0,0,0,0,0,0,0,0,0,0,0,0,0,3,3,3,0,347,346,0,0,0,0,0,0,0,0,0,0,0,0,0,0,3,1,1,0,86,85,82,0,0,0,0,0,0,0,0,0,0,0,0,0,0,0,0,0,0,0,0,0,0,0,0,0,0,0,0,0.0,0.0,0.0,0.0,0,0,0.0,0,0.0,-1,0.0,,0,0.0,0.0483
2919,0,0.0486,,-0.02,0.02,-0.05,0,1,0,0.06,0.06,98,,,,,,,,,,,,,,,,,,,,,,,,,,,,,,,,,,,,,,,,,,,,,,,,,,,,,,,,,,,,,,,,,,,,,,,,,,,,,,,,,,,,,,,,,,,,,,,,,,,,,,,,,,,,,,,,,,,
2959,0,0.0493,,-0.02,0.02,-0.05,0,1,0,0.06,0.06,99,,,,,,,,,,,,,,,,,,,,,,,,,,,,,,,,,,,,,,,,,,,,,,,,,,,,,,,,,,,,,,,,,,,,,,,,,,,,,,,,,,,,,,,,,,,,,,,,,,,,,,,,,,,,,,,,,,,
2999,0,0.05,,-0.02,0.02,-0.05,0,1,0,0.06,0.06,98,0,0,0,0,0,0,0,1,0,0,0,0,1,9,2,1,12,0,0,58,0,0,138,6,6,0,0,0,0,1,3,1,1,0,84,82,78,0,0,0,0,0,0,0,0,3,3,3,0,347,346,0,0,0,0,0,0,0,0,0,0,0,0,0,0,3,1,1,0,86,85,82,0,0,0,0,0,0,0,0,0,0,0,0,0,0,0,0,0,0,0,0,0,0,0,0,0,0,0,0,0.0,0.0,0.0,0.0,0,0,0.0,0,0.0,-1,0.0,0.0,0,0.0,0.05
3039,0,0.0506,,-0.02,0.02,-0.05,0,1,0,0.06,0.06,98,,,,,,,,,,,,,,,,,,,,,,,,,,,,,,,,,,,,,,,,,,,,,,,,,,,,,,,,,,,,,,,,,,,,,,,,,,,,,,,,,,,,,,,,,,,,,,,,,,,,,,,,,,,,,,,,,,,
3079,0,0.0513,,-0.02,0.02,-0.05,0,1,0,0.06,0.06,97,,,,,,,,,,,,,,,,,,,,,,,,,,,,,,,,,,,,,,,,,,,,,,,,,,,,,,,,,,,,,,,,,,,,,,,,,,,,,,,,,,,,,,,,,,,,,,,,,,,,,,,,,,,,,,,,,,,
3099,0,0.0516,,,,,,,,,,,0,0,0,0,0,0,0,1,0,0,0,0,1,9,2,1,12,0,0,58,0,0,138,6,6,0,0,0,0,1,3,1,1,0,84,82,78,0,0,0,0,0,0,0,0,3,3,3,0,347,346,0,0,0,0,0,0,0,0,0,0,0,0,0,0,3,1,1,0,86,85,82,0,0,0,0,0,0,0,0,0,0,0,0,0,0,0,0,0,0,0,0,0,0,0,0,0,0,0,0,0.0,0.0,0.0,0.0,0,0,0.0,0,0.0,-1,0.0,,0,0.0,0.0516
3119,0,0.052,,-0.02,0.02,-0.05,0,1,0,0.06,0.06,97,,,,,,,,,,,,,,,,,,,,,,,,,,,,,,,,,,,,,,,,,,,,,,,,,,,,,,,,,,,,,,,,,,,,,,,,,,,,,,,,,,,,,,,,,,,,,,,,,,,,,,,,,,,,,,,,,,,
3159,0,0.0526,,-0.02,0.02,-0.05,0,1,0,0.06,0.06,97,,,,,,,,,,,,,,,,,,,,,,,,,,,,,,,,,,,,,,,,,,,,,,,,,,,,,,,,,,,,,,,,,,,,,,,,,,,,,,,,,,,,,,,,,,,,,,,,,,,,,,,,,,,,,,,,,,,
3199,0,0.0533,,-0.02,0.03,-0.05,0,1,0,0.06,0.06,97,0,0,0,0,0,0,0,1,0,0,0,0,1,9,2,1,12,0,0,58,0,0,138,6,6,0,0,0,0,1,3,1,1,0,84,82,78,0,0,0,0,0,0,0,0,3,3,3,0,347,346,0,0,0,0,0,0,0,0,0,0,0,0,0,0,3,1,1,0,86,85,82,0,0,0,0,0,0,0,0,0,0,0,0,0,0,0,0,0,0,0,0,0,0,0,0,0,0,0,0,0.0,0.0,0.0,0.0,0,0,0.0,0,0.0,-1,0.0,0.0,0,0.0,0.0533
3239,0,0.054,,-0.02,0.03,-0.05,0,1,0,0.06,0.06,97,,,,,,,,,,,,,,,,,,,,,,,,,,,,,,,,,,,,,,,,,,,,,,,,,,,,,,,,,,,,,,,,,,,,,,,,,,,,,,,,,,,,,,,,,,,,,,,,,,,,,,,,,,,,,,,,,,,
3279,0,0.0546,,-0.02,0.03,-0.05,0,1,0,0.06,0.06,97,,,,,,,,,,,,,,,,,,,,,,,,,,,,,,,,,,,,,,,,,,,,,,,,,,,,,,,,,,,,,,,,,,,,,,,,,,,,,,,,,,,,,,,,,,,,,,,,,,,,,,,,,,,,,,,,,,,
3299,0,0.055,,,,,,,,,,,0,0,0,0,32,0,0,1,0,0,0,0,0,9,7,1,12,0,0,58,0,0,138,7,7,0,0,0,0,1,3,1,1,0,84,82,78,0,0,0,0,0,0,0,0,3,3,3,0,347,346,0,0,0,0,0,0,0,0,0,0,0,0,0,0,3,1,1,0,86,85,82,0,0,0,0,0,0,0,0,0,0,0,0,0,0,0,0,0,0,0,0,0,0,0,0,0,0,0,0,0.0,0.0,0.0,0.0,0,0,0.0,0,0.0,-1,0.0,,0,0.0,0.055
3319,0,0.0553,,-0.02,0.03,-0.05,0,1,0,0.06,0.06,97,,,,,,,,,,,,,,,,,,,,,,,,,,,,,,,,,,,,,,,,,,,,,,,,,,,,,,,,,,,,,,,,,,,,,,,,,,,,,,,,,,,,,,,,,,,,,,,,,,,,,,,,,,,,,,,,,,,
3359,0,0.056,,-0.02,0.03,-0.05,0,1,0,0.06,0.06,97,,,,,,,,,,,,,,,,,,,,,,,,,,,,,,,,,,,,,,,,,,,,,,,,,,,,,,,,,,,,,,,,,,,,,,,,,,,,,,,,,,,,,,,,,,,,,,,,,,,,,,,,,,,,,,,,,,,
3399,0,0.0566,12.36,-0.02,0.02,-0.05,0,1,0,0.06,0.06,96,0,0,0,0,32,0,0,1,0,0,0,0,0,9,7,1,12,0,0,58,0,0,138,7,7,0,0,0,0,1,3,1,1,0,84,82,78,0,0,0,0,0,0,0,0,3,3,3,0,347,346,0,0,0,0,0,0,0,0,0,0,0,0,0,0,3,1,1,0,86,85,82,0,0,0,0,0,0,0,0,0,0,0,0,0,0,0,0,0,0,0,0,0,0,0,0,0,0,0,0,0.0,0.0,0.0,0.0,0,0,0.0,0,0.0,-1,0.0,0.0,0,0.0,0.0566
3439,0,0.0573,,-0.02,0.02,-0.05,0,1,0,0.06,0.06,96,,,,,,,,,,,,,,,,,,,,,,,,,,,,,,,,,,,,,,,,,,,,,,,,,,,,,,,,,,,,,,,,,,,,,,,,,,,,,,,,,,,,,,,,,,,,,,,,,,,,,,,,,,,,,,,,,,,
3479,0,0.058,,-0.02,0.02,-0.05,0,1,0,0.06,0.06,97,,,,,,,,,,,,,,,,,,,,,,,,,,,,,,,,,,,,,,,,,,,,,,,,,,,,,,,,,,,,,,,,,,,,,,,,,,,,,,,,,,,,,,,,,,,,,,,,,,,,,,,,,,,,,,,,,,,
3499,0,0.0583,,,,,,,,,,,0,0,0,0,32,0,0,1,0,0,0,0,0,9,7,1,12,0,0,58,0,0,138,7,7,0,0,0,0,1,3,1,1,0,84,82,78,0,0,0,0,0,0,0,0,3,3,3,0,347,346,0,0,0,0,0,0,0,0,0,0,0,0,0,0,3,1,1,0,86,85,82,0,0,0,0,0,0,0,0,0,0,0,0,0,0,0,0,0,0,0,0,0,0,0,0,0,0,0,0,0.0,0.0,0.0,0.0,0,0,0.0,0,0.0,-1,0.0,,0,0.0,0.0583
3519,0,0.0586,,-0.02,0.02,-0.05,0,1,0,0.06,0.06,97,,,,,,,,,,,,,,,,,,,,,,,,,,,,,,,,,,,,,,,,,,,,,,,,,,,,,,,,,,,,,,,,,,,,,,,,,,,,,,,,,,,,,,,,,,,,,,,,,,,,,,,,,,,,,,,,,,,
3559,0,0.0593,,-0.02,0.02,-0.05,0,1,0,0.06,0.06,97,,,,,,,,,,,,,,,,,,,,,,,,,,,,,,,,,,,,,,,,,,,,,,,,,,,,,,,,,,,,,,,,,,,,,,,,,,,,,,,,,,,,,,,,,,,,,,,,,,,,,,,,,,,,,,,,,,,
3599,0,0.06,,-0.02,0.02,-0.05,0,1,0,0.06,0.06,97,0,0,0,0,32,0,0,1,0,0,0,0,0,9,7,1,12,0,0,58,0,0,138,7,7,0,0,0,0,1,3,1,1,0,84,82,78,0,0,0,0,0,0,0,0,3,3,3,0,347,346,0,0,0,0,0,0,0,0,0,0,0,0,0,0,3,1,1,0,86,85,82,0,0,0,0,0,0,0,0,0,0,0,0,0,0,0,0,0,0,0,0,0,0,0,0,0,0,0,0,0.0,0.0,0.0,0.0,0,0,0.0,0,0.0,-1,0.0,0.0,0,0.0,0.06
3639,0,0.0606,,-0.02,0.02,-0.05,0,1,0,0.06,0.06,96,,,,,,,,,,,,,,,,,,,,,,,,,,,,,,,,,,,,,,,,,,,,,,,,,,,,,,,,,,,,,,,,,,,,,,,,,,,,,,,,,,,,,,,,,,,,,,,,,,,,,,,,,,,,,,,,,,,
3679,0,0.0613,,-0.02,0.02,-0.05,0,1,0,0.06,0.06,97,,,,,,,,,,,,,,,,,,,,,,,,,,,,,,,,,,,,,,,,,,,,,,,,,,,,,,,,,,,,,,,,,,,,,,,,,,,,,,,,,,,,,,,,,,,,,,,,,,,,,,,,,,,,,,,,,,,
3699,0,0.0616,,,,,,,,,,,0,0,0,0,32,0,0,1,0,0,0,0,0,9,7,1,12,0,0,58,0,0,138,7,7,0,0,0,0,1,3,1,1,0,84,82,78,0,0,0,0,0,0,0,0,3,3,3,0,347,346,0,0,0,0,0,0,0,0,0,0,0,0,0,0,3,1,1,0,86,85,82,0,0,0,0,0,0,0,0,0,0,0,0,0,0,0,0,0,0,0,0,0,0,0,0,0,0,0,0,0.0,0.0,0.0,0.0,0,0,0.0,0,0.0,-1,0.0,,0,0.0,0.0616
3719,0,0.062,,-0.02,0.02,-0.05,0,1,0,0.06,0.06,96,,,,,,,,,,,,,,,,,,,,,,,,,,,,,,,,,,,,,,,,,,,,,,,,,,,,,,,,,,,,,,,,,,,,,,,,,,,,,,,,,,,,,,,,,,,,,,,,,,,,,,,,,,,,,,,,,,,
3759,0,0.0626,,-0.02,0.03,-0.05,0,1,0,0.06,0.06,97,,,,,,,,,,,,,,,,,,,,,,,,,,,,,,,,,,,,,,,,,,,,,,,,,,,,,,,,,,,,,,,,,,,,,,,,,,,,,,,,,,,,,,,,,,,,,,,,,,,,,,,,,,,,,,,,,,,
3799,0,0.0633,,-0.02,0.03,-0.05,0,1,0,0.06,0.06,96,0,0,0,0,32,0,0,1,0,0,0,0,0,9,7,1,12,0,0,58,0,0,138,7,7,0,0,0,0,1,3,1,1,0,84,82,78,0,0,0,0,0,0,0,0,3,3,3,0,347,346,0,0,0,0,0,0,0,0,0,0,0,0,0,0,3,1,1,0,86,85,82,0,0,0,0,0,0,0,0,0,0,0,0,0,0,0,0,0,0,0,0,0,0,0,0,0,0,0,0,0.0,0.0,0.0,0.0,0,0,0.0,0,0.0,-1,0.0,0.0,0,0.0,0.0633
3839,0,0.064,,-0.02,0.03,-0.05,0,1,0,0.06,0.06,97,,,,,,,,,,,,,,,,,,,,,,,,,,,,,,,,,,,,,,,,,,,,,,,,,,,,,,,,,,,,,,,,,,,,,,,,,,,,,,,,,,,,,,,,,,,,,,,,,,,,,,,,,,,,,,,,,,,
3879,0,0.0646,,-0.02,0.03,-0.05,0,1,0,0.06,0.06,98,,,,,,,,,,,,,,,,,,,,,,,,,,,,,,,,,,,,,,,,,,,,,,,,,,,,,,,,,,,,,,,,,,,,,,,,,,,,,,,,,,,,,,,,,,,,,,,,,,,,,,,,,,,,,,,,,,,
3899,0,0.065,,,,,,,,,,,0,0,0,0,32,0,0,1,0,0,0,0,0,9,7,1,12,0,0,58,0,0,138,8,8,0,0,0,0,1,3,1,1,0,84,82,78,0,0,0,0,0,0,0,0,3,3,3,0,347,346,0,0,0,0,0,0,0,0,0,0,0,0,0,0,3,1,1,0,86,85,82,0,0,0,0,0,0,0,0,0,0,0,0,0,0,0,0,0,0,0,0,0,0,0,0,0,0,0,0,0.0,0.0,0.0,0.0,0,0,0.0,0,0.0,-1,0.0,,0,0.0,0.065
3919,0,0.0653,,-0.02,0.03,-0.05,0,1,0,0.06,0.06,98,,,,,,,,,,,,,,,,,,,,,,,,,,,,,,,,,,,,,,,,,,,,,,,,,,,,,,,,,,,,,,,,,,,,,,,,,,,,,,,,,,,,,,,,,,,,,,,,,,,,,,,,,,,,,,,,,,,
3959,0,0.066,,-0.02,0.03,-0.05,0,1,0,0.06,0.06,98,,,,,,,,,,,,,,,,,,,,,,,,,,,,,,,,,,,,,,,,,,,,,,,,,,,,,,,,,,,,,,,,,,,,,,,,,,,,,,,,,,,,,,,,,,,,,,,,,,,,,,,,,,,,,,,,,,,
3999,0,0.0667,,-0.02,0.03,-0.05,0,1,0,0.06,0.06,99,0,0,0,0,32,0,0,1,0,0,0,0,0,9,7,1,12,0,0,58,0,0,138,8,8,0,0,0,0,1,3,1,1,0,84,82,78,0,0,0,0,0,0,0,0,3,3,3,0,347,346,0,0,0,0,0,0,0,0,0,0,0,0,0,0,3,1,1,0,86,85,82,0,0,0,0,0,0,0,0,0,0,0,0,0,0,0,0,0,0,0,0,0,0,0,0,0,0,0,0,0.0,0.0,0.0,0.0,0,0,0.0,0,0.0,-1,0.0,0.0,0,0.0,0.0667
4039,0,0.0673,,-0.02,0.03,-0.05,0,1,0,0.06,0.06,97,,,,,,,,,,,,,,,,,,,,,,,,,,,,,,,,,,,,,,,,,,,,,,,,,,,,,,,,,,,,,,,,,,,,,,,,,,,,,,,,,,,,,,,,,,,,,,,,,,,,,,,,,,,,,,,,,,,
4079,0,0.068,,-0.02,0.03,-0.05,0,1,0,0.06,0.06,97,,,,,,,,,,,,,,,,,,,,,,,,,,,,,,,,,,,,,,,,,,,,,,,,,,,,,,,,,,,,,,,,,,,,,,,,,,,,,,,,,,,,,,,,,,,,,,,,,,,,,,,,,,,,,,,,,,,
4099,0,0.0683,,,,,,,,,,,0,0,0,0,32,0,0,1,0,0,0,0,0,9,7,1,12,0,0,58,0,0,138,8,8,0,0,0,0,1,3,1,1,0,84,82,78,0,0,0,0,0,0,0,0,3,3,3,0,347,346,0,0,0,0,0,0,0,0,0,0,0,0,0,0,3,1,1,0,86,85,82,0,0,0,0,0,0,0,0,0,0,0,0,0,0,0,0,0,0,0,0,0,0,0,0,0,0,0,0,0.0,0.0,0.0,0.0,0,0,0.0,0,0.0,-1,0.0,,0,0.0,0.0683
4119,0,0.0686,,-0.02,0.03,-0.05,0,1,0,0.06,0.06,97,,,,,,,,,,,,,,,,,,,,,,,,,,,,,,,,,,,,,,,,,,,,,,,,,,,,,,,,,,,,,,,,,,,,,,,,,,,,,,,,,,,,,,,,,,,,,,,,,,,,,,,,,,,,,,,,,,,
4159,0,0.0693,,-0.02,0.03,-0.05,0,1,0,0.06,0.06,97,,,,,,,,,,,,,,,,,,,,,,,,,,,,,,,,,,,,,,,,,,,,,,,,,,,,,,,,,,,,,,,,,,,,,,,,,,,,,,,,,,,,,,,,,,,,,,,,,,,,,,,,,,,,,,,,,,,
4199,0,0.07,,-0.02,0.03,-0.05,0,1,0,0.06,0.06,97,0,0,0,0,32,0,0,1,0,0,0,0,0,9,7,1,12,0,0,58,0,0,138,8,8,0,0,0,0,1,3,1,1,0,84,82,78,0,0,0,0,0,0,0,3,1,1,0,86,84,80,0,0,0,0,0,0,0,0,0,0,0,0,0,0,3,1,1,0,86,85,82,0,0,0,0,0,0,0,0,0,0,0,0,0,0,0,0,0,0,0,0,0,0,0,0,0,0,0,0,0.0,0.0,0.0,0.0,0,0,0.0,0,0.0,-1,0.0,0.0,0,0.0,0.07
4239,0,0.0706,,-0.02,0.03,-0.05,0,1,0,0.06,0.06,96,,,,,,,,,,,,,,,,,,,,,,,,,,,,,,,,,,,,,,,,,,,,,,,,,,,,,,,,,,,,,,,,,,,,,,,,,,,,,,,,,,,,,,,,,,,,,,,,,,,,,,,,,,,,,,,,,,,
4279,0,0.0713,,-0.02,0.03,-0.05,0,1,0,0.06,0.06,95,,,,,,,,,,,,,,,,,,,,,,,,,,,,,,,,,,,,,,,,,,,,,,,,,,,,,,,,,,,,,,,,,,,,,,,,,,,,,,,,,,,,,,,,,,,,,,,,,,,,,,,,,,,,,,,,,,,
4299,0,0.0716,,,,,,,,,,,0,0,0,0,32,0,0,1,0,0,0,0,0,9,7,1,12,0,0,58,0,0,138,8,8,0,0,0,0,1,3,1,1,0,84,82,78,0,0,0,0,0,0,0,3,1,1,0,86,84,80,0,0,0,0,0,0,0,0,0,0,0,0,0,0,3,1,1,0,86,85,82,0,0,0,0,0,0,0,0,0,0,0,0,0,0,0,0,0,0,0,0,0,0,0,0,0,0,0,0,0.0,0.0,0.0,0.0,0,0,0.0,0,0.0,-1,0.0,,0,0.0,0.0716
4319,0,0.072,,-0.02,0.03,-0.05,0,1,0,0.06,0.06,95,,,,,,,,,,,,,,,,,,,,,,,,,,,,,,,,,,,,,,,,,,,,,,,,,,,,,,,,,,,,,,,,,,,,,,,,,,,,,,,,,,,,,,,,,,,,,,,,,,,,,,,,,,,,,,,,,,,
4359,0,0.0726,,-0.02,0.03,-0.05,0,1,0,0.06,0.06,95,,,,,,,,,,,,,,,,,,,,,,,,,,,,,,,,,,,,,,,,,,,,,,,,,,,,,,,,,,,,,,,,,,,,,,,,,,,,,,,,,,,,,,,,,,,,,,,,,,,,,,,,,,,,,,,,,,,
4399,0,0.0733,12.4,-0.02,0.03,-0.05,0,1,0,0.06,0.06,93,0,0,0,0,32,0,0,1,0,0,0,0,0,9,7,1,12,0,0,58,0,0,138,8,8,0,0,0,0,1,3,1,1,0,84,82,78,0,0,0,0,0,0,0,3,1,1,0,86,84,80,0,0,0,0,0,0,0,0,0,0,0,0,0,0,3,1,1,0,86,85,82,0,0,0,0,0,0,0,0,0,0,0,0,0,0,0,0,0,0,0,0,0,0,0,0,0,0,0,0,0.0,0.0,0.0,0.0,0,0,0.0,0,0.0,-1,0.0,0.0,0,0.0,0.0733
4439,0,0.074,,-0.02,0.03,-0.05,0,1,0,0.06,0.06,94,,,,,,,,,,,,,,,,,,,,,,,,,,,,,,,,,,,,,,,,,,,,,,,,,,,,,,,,,,,,,,,,,,,,,,,,,,,,,,,,,,,,,,,,,,,,,,,,,,,,,,,,,,,,,,,,,,,
4479,0,0.0746,,-0.02,0.03,-0.05,0,1,0,0.06,0.06,96,,,,,,,,,,,,,,,,,,,,,,,,,,,,,,,,,,,,,,,,,,,,,,,,,,,,,,,,,,,,,,,,,,,,,,,,,,,,,,,,,,,,,,,,,,,,,,,,,,,,,,,,,,,,,,,,,,,
4499,0,0.075,,,,,,,,,,,0,0,0,0,32,0,0,1,0,0,0,0,0,9,7,1,12,0,0,58,0,0,138,8,8,0,0,0,0,1,3,1,1,0,84,82,78,0,0,0,0,0,0,0,3,1,1,0,86,84,80,0,0,0,0,0,0,0,0,0,0,0,0,0,0,0,3,3,3,1,349,349,0,0,0,0,0,0,0,0,0,0,0,0,0,0,0,0,0,0,0,0,0,0,0,0,0,0,0,0,0.0,0.0,0.0,0.0,0,0,0.0,0,0.0,-1,0.0,,0,0.0,0.075
4519,0,0.0753,,-0.02,0.03,-0.05,0,1,0,0.06,0.06,97,,,,,,,,,,,,,,,,,,,,,,,,,,,,,,,,,,,,,,,,,,,,,,,,,,,,,,,,,,,,,,,,,,,,,,,,,,,,,,,,,,,,,,,,,,,,,,,,,,,,,,,,,,,,,,,,,,,
4559,0,0.076,,-0.02,0.03,-0.05,0,1,0,0.06,0.06,97,,,,,,,,,,,,,,,,,,,,,,,,,,,,,,,,,,,,,,,,,,,,,,,,,,,,,,,,,,,,,,,,,,,,,,,,,,,,,,,,,,,,,,,,,,,,,,,,,,,,,,,,,,,,,,,,,,,
4599,0,0.0766,,-0.02,0.03,-0.05,0,1,0,0.06,0.06,98,0,0,0,0,32,0,0,1,0,0,0,0,0,9,7,1,12,0,0,58,0,0,138,9,9,0,0,0,0,1,3,1,1,0,84,82,78,0,0,0,0,0,0,0,3,1,1,0,86,84,80,0,0,0,0,0,0,0,0,0,0,0,0,0,0,0,3,3,3,1,349,349,0,0,0,0,0,0,0,0,0,0,0,0,0,0,0,0,0,0,0,0,0,0,0,0,0,0,0,0,0.0,0.0,0.0,0.0,0,0,0.0,0,0.0,-1,0.0,0.0,0,0.0,0.0766
4639,0,0.0773,,-0.02,0.03,-0.05,0,1,0,0.06,0.06,97,,,,,,,,,,,,,,,,,,,,,,,,,,,,,,,,,,,,,,,,,,,,,,,,,,,,,,,,,,,,,,,,,,,,,,,,,,,,,,,,,,,,,,,,,,,,,,,,,,,,,,,,,,,,,,,,,,,
4679,0,0.078,,-0.02,0.03,-0.05,0,1,0,0.06,0.06,96,,,,,,,,,,,,,,,,,,,,,,,,,,,,,,,,,,,,,,,,,,,,,,,,,,,,,,,,,,,,,,,,,,,,,,,,,,,,,,,,,,,,,,,,,,,,,,,,,,,,,,,,,,,,,,,,,,,
4699,0,0.0783,,,,,,,,,,,0,0,0,0,32,0,0,1,0,0,0,0,0,9,7,1,12,0,0,58,0,0,138,9,9,0,0,0,0,1,3,1,1,0,84,82,78,0,0,0,0,0,0,0,3,1,1,0,86,84,80,0,0,0,0,0,0,0,0,0,0,0,0,0,0,0,3,3,3,1,349,349,0,0,0,0,0,0,0,0,0,0,0,0,0,0,0,0,0,0,0,0,0,0,0,0,0,0,0,0,0.0,0.0,0.0,0.0,0,0,0.0,0,0.0,-1,0.0,,0,0.0,0.0783
4719,0,0.0786,,-0.02,0.03,-0.05,0,1,0,0.06,0.06,96,,,,,,,,,,,,,,,,,,,,,,,,,,,,,,,,,,,,,,,,,,,,,,,,,,,,,,,,,,,,,,,,,,,,,,,,,,,,,,,,,,,,,,,,,,,,,,,,,,,,,,,,,,,,,,,,,,,
4759,0,0.0793,,-0.02,0.03,-0.05,0,1,0,0.06,0.06,98,,,,,,,,,,,,,,,,,,,,,,,,,,,,,,,,,,,,,,,,,,,,,,,,,,,,,,,,,,,,,,,,,,,,,,,,,,,,,,,,,,,,,,,,,,,,,,,,,,,,,,,,,,,,,,,,,,,
