"Interval"|"ms"|0|0|1,"Utc"|"ms"|0|0|1,"ElapsedTime"|"Min"|0.0|0.0|10,"Battery"|"Volts"|0.0|20.0|1,"AccelX"|"G"|-3.0|3.0|25,"AccelY"|"G"|-3.0|3.0|25,"AccelZ"|"G"|-3.0|3.0|25,"Yaw"|"Deg/Sec"|-120|120|25,"Pitch"|"Deg/Sec"|-120|120|25,"Roll"|"Deg/Sec"|-120|120|25,"Gsum"|"G"|0.0|3.0|25,"GsumMax"|"G"|0.0|3.0|25,"GsumPct"|"%"|0|100|25,"INV_Command"|""|-3277|3277|10,"VCU_INV_Inv"|""|0|1|10,"VCU_INV_Tor"|""|-3277|3277|10,"INV_Run_Fau"|""|0|65535|10,"INV_Post_Fa"|""|0|65535|10,"INV_Run_Fau"|""|0|65535|10,"INV_Post_Fa"|""|0|65535|10,"INV_Directi"|""|0|1|10,"INV_Inverte"|""|0|1|10,"INV_Relay_2"|""|0|1|10,"INV_Inverte"|""|0|1|10,"INV_Inverte"|""|0|1|10,"INV_Relay_1"|""|0|1|10,"INV_Inverte"|""|0|255|10,"INV_VSM_Sta"|""|0|15|10,"INV_PWM_Fre"|""|0|255|10,"INV_DC_BusV"|""|-3277|3277|10,"INV_DCBus_I"|""|-3277|3277|10,"INV_Delta_R"|""|-3277|3277|10,"INV_Motor_S"|""|-32768|32767|10,"INV_Torque_"|""|-3277|3277|10,"INV_Motor_T"|""|-3277|3277|10,"INV_Hot_Spo"|""|-3277|3277|10,"INV_Coolant"|""|-3277|3277|10,"INV_Fast_DC"|""|-3277|3277|10,"APPS1"|""|-32768|32767|10,"APPS2"|""|-32768|32767|10,"c_apps"|""|-32768|32767|10,"Faultcode"|""|0|4|10,"Multiplexor"|""|0|0|10,"BMS_1_1_Vol"|""|0|10|10,"BMS_1_1_Vol"|""|0|10|10,"BMS_1_1_Vol"|""|0|10|10,"BMS_1_1_Tem"|""|0|200|10,"BMS_1_1_Tem"|""|0|200|10,"BMS_1_1_Tem"|""|0|200|10,"Multiplexor"|""|0|0|10,"BMS_1_2_Vol"|""|0|10|10,"BMS_1_2_Vol"|""|0|10|10,"BMS_1_2_Vol"|""|0|10|10,"BMS_1_2_Tem"|""|0|200|10,"BMS_1_2_Tem"|""|0|200|10,"BMS_1_2_Tem"|""|0|200|10,"Multiplexor"|""|0|0|10,"BMS_2_1_Vol"|""|0|10|10,"BMS_2_1_Vol"|""|0|10|10,"BMS_2_1_Vol"|""|0|10|10,"BMS_2_1_Tem"|""|0|200|10,"BMS_2_1_Tem"|""|0|200|10,"BMS_2_1_Tem"|""|0|200|10,"Multiplexor"|""|0|0|10,"BMS_2_2_Vol"|""|0|10|10,"BMS_2_2_Vol"|""|0|10|10,"BMS_2_2_Vol"|""|0|10|10,"BMS_2_2_Tem"|""|0|200|10,"BMS_2_2_Tem"|""|0|200|10,"BMS_2_2_Tem"|""|0|200|10,"Multiplexor"|""|0|0|10,"BMS_3_1_Vol"|""|0|10|10,"BMS_3_1_Vol"|""|0|10|10,"BMS_3_1_Vol"|""|0|10|10,"BMS_3_1_Tem"|""|0|200|10,"BMS_3_1_Tem"|""|0|200|10,"BMS_3_1_Tem"|""|0|200|10,"Multiplexor"|""|0|0|10,"BMS_3_2_Vol"|""|0|10|10,"BMS_3_2_Vol"|""|0|10|10,"BMS_3_2_Vol"|""|0|10|10,"BMS_3_2_Tem"|""|0|200|10,"BMS_3_2_Tem"|""|0|200|10,"BMS_3_2_Tem"|""|0|200|10,"Multiplexor"|""|0|0|10,"BMS_4_1_Vol"|""|0|10|10,"BMS_4_1_Vol"|""|0|10|10,"BMS_4_1_Vol"|""|0|10|10,"BMS_4_1_Tem"|""|0|200|10,"BMS_4_1_Tem"|""|0|200|10,"BMS_4_1_Tem"|""|0|200|10,"Multiplexor"|""|0|0|10,"BMS_4_2_Vol"|""|0|10|10,"BMS_4_2_Vol"|""|0|10|10,"BMS_4_2_Vol"|""|0|10|10,"BMS_4_2_Tem"|""|0|200|10,"BMS_4_2_Tem"|""|0|200|10,"BMS_4_2_Tem"|""|0|200|10,"HS_MaxVolta"|""|0|655|10,"HS_MinVolta"|""|0|655|10,"HS_AverageV"|""|0|655|10,"HS_MaxTemp"|""|0|6553|10,"HS_MinTemp"|""|0|6553|10,"HS_AverageT"|""|0|6553|10,"HS_MaxTemp"|""|0|6553|10,"HS_MinTemp"|""|0|6553|10,"HS_AverageT"|""|0|6553|10,"HS_MaxTemp"|""|0|6553|10,"HS_MinTemp"|""|0|6553|10,"HS_AverageT"|""|0|6553|10,"HS_MaxTemp"|""|0|6553|10,"HS_MinTemp"|""|0|6553|10,"HS_AverageT"|""|0|6553|10,"Latitude"|"Degrees"|-180.0|180.0|10,"Longitude"|"Degrees"|-180.0|180.0|10,"Speed"|"mph"|0.0|150.0|10,"Altitude"|"ft"|0.0|4000.0|10,"GPSSats"|""|0|20|10,"GPSQual"|""|0|5|10,"GPSDOP"|""|0.0|20.0|10,"LapCount"|""|0|0|10,"LapTime"|"Min"|0.0|0.0|10,"Sector"|""|0|0|10,"SectorTime"|"Min"|0.0|0.0|10,"PredTime"|"Min"|0.0|0.0|5,"CurrentLap"|""|0|0|10,"Distance"|"mi"|0.0|0.0|10,"SessionTime"|"Min"|0.0|0.0|10
1564,0,0.0261,,-0.02,0.03,-0.04,-0,1,0,0.05,0.06,90,,,,,,,,,,,,,,,,,,,,,,,,,,,,,,,,,,,,,,,,,,,,,,,,,,,,,,,,,,,,,,,,,,,,,,,,,,,,,,,,,,,,,,,,,,,,,,,,,,,,,,,,,,,,,,,,,,,
1604,0,0.0267,,-0.02,0.03,-0.04,-0,1,-0,0.05,0.06,94,,,,,,,,,,,,,,,,,,,,,,,,,,,,,,,,,,,,,,,,,,,,,,,,,,,,,,,,,,,,,,,,,,,,,,,,,,,,,,,,,,,,,,,,,,,,,,,,,,,,,,,,,,,,,,,,,,,
1624,0,0.0271,,,,,,,,,,,0,0,0,0,0,0,0,1,0,0,0,0,1,9,2,12,0,0,96,0,0,138,3,3,0,0,0,0,1,0,0,0,0,0,0,0,0,0,0,0,0,0,0,0,3,3,3,0,347,347,0,0,0,0,0,0,0,0,0,0,0,0,0,0,0,1,0,0,1,130,45,0,0,0,0,0,0,0,0,0,0,0,0,0,0,0,0,0,0,0,0,0,0,0,0,0,0,0,0,0,0.0,0.0,0.0,0.0,0,0,0.0,0,0.0,-1,0.0,,0,0.0,0.0271
1644,0,0.0274,,-0.02,0.03,-0.04,-0,1,0,0.05,0.06,96,,,,,,,,,,,,,,,,,,,,,,,,,,,,,,,,,,,,,,,,,,,,,,,,,,,,,,,,,,,,,,,,,,,,,,,,,,,,,,,,,,,,,,,,,,,,,,,,,,,,,,,,,,,,,,,,,,,
1684,0,0.0281,,-0.02,0.03,-0.04,-0,0,0,0.05,0.06,96,,,,,,,,,,,,,,,,,,,,,,,,,,,,,,,,,,,,,,,,,,,,,,,,,,,,,,,,,,,,,,,,,,,,,,,,,,,,,,,,,,,,,,,,,,,,,,,,,,,,,,,,,,,,,,,,,,,
1724,0,0.0287,,-0.02,0.03,-0.04,-0,1,0,0.05,0.06,95,0,0,0,0,0,0,0,1,0,0,0,0,1,9,2,12,0,0,96,0,0,138,3,3,0,0,0,0,1,0,0,0,0,0,0,0,0,0,0,0,0,0,0,0,3,3,3,0,347,347,0,0,0,0,0,0,0,0,0,0,0,0,0,0,0,1,0,0,1,130,45,0,0,0,0,0,0,0,0,0,0,0,0,0,0,0,0,0,0,0,0,0,0,0,0,0,0,0,0,0,0.0,0.0,0.0,0.0,0,0,0.0,0,0.0,-1,0.0,0.0,0,0.0,0.0287
1764,0,0.0294,,-0.02,0.03,-0.04,-0,1,0,0.05,0.06,94,,,,,,,,,,,,,,,,,,,,,,,,,,,,,,,,,,,,,,,,,,,,,,,,,,,,,,,,,,,,,,,,,,,,,,,,,,,,,,,,,,,,,,,,,,,,,,,,,,,,,,,,,,,,,,,,,,,
1804,0,0.0301,,-0.02,0.03,-0.04,0,1,0,0.05,0.06,94,,,,,,,,,,,,,,,,,,,,,,,,,,,,,,,,,,,,,,,,,,,,,,,,,,,,,,,,,,,,,,,,,,,,,,,,,,,,,,,,,,,,,,,,,,,,,,,,,,,,,,,,,,,,,,,,,,,
1824,0,0.0304,,,,,,,,,,,0,0,0,0,0,0,0,1,0,0,0,0,1,9,2,12,0,0,96,0,0,138,4,4,0,0,0,0,1,0,0,0,0,0,0,0,0,0,0,0,0,0,0,0,3,3,3,0,347,347,0,0,0,0,0,0,0,0,0,0,0,0,0,0,0,1,0,0,1,130,45,0,0,0,0,0,0,0,0,0,0,0,0,0,0,0,0,0,0,0,0,0,0,0,0,0,0,0,0,0,0.0,0.0,0.0,0.0,0,0,0.0,0,0.0,-1,0.0,,0,0.0,0.0304
1844,0,0.0307,,-0.02,0.03,-0.04,0,1,0,0.05,0.06,94,,,,,,,,,,,,,,,,,,,,,,,,,,,,,,,,,,,,,,,,,,,,,,,,,,,,,,,,,,,,,,,,,,,,,,,,,,,,,,,,,,,,,,,,,,,,,,,,,,,,,,,,,,,,,,,,,,,
1884,0,0.0314,,-0.02,0.03,-0.04,0,1,0,0.05,0.06,93,,,,,,,,,,,,,,,,,,,,,,,,,,,,,,,,,,,,,,,,,,,,,,,,,,,,,,,,,,,,,,,,,,,,,,,,,,,,,,,,,,,,,,,,,,,,,,,,,,,,,,,,,,,,,,,,,,,
1924,0,0.0321,,-0.02,0.03,-0.04,0,1,0,0.05,0.06,95,0,0,0,0,0,0,0,1,0,0,0,0,1,9,2,12,0,0,96,0,0,138,4,4,0,0,0,0,1,0,0,0,0,0,0,0,0,0,0,0,0,0,0,0,3,3,3,0,347,347,0,0,0,0,0,0,0,0,0,0,0,0,0,0,0,1,0,0,1,130,45,0,0,0,0,0,0,0,0,0,0,0,0,0,0,0,0,0,0,0,0,0,0,0,0,0,0,0,0,0,0.0,0.0,0.0,0.0,0,0,0.0,0,0.0,-1,0.0,0.0,0,0.0,0.0321
1964,0,0.0327,,-0.02,0.03,-0.04,0,0,0,0.05,0.06,92,,,,,,,,,,,,,,,,,,,,,,,,,,,,,,,,,,,,,,,,,,,,,,,,,,,,,,,,,,,,,,,,,,,,,,,,,,,,,,,,,,,,,,,,,,,,,,,,,,,,,,,,,,,,,,,,,,,
2004,0,0.0334,,-0.02,0.03,-0.04,0,1,-0,0.05,0.06,90,,,,,,,,,,,,,,,,,,,,,,,,,,,,,,,,,,,,,,,,,,,,,,,,,,,,,,,,,,,,,,,,,,,,,,,,,,,,,,,,,,,,,,,,,,,,,,,,,,,,,,,,,,,,,,,,,,,
2024,0,0.0337,,,,,,,,,,,0,0,0,0,0,0,0,1,0,0,0,0,1,9,2,12,0,0,96,0,0,138,4,4,0,0,0,0,1,0,0,0,0,0,0,0,0,0,0,0,0,0,0,0,3,3,3,0,347,347,0,0,0,0,0,0,0,0,0,0,0,0,0,0,0,1,0,0,1,130,45,0,0,0,0,0,0,0,0,0,0,0,0,0,0,0,0,0,0,0,0,0,0,0,0,0,0,0,0,0,0.0,0.0,0.0,0.0,0,0,0.0,0,0.0,-1,0.0,,0,0.0,0.0337
2044,0,0.0341,,-0.02,0.03,-0.04,0,0,-0,0.05,0.06,89,,,,,,,,,,,,,,,,,,,,,,,,,,,,,,,,,,,,,,,,,,,,,,,,,,,,,,,,,,,,,,,,,,,,,,,,,,,,,,,,,,,,,,,,,,,,,,,,,,,,,,,,,,,,,,,,,,,
2084,0,0.0347,,-0.02,0.03,-0.04,0,1,-0,0.05,0.06,91,,,,,,,,,,,,,,,,,,,,,,,,,,,,,,,,,,,,,,,,,,,,,,,,,,,,,,,,,,,,,,,,,,,,,,,,,,,,,,,,,,,,,,,,,,,,,,,,,,,,,,,,,,,,,,,,,,,
2124,0,0.0354,,-0.02,0.03,-0.04,0,1,0,0.05,0.06,92,0,0,0,0,0,0,0,1,0,0,0,0,1,9,2,12,0,0,96,0,0,138,4,4,0,0,0,0,1,0,0,0,0,0,0,0,0,0,0,0,0,0,0,0,3,3,3,0,347,347,0,0,0,0,0,0,0,0,0,0,0,0,0,0,0,1,0,0,1,130,45,0,0,0,0,0,0,0,0,0,0,0,0,0,0,0,0,0,0,0,0,0,0,0,0,0,0,0,0,0,0.0,0.0,0.0,0.0,0,0,0.0,0,0.0,-1,0.0,0.0,0,0.0,0.0354
2164,0,0.0361,,-0.02,0.03,-0.04,0,1,0,0.05,0.06,96,,,,,,,,,,,,,,,,,,,,,,,,,,,,,,,,,,,,,,,,,,,,,,,,,,,,,,,,,,,,,,,,,,,,,,,,,,,,,,,,,,,,,,,,,,,,,,,,,,,,,,,,,,,,,,,,,,,
2204,0,0.0367,,-0.02,0.03,-0.04,0,1,0,0.06,0.06,98,,,,,,,,,,,,,,,,,,,,,,,,,,,,,,,,,,,,,,,,,,,,,,,,,,,,,,,,,,,,,,,,,,,,,,,,,,,,,,,,,,,,,,,,,,,,,,,,,,,,,,,,,,,,,,,,,,,
2224,0,0.0371,,,,,,,,,,,0,0,0,0,0,0,0,1,0,0,0,0,1,9,2,12,0,0,96,0,0,138,4,4,0,0,0,0,1,0,0,0,0,0,0,0,0,0,0,0,0,0,0,0,3,3,3,0,347,347,0,0,0,0,0,0,0,0,0,0,0,0,0,0,0,1,0,0,1,130,45,0,0,0,0,0,0,0,0,0,0,0,0,0,0,0,0,0,0,0,0,0,0,0,0,0,0,0,0,0,0.0,0.0,0.0,0.0,0,0,0.0,0,0.0,-1,0.0,,0,0.0,0.0371
2244,0,0.0374,,-0.02,0.03,-0.05,0,1,0,0.06,0.06,99,,,,,,,,,,,,,,,,,,,,,,,,,,,,,,,,,,,,,,,,,,,,,,,,,,,,,,,,,,,,,,,,,,,,,,,,,,,,,,,,,,,,,,,,,,,,,,,,,,,,,,,,,,,,,,,,,,,
2284,0,0.0381,,-0.02,0.03,-0.05,0,1,0,0.06,0.06,100,,,,,,,,,,,,,,,,,,,,,,,,,,,,,,,,,,,,,,,,,,,,,,,,,,,,,,,,,,,,,,,,,,,,,,,,,,,,,,,,,,,,,,,,,,,,,,,,,,,,,,,,,,,,,,,,,,,
2324,0,0.0387,12.29,-0.02,0.03,-0.04,0,1,0,0.05,0.06,97,0,0,0,0,0,0,0,1,0,0,0,0,1,9,2,12,0,0,96,0,0,138,4,4,0,0,0,0,1,0,0,0,0,0,0,0,0,0,0,0,0,0,0,0,3,3,3,0,347,347,0,0,0,0,0,0,0,0,0,0,0,0,0,0,0,1,0,0,1,130,45,0,0,0,0,0,0,0,0,0,0,0,0,0,0,0,0,0,0,0,0,0,0,0,0,0,0,0,0,0,0.0,0.0,0.0,0.0,0,0,0.0,0,0.0,-1,0.0,0.0,0,0.0,0.0387
2364,0,0.0394,,-0.02,0.03,-0.04,0,1,0,0.05,0.06,96,,,,,,,,,,,,,,,,,,,,,,,,,,,,,,,,,,,,,,,,,,,,,,,,,,,,,,,,,,,,,,,,,,,,,,,,,,,,,,,,,,,,,,,,,,,,,,,,,,,,,,,,,,,,,,,,,,,
2404,0,0.0401,,-0.02,0.03,-0.04,0,1,-0,0.05,0.06,95,,,,,,,,,,,,,,,,,,,,,,,,,,,,,,,,,,,,,,,,,,,,,,,,,,,,,,,,,,,,,,,,,,,,,,,,,,,,,,,,,,,,,,,,,,,,,,,,,,,,,,,,,,,,,,,,,,,
2424,0,0.0404,,,,,,,,,,,0,0,0,0,0,0,0,1,0,0,0,0,1,9,2,12,0,0,96,0,0,138,5,5,0,0,0,0,1,0,0,0,0,0,0,0,0,0,0,0,0,0,0,0,3,3,3,0,347,347,0,0,0,0,0,0,0,0,0,0,0,0,0,0,0,1,0,0,1,130,45,0,0,0,0,0,0,0,0,0,0,0,0,0,0,0,0,0,0,0,0,0,0,0,0,0,0,0,0,0,0.0,0.0,0.0,0.0,0,0,0.0,0,0.0,-1,0.0,,0,0.0,0.0404
2444,0,0.0407,,-0.02,0.03,-0.04,-0,1,0,0.05,0.06,93,,,,,,,,,,,,,,,,,,,,,,,,,,,,,,,,,,,,,,,,,,,,,,,,,,,,,,,,,,,,,,,,,,,,,,,,,,,,,,,,,,,,,,,,,,,,,,,,,,,,,,,,,,,,,,,,,,,
2484,0,0.0414,,-0.02,0.03,-0.04,0,1,0,0.05,0.06,93,,,,,,,,,,,,,,,,,,,,,,,,,,,,,,,,,,,,,,,,,,,,,,,,,,,,,,,,,,,,,,,,,,,,,,,,,,,,,,,,,,,,,,,,,,,,,,,,,,,,,,,,,,,,,,,,,,,
2524,0,0.0421,,-0.02,0.03,-0.04,0,1,0,0.05,0.06,92,0,0,0,0,0,0,0,1,0,0,0,0,1,9,2,12,0,0,96,0,0,138,5,5,0,0,0,0,1,0,0,0,0,0,0,0,0,0,0,0,0,0,0,0,3,3,3,0,347,347,0,0,0,0,0,0,0,0,0,0,0,0,0,0,3,1,1,0,80,79,77,0,0,0,0,0,0,0,0,0,0,0,0,0,0,0,0,0,0,0,0,0,0,0,0,0,0,0,0,0,0.0,0.0,0.0,0.0,0,0,0.0,0,0.0,-1,0.0,0.0,0,0.0,0.0421
2564,0,0.0427,,-0.02,0.03,-0.04,0,1,0,0.05,0.06,92,,,,,,,,,,,,,,,,,,,,,,,,,,,,,,,,,,,,,,,,,,,,,,,,,,,,,,,,,,,,,,,,,,,,,,,,,,,,,,,,,,,,,,,,,,,,,,,,,,,,,,,,,,,,,,,,,,,
2604,0,0.0434,,-0.02,0.03,-0.04,0,1,-0,0.05,0.06,92,,,,,,,,,,,,,,,,,,,,,,,,,,,,,,,,,,,,,,,,,,,,,,,,,,,,,,,,,,,,,,,,,,,,,,,,,,,,,,,,,,,,,,,,,,,,,,,,,,,,,,,,,,,,,,,,,,,
2624,0,0.0437,,,,,,,,,,,0,0,0,0,0,0,0,1,0,0,0,0,1,9,2,12,0,0,96,0,0,138,5,5,0,0,0,0,1,0,0,0,0,0,0,0,0,0,0,0,0,0,0,0,3,3,3,0,347,347,0,0,0,0,0,0,0,0,0,0,0,0,0,0,3,1,1,0,80,79,77,0,0,0,0,0,0,0,0,0,0,0,0,0,0,0,0,0,0,0,0,0,0,0,0,0,0,0,0,0,0.0,0.0,0.0,0.0,0,0,0.0,0,0.0,-1,0.0,,0,0.0,0.0437
2644,0,0.0441,,-0.02,0.03,-0.04,0,1,0,0.05,0.06,93,,,,,,,,,,,,,,,,,,,,,,,,,,,,,,,,,,,,,,,,,,,,,,,,,,,,,,,,,,,,,,,,,,,,,,,,,,,,,,,,,,,,,,,,,,,,,,,,,,,,,,,,,,,,,,,,,,,
2684,0,0.0447,,-0.02,0.03,-0.04,0,1,0,0.05,0.06,94,,,,,,,,,,,,,,,,,,,,,,,,,,,,,,,,,,,,,,,,,,,,,,,,,,,,,,,,,,,,,,,,,,,,,,,,,,,,,,,,,,,,,,,,,,,,,,,,,,,,,,,,,,,,,,,,,,,
2724,0,0.0454,,-0.02,0.03,-0.04,0,1,0,0.05,0.06,93,0,0,0,0,0,0,0,1,0,0,0,0,1,9,2,12,0,0,96,0,0,138,5,5,0,0,0,0,1,0,0,0,0,0,0,0,0,0,0,0,0,0,0,0,3,3,3,0,347,347,0,0,0,0,0,0,0,0,0,0,0,0,0,0,3,1,1,0,80,79,77,0,0,0,0,0,0,0,0,0,0,0,0,0,0,0,0,0,0,0,0,0,0,0,0,0,0,0,0,0,0.0,0.0,0.0,0.0,0,0,0.0,0,0.0,-1,0.0,0.0,0,0.0,0.0454
2764,0,0.0461,,-0.02,0.03,-0.04,0,1,0,0.05,0.06,93,,,,,,,,,,,,,,,,,,,,,,,,,,,,,,,,,,,,,,,,,,,,,,,,,,,,,,,,,,,,,,,,,,,,,,,,,,,,,,,,,,,,,,,,,,,,,,,,,,,,,,,,,,,,,,,,,,,
2804,0,0.0467,,-0.02,0.03,-0.04,0,1,0,0.05,0.06,93,,,,,,,,,,,,,,,,,,,,,,,,,,,,,,,,,,,,,,,,,,,,,,,,,,,,,,,,,,,,,,,,,,,,,,,,,,,,,,,,,,,,,,,,,,,,,,,,,,,,,,,,,,,,,,,,,,,
2824,0,0.0471,,,,,,,,,,,0,0,0,0,0,0,0,1,0,0,0,0,1,9,2,12,0,0,96,0,0,138,5,5,0,0,0,0,1,0,0,0,0,0,0,0,0,0,0,0,0,0,0,0,3,3,3,0,347,347,0,0,0,0,0,0,0,0,0,0,0,0,0,0,3,1,1,0,80,79,77,0,0,0,0,0,0,0,0,0,0,0,0,0,0,0,0,0,0,0,0,0,0,0,0,0,0,0,0,0,0.0,0.0,0.0,0.0,0,0,0.0,0,0.0,-1,0.0,,0,0.0,0.0471
2844,0,0.0474,,-0.02,0.03,-0.04,0,1,0,0.05,0.06,93,,,,,,,,,,,,,,,,,,,,,,,,,,,,,,,,,,,,,,,,,,,,,,,,,,,,,,,,,,,,,,,,,,,,,,,,,,,,,,,,,,,,,,,,,,,,,,,,,,,,,,,,,,,,,,,,,,,
2884,0,0.0481,,-0.02,0.03,-0.04,0,1,-0,0.05,0.06,93,,,,,,,,,,,,,,,,,,,,,,,,,,,,,,,,,,,,,,,,,,,,,,,,,,,,,,,,,,,,,,,,,,,,,,,,,,,,,,,,,,,,,,,,,,,,,,,,,,,,,,,,,,,,,,,,,,,
2924,0,0.0487,,-0.02,0.03,-0.04,0,1,-0,0.05,0.06,91,0,0,0,0,0,0,0,1,0,0,0,0,1,9,2,12,0,0,96,0,0,138,6,6,0,0,0,0,1,0,0,0,0,0,0,0,0,0,0,0,0,0,0,0,3,3,3,0,347,347,0,0,0,0,0,0,0,0,0,0,0,0,0,0,3,1,1,0,80,79,77,0,0,0,0,0,0,0,0,0,0,0,0,0,0,0,0,0,0,0,0,0,0,0,0,0,0,0,0,0,0.0,0.0,0.0,0.0,0,0,0.0,0,0.0,-1,0.0,0.0,0,0.0,0.0487
2964,0,0.0494,,-0.02,0.03,-0.04,0,1,-0,0.05,0.06,90,,,,,,,,,,,,,,,,,,,,,,,,,,,,,,,,,,,,,,,,,,,,,,,,,,,,,,,,,,,,,,,,,,,,,,,,,,,,,,,,,,,,,,,,,,,,,,,,,,,,,,,,,,,,,,,,,,,
3004,0,0.0501,,-0.02,0.03,-0.04,0,1,0,0.05,0.06,91,,,,,,,,,,,,,,,,,,,,,,,,,,,,,,,,,,,,,,,,,,,,,,,,,,,,,,,,,,,,,,,,,,,,,,,,,,,,,,,,,,,,,,,,,,,,,,,,,,,,,,,,,,,,,,,,,,,
3024,0,0.0504,,,,,,,,,,,0,0,0,0,0,0,0,1,0,0,0,0,1,9,2,12,0,0,96,0,0,138,6,6,0,0,0,0,1,3,1,1,0,77,76,75,0,0,0,0,0,0,0,0,3,3,3,0,347,347,0,0,0,0,0,0,0,0,0,0,0,0,0,0,3,1,1,0,80,79,77,0,0,0,0,0,0,0,0,0,0,0,0,0,0,0,0,0,0,0,0,0,0,0,0,0,0,0,0,0,0.0,0.0,0.0,0.0,0,0,0.0,0,0.0,-1,0.0,,0,0.0,0.0504
3044,0,0.0507,,-0.02,0.03,-0.04,-0,1,0,0.05,0.06,92,,,,,,,,,,,,,,,,,,,,,,,,,,,,,,,,,,,,,,,,,,,,,,,,,,,,,,,,,,,,,,,,,,,,,,,,,,,,,,,,,,,,,,,,,,,,,,,,,,,,,,,,,,,,,,,,,,,
3084,0,0.0514,,-0.02,0.03,-0.04,-0,1,0,0.05,0.06,92,,,,,,,,,,,,,,,,,,,,,,,,,,,,,,,,,,,,,,,,,,,,,,,,,,,,,,,,,,,,,,,,,,,,,,,,,,,,,,,,,,,,,,,,,,,,,,,,,,,,,,,,,,,,,,,,,,,
3124,0,0.0521,,-0.01,0.03,-0.03,-0,1,0,0.05,0.06,83,0,0,0,0,0,0,0,1,0,0,0,0,1,9,2,12,0,0,96,0,0,138,6,6,0,0,0,0,1,3,1,1,0,77,76,75,0,0,0,0,0,0,0,0,3,3,3,0,347,347,0,0,0,0,0,0,0,0,0,0,0,0,0,0,3,1,1,0,80,79,77,0,0,0,0,0,0,0,0,0,0,0,0,0,0,0,0,0,0,0,0,0,0,0,0,0,0,0,0,0,0.0,0.0,0.0,0.0,0,0,0.0,0,0.0,-1,0.0,0.0,0,0.0,0.0521
3164,0,0.0527,,-0.02,0.03,-0.04,-0,1,-0,0.05,0.06,85,,,,,,,,,,,,,,,,,,,,,,,,,,,,,,,,,,,,,,,,,,,,,,,,,,,,,,,,,,,,,,,,,,,,,,,,,,,,,,,,,,,,,,,,,,,,,,,,,,,,,,,,,,,,,,,,,,,
3204,0,0.0534,,-0.01,0.03,-0.03,-0,1,0,0.05,0.06,80,,,,,,,,,,,,,,,,,,,,,,,,,,,,,,,,,,,,,,,,,,,,,,,,,,,,,,,,,,,,,,,,,,,,,,,,,,,,,,,,,,,,,,,,,,,,,,,,,,,,,,,,,,,,,,,,,,,
3224,0,0.0537,,,,,,,,,,,0,0,0,0,32,0,0,1,0,0,0,0,0,9,7,12,0,0,96,0,0,138,6,6,0,0,0,0,1,3,1,1,0,77,76,75,0,0,0,0,0,0,0,0,3,3,3,0,347,347,0,0,0,0,0,0,0,0,0,0,0,0,0,0,3,1,1,0,80,79,77,0,0,0,0,0,0,0,0,0,0,0,0,0,0,0,0,0,0,0,0,0,0,0,0,0,0,0,0,0,0.0,0.0,0.0,0.0,0,0,0.0,0,0.0,-1,0.0,,0,0.0,0.0537
3244,0,0.0541,,-0.01,0.03,-0.03,-0,1,-0,0.05,0.06,82,,,,,,,,,,,,,,,,,,,,,,,,,,,,,,,,,,,,,,,,,,,,,,,,,,,,,,,,,,,,,,,,,,,,,,,,,,,,,,,,,,,,,,,,,,,,,,,,,,,,,,,,,,,,,,,,,,,
3284,0,0.0547,,-0.02,0.03,-0.04,-0,1,0,0.05,0.06,86,,,,,,,,,,,,,,,,,,,,,,,,,,,,,,,,,,,,,,,,,,,,,,,,,,,,,,,,,,,,,,,,,,,,,,,,,,,,,,,,,,,,,,,,,,,,,,,,,,,,,,,,,,,,,,,,,,,
3324,0,0.0554,12.47,-0.02,0.03,-0.04,0,1,0,0.05,0.06,86,0,0,0,0,32,0,0,1,0,0,0,0,0,9,7,12,0,0,96,0,0,138,6,6,0,0,0,0,1,3,1,1,0,77,76,75,0,0,0,0,0,0,0,0,3,3,3,0,347,347,0,0,0,0,0,0,0,0,0,0,0,0,0,0,3,1,1,0,80,79,77,0,0,0,0,0,0,0,0,0,0,0,0,0,0,0,0,0,0,0,0,0,0,0,0,0,0,0,0,0,0.0,0.0,0.0,0.0,0,0,0.0,0,0.0,-1,0.0,0.0,0,0.0,0.0554
3364,0,0.0561,,-0.02,0.03,-0.04,-0,1,0,0.05,0.06,88,,,,,,,,,,,,,,,,,,,,,,,,,,,,,,,,,,,,,,,,,,,,,,,,,,,,,,,,,,,,,,,,,,,,,,,,,,,,,,,,,,,,,,,,,,,,,,,,,,,,,,,,,,,,,,,,,,,
3404,0,0.0567,,-0.02,0.03,-0.04,-0,1,0,0.05,0.06,89,,,,,,,,,,,,,,,,,,,,,,,,,,,,,,,,,,,,,,,,,,,,,,,,,,,,,,,,,,,,,,,,,,,,,,,,,,,,,,,,,,,,,,,,,,,,,,,,,,,,,,,,,,,,,,,,,,,
3424,0,0.0571,,,,,,,,,,,0,0,0,0,32,0,0,1,0,0,0,0,0,9,7,12,0,0,96,0,0,138,6,6,0,0,0,0,1,3,1,1,0,77,76,75,0,0,0,0,0,0,0,0,3,3,3,0,347,347,0,0,0,0,0,0,0,0,0,0,0,0,0,0,3,1,1,0,80,79,77,0,0,0,0,0,0,0,0,0,0,0,0,0,0,0,0,0,0,0,0,0,0,0,0,0,0,0,0,0,0.0,0.0,0.0,0.0,0,0,0.0,0,0.0,-1,0.0,,0,0.0,0.0571
3444,0,0.0574,,-0.02,0.03,-0.04,-0,1,0,0.05,0.06,89,,,,,,,,,,,,,,,,,,,,,,,,,,,,,,,,,,,,,,,,,,,,,,,,,,,,,,,,,,,,,,,,,,,,,,,,,,,,,,,,,,,,,,,,,,,,,,,,,,,,,,,,,,,,,,,,,,,
3484,0,0.0581,,-0.02,0.03,-0.04,-0,1,0,0.05,0.06,88,,,,,,,,,,,,,,,,,,,,,,,,,,,,,,,,,,,,,,,,,,,,,,,,,,,,,,,,,,,,,,,,,,,,,,,,,,,,,,,,,,,,,,,,,,,,,,,,,,,,,,,,,,,,,,,,,,,
3524,0,0.0587,,-0.02,0.03,-0.04,0,1,0,0.05,0.06,89,0,0,0,0,32,0,0,1,0,0,0,0,0,9,7,12,0,0,96,0,0,138,7,7,0,0,0,0,1,3,1,1,0,77,76,75,0,0,0,0,0,0,0,0,3,3,3,0,347,347,0,0,0,0,0,0,0,0,0,0,0,0,0,0,3,1,1,0,80,79,77,0,0,0,0,0,0,0,0,0,0,0,0,0,0,0,0,0,0,0,0,0,0,0,0,0,0,0,0,0,0.0,0.0,0.0,0.0,0,0,0.0,0,0.0,-1,0.0,0.0,0,0.0,0.0587
3564,0,0.0594,,-0.02,0.03,-0.04,0,1,0,0.05,0.06,89,,,,,,,,,,,,,,,,,,,,,,,,,,,,,,,,,,,,,,,,,,,,,,,,,,,,,,,,,,,,,,,,,,,,,,,,,,,,,,,,,,,,,,,,,,,,,,,,,,,,,,,,,,,,,,,,,,,
3604,0,0.0601,,-0.02,0.03,-0.04,0,1,0,0.05,0.06,89,,,,,,,,,,,,,,,,,,,,,,,,,,,,,,,,,,,,,,,,,,,,,,,,,,,,,,,,,,,,,,,,,,,,,,,,,,,,,,,,,,,,,,,,,,,,,,,,,,,,,,,,,,,,,,,,,,,
3624,0,0.0604,,,,,,,,,,,0,0,0,0,32,0,0,1,0,0,0,0,0,9,7,12,0,0,96,0,0,138,7,7,0,0,0,0,1,3,1,1,0,77,76,75,0,0,0,0,0,0,0,0,3,3,3,0,347,347,0,0,0,0,0,0,0,0,0,0,0,0,0,0,3,1,1,0,80,79,77,0,0,0,0,0,0,0,0,0,0,0,0,0,0,0,0,0,0,0,0,0,0,0,0,0,0,0,0,0,0.0,0.0,0.0,0.0,0,0,0.0,0,0.0,-1,0.0,,0,0.0,0.0604
3644,0,0.0607,,-0.02,0.03,-0.04,0,1,0,0.05,0.06,89,,,,,,,,,,,,,,,,,,,,,,,,,,,,,,,,,,,,,,,,,,,,,,,,,,,,,,,,,,,,,,,,,,,,,,,,,,,,,,,,,,,,,,,,,,,,,,,,,,,,,,,,,,,,,,,,,,,
3684,0,0.0614,,-0.02,0.03,-0.04,-0,1,0,0.05,0.06,89,,,,,,,,,,,,,,,,,,,,,,,,,,,,,,,,,,,,,,,,,,,,,,,,,,,,,,,,,,,,,,,,,,,,,,,,,,,,,,,,,,,,,,,,,,,,,,,,,,,,,,,,,,,,,,,,,,,
3724,0,0.0621,,-0.02,0.03,-0.04,-0,1,0,0.05,0.06,89,0,0,0,0,32,0,0,1,0,0,0,0,0,9,7,12,0,0,96,0,0,138,7,7,0,0,0,0,1,3,1,1,0,77,76,75,0,0,0,0,0,0,0,0,3,3,3,0,347,347,0,0,0,0,0,0,0,0,0,0,0,0,0,0,3,1,1,0,80,79,77,0,0,0,0,0,0,0,0,0,0,0,0,0,0,0,0,0,0,0,0,0,0,0,0,0,0,0,0,0,0.0,0.0,0.0,0.0,0,0,0.0,0,0.0,-1,0.0,0.0,0,0.0,0.0621
3764,0,0.0627,,-0.02,0.03,-0.04,0,1,0,0.05,0.06,90,,,,,,,,,,,,,,,,,,,,,,,,,,,,,,,,,,,,,,,,,,,,,,,,,,,,,,,,,,,,,,,,,,,,,,,,,,,,,,,,,,,,,,,,,,,,,,,,,,,,,,,,,,,,,,,,,,,
3804,0,0.0634,,-0.02,0.03,-0.04,-0,1,0,0.05,0.06,90,,,,,,,,,,,,,,,,,,,,,,,,,,,,,,,,,,,,,,,,,,,,,,,,,,,,,,,,,,,,,,,,,,,,,,,,,,,,,,,,,,,,,,,,,,,,,,,,,,,,,,,,,,,,,,,,,,,
3824,0,0.0637,,,,,,,,,,,0,0,0,0,32,0,0,1,0,0,0,0,0,9,7,12,0,0,96,0,0,138,7,7,0,0,0,0,1,3,1,1,0,77,76,75,0,0,0,0,0,0,0,0,3,3,3,0,347,347,0,0,0,0,0,0,0,0,0,0,0,0,0,0,3,1,1,0,80,79,77,0,0,0,0,0,0,0,0,0,0,0,0,0,0,0,0,0,0,0,0,0,0,0,0,0,0,0,0,0,0.0,0.0,0.0,0.0,0,0,0.0,0,0.0,-1,0.0,,0,0.0,0.0637
3844,0,0.0641,,-0.02,0.03,-0.04,-0,1,0,0.05,0.06,90,,,,,,,,,,,,,,,,,,,,,,,,,,,,,,,,,,,,,,,,,,,,,,,,,,,,,,,,,,,,,,,,,,,,,,,,,,,,,,,,,,,,,,,,,,,,,,,,,,,,,,,,,,,,,,,,,,,
3884,0,0.0647,,-0.02,0.03,-0.04,-0,1,0,0.05,0.06,91,,,,,,,,,,,,,,,,,,,,,,,,,,,,,,,,,,,,,,,,,,,,,,,,,,,,,,,,,,,,,,,,,,,,,,,,,,,,,,,,,,,,,,,,,,,,,,,,,,,,,,,,,,,,,,,,,,,
3924,0,0.0654,,-0.02,0.03,-0.04,0,1,0,0.05,0.06,89,0,0,0,0,32,0,0,1,0,0,0,0,0,9,7,12,0,0,96,0,0,138,7,7,0,0,0,0,1,3,1,1,0,77,76,75,0,0,0,0,0,0,0,0,3,3,3,0,347,347,0,0,0,0,0,0,0,0,0,0,0,0,0,0,3,1,1,0,80,79,77,0,0,0,0,0,0,0,0,0,0,0,0,0,0,0,0,0,0,0,0,0,0,0,0,0,0,0,0,0,0.0,0.0,0.0,0.0,0,0,0.0,0,0.0,-1,0.0,0.0,0,0.0,0.0654
3964,0,0.0661,,-0.02,0.03,-0.04,-0,1,0,0.05,0.06,90,,,,,,,,,,,,,,,,,,,,,,,,,,,,,,,,,,,,,,,,,,,,,,,,,,,,,,,,,,,,,,,,,,,,,,,,,,,,,,,,,,,,,,,,,,,,,,,,,,,,,,,,,,,,,,,,,,,
4004,0,0.0667,,-0.02,0.03,-0.04,0,1,0,0.05,0.06,91,,,,,,,,,,,,,,,,,,,,,,,,,,,,,,,,,,,,,,,,,,,,,,,,,,,,,,,,,,,,,,,,,,,,,,,,,,,,,,,,,,,,,,,,,,,,,,,,,,,,,,,,,,,,,,,,,,,
4024,0,0.0671,,,,,,,,,,,0,0,0,0,32,0,0,1,0,0,0,0,0,9,7,12,0,0,96,0,0,138,7,7,0,0,0,0,1,3,1,1,0,77,76,75,0,0,0,0,0,0,0,0,3,3,3,0,347,347,0,0,0,0,0,0,0,0,0,0,0,0,0,0,3,1,1,0,80,79,77,0,0,0,0,0,0,0,0,0,0,0,0,0,0,0,0,0,0,0,0,0,0,0,0,0,0,0,0,0,0.0,0.0,0.0,0.0,0,0,0.0,0,0.0,-1,0.0,,0,0.0,0.0671
4044,0,0.0674,,-0.02,0.03,-0.04,-0,1,0,0.05,0.06,91,,,,,,,,,,,,,,,,,,,,,,,,,,,,,,,,,,,,,,,,,,,,,,,,,,,,,,,,,,,,,,,,,,,,,,,,,,,,,,,,,,,,,,,,,,,,,,,,,,,,,,,,,,,,,,,,,,,
4084,0,0.0681,,-0.02,0.03,-0.04,0,1,0,0.05,0.06,90,,,,,,,,,,,,,,,,,,,,,,,,,,,,,,,,,,,,,,,,,,,,,,,,,,,,,,,,,,,,,,,,,,,,,,,,,,,,,,,,,,,,,,,,,,,,,,,,,,,,,,,,,,,,,,,,,,,
4124,0,0.0687,,-0.02,0.03,-0.04,-0,1,0,0.05,0.06,90,0,0,0,0,32,0,0,1,0,0,0,0,0,9,7,12,0,0,96,0,0,138,7,7,0,0,0,0,1,3,1,1,0,77,76,75,0,0,0,0,0,0,0,0,3,3,3,0,347,347,0,0,0,0,0,0,0,0,0,0,0,0,0,0,3,1,1,0,80,79,77,0,0,0,0,0,0,0,0,0,0,0,0,0,0,0,0,0,0,0,0,0,0,0,0,0,0,0,0,0,0.0,0.0,0.0,0.0,0,0,0.0,0,0.0,-1,0.0,0.0,0,0.0,0.0687
4164,0,0.0694,,-0.02,0.03,-0.04,-0,1,0,0.05,0.06,91,,,,,,,,,,,,,,,,,,,,,,,,,,,,,,,,,,,,,,,,,,,,,,,,,,,,,,,,,,,,,,,,,,,,,,,,,,,,,,,,,,,,,,,,,,,,,,,,,,,,,,,,,,,,,,,,,,,
4204,0,0.0701,,-0.02,0.03,-0.04,-0,1,0,0.05,0.06,89,,,,,,,,,,,,,,,,,,,,,,,,,,,,,,,,,,,,,,,,,,,,,,,,,,,,,,,,,,,,,,,,,,,,,,,,,,,,,,,,,,,,,,,,,,,,,,,,,,,,,,,,,,,,,,,,,,,
4224,0,0.0704,,,,,,,,,,,0,0,0,0,32,0,0,1,0,0,0,0,0,9,7,12,0,0,96,0,0,138,8,8,0,0,0,0,1,3,1,1,0,77,76,75,0,0,0,0,0,0,0,3,1,1,0,80,78,75,0,0,0,0,0,0,0,0,0,0,0,0,0,0,3,1,1,0,80,79,77,0,0,0,0,0,0,0,0,0,0,0,0,0,0,0,0,0,0,0,0,0,0,0,0,0,0,0,0,0,0.0,0.0,0.0,0.0,0,0,0.0,0,0.0,-1,0.0,,0,0.0,0.0704
4244,0,0.0707,,-0.02,0.03,-0.04,0,1,0,0.05,0.06,88,,,,,,,,,,,,,,,,,,,,,,,,,,,,,,,,,,,,,,,,,,,,,,,,,,,,,,,,,,,,,,,,,,,,,,,,,,,,,,,,,,,,,,,,,,,,,,,,,,,,,,,,,,,,,,,,,,,
4284,0,0.0714,,-0.02,0.03,-0.04,-0,1,0,0.05,0.06,89,,,,,,,,,,,,,,,,,,,,,,,,,,,,,,,,,,,,,,,,,,,,,,,,,,,,,,,,,,,,,,,,,,,,,,,,,,,,,,,,,,,,,,,,,,,,,,,,,,,,,,,,,,,,,,,,,,,
4324,0,0.0721,12.45,-0.02,0.03,-0.04,-0,1,0,0.05,0.06,91,0,0,0,0,32,0,0,1,0,0,0,0,0,9,7,12,0,0,96,0,0,138,8,8,0,0,0,0,1,3,1,1,0,77,76,75,0,0,0,0,0,0,0,3,1,1,0,80,78,75,0,0,0,0,0,0,0,0,0,0,0,0,0,0,3,1,1,0,80,79,77,0,0,0,0,0,0,0,0,0,0,0,0,0,0,0,0,0,0,0,0,0,0,0,0,0,0,0,0,0,0.0,0.0,0.0,0.0,0,0,0.0,0,0.0,-1,0.0,0.0,0,0.0,0.0721
4364,0,0.0727,,-0.02,0.03,-0.04,-0,1,0,0.05,0.06,91,,,,,,,,,,,,,,,,,,,,,,,,,,,,,,,,,,,,,,,,,,,,,,,,,,,,,,,,,,,,,,,,,,,,,,,,,,,,,,,,,,,,,,,,,,,,,,,,,,,,,,,,,,,,,,,,,,,
4404,0,0.0734,,-0.02,0.03,-0.04,-0,1,0,0.05,0.06,91,,,,,,,,,,,,,,,,,,,,,,,,,,,,,,,,,,,,,,,,,,,,,,,,,,,,,,,,,,,,,,,,,,,,,,,,,,,,,,,,,,,,,,,,,,,,,,,,,,,,,,,,,,,,,,,,,,,
4424,0,0.0737,,,,,,,,,,,0,0,0,0,32,0,0,1,0,0,0,0,0,9,7,12,0,0,96,0,0,138,8,8,0,0,0,0,1,3,1,1,0,77,76,75,0,0,0,0,0,0,0,3,1,1,0,80,78,75,0,0,0,0,0,0,0,0,0,0,0,0,0,0,3,1,1,0,80,79,77,0,0,0,0,0,0,0,0,0,0,0,0,0,0,0,0,0,0,0,0,0,0,0,0,0,0,0,0,0,0.0,0.0,0.0,0.0,0,0,0.0,0,0.0,-1,0.0,,0,0.0,0.0737
4444,0,0.0741,,-0.02,0.03,-0.04,-0,1,0,0.05,0.06,91,,,,,,,,,,,,,,,,,,,,,,,,,,,,,,,,,,,,,,,,,,,,,,,,,,,,,,,,,,,,,,,,,,,,,,,,,,,,,,,,,,,,,,,,,,,,,,,,,,,,,,,,,,,,,,,,,,,
4484,0,0.0747,,-0.02,0.03,-0.04,-0,1,0,0.05,0.06,92,,,,,,,,,,,,,,,,,,,,,,,,,,,,,,,,,,,,,,,,,,,,,,,,,,,,,,,,,,,,,,,,,,,,,,,,,,,,,,,,,,,,,,,,,,,,,,,,,,,,,,,,,,,,,,,,,,,
4524,0,0.0754,,-0.02,0.03,-0.04,-0,1,0,0.05,0.06,91,0,0,0,0,32,0,0,1,0,0,0,0,0,9,7,12,0,0,96,0,0,138,8,8,0,0,0,0,1,3,1,1,0,77,76,75,0,0,0,0,0,0,0,3,1,1,0,80,78,75,0,0,0,0,0,0,0,0,0,0,0,0,0,0,0,3,3,3,1,349,349,0,0,0,0,0,0,0,0,0,0,0,0,0,0,0,0,0,0,0,0,0,0,0,0,0,0,0,0,0,0.0,0.0,0.0,0.0,0,0,0.0,0,0.0,-1,0.0,0.0,0,0.0,0.0754
4564,0,0.0761,,-0.02,0.03,-0.04,-0,1,0,0.05,0.06,91,,,,,,,,,,,,,,,,,,,,,,,,,,,,,,,,,,,,,,,,,,,,,,,,,,,,,,,,,,,,,,,,,,,,,,,,,,,,,,,,,,,,,,,,,,,,,,,,,,,,,,,,,,,,,,,,,,,
4604,0,0.0767,,-0.02,0.03,-0.04,-0,1,0,0.05,0.06,89,,,,,,,,,,,,,,,,,,,,,,,,,,,,,,,,,,,,,,,,,,,,,,,,,,,,,,,,,,,,,,,,,,,,,,,,,,,,,,,,,,,,,,,,,,,,,,,,,,,,,,,,,,,,,,,,,,,
4624,0,0.0771,,,,,,,,,,,0,0,0,0,32,0,0,1,0,0,0,0,0,9,7,12,0,0,96,0,0,138,8,8,0,0,0,0,1,3,1,1,0,77,76,75,0,0,0,0,0,0,0,3,1,1,0,80,78,75,0,0,0,0,0,0,0,0,0,0,0,0,0,0,0,3,3,3,1,349,349,0,0,0,0,0,0,0,0,0,0,0,0,0,0,0,0,0,0,0,0,0,0,0,0,0,0,0,0,0,0.0,0.0,0.0,0.0,0,0,0.0,0,0.0,-1,0.0,,0,0.0,0.0771
4644,0,0.0774,,-0.02,0.03,-0.04,-0,1,-0,0.05,0.06,90,,,,,,,,,,,,,,,,,,,,,,,,,,,,,,,,,,,,,,,,,,,,,,,,,,,,,,,,,,,,,,,,,,,,,,,,,,,,,,,,,,,,,,,,,,,,,,,,,,,,,,,,,,,,,,,,,,,
4684,0,0.0781,,-0.02,0.03,-0.04,-0,1,0,0.05,0.06,91,,,,,,,,,,,,,,,,,,,,,,,,,,,,,,,,,,,,,,,,,,,,,,,,,,,,,,,,,,,,,,,,,,,,,,,,,,,,,,,,,,,,,,,,,,,,,,,,,,,,,,,,,,,,,,,,,,,
4724,0,0.0787,,-0.02,0.03,-0.04,-0,1,0,0.05,0.06,94,0,0,0,0,32,0,0,1,0,0,0,0,0,9,7,12,0,0,96,0,0,138,8,8,0,0,0,0,1,3,1,1,0,77,76,75,0,0,0,0,0,0,0,3,1,1,0,80,78,75,0,0,0,0,0,0,0,0,0,0,0,0,0,0,0,3,3,3,1,349,349,0,0,0,0,0,0,0,0,0,0,0,0,0,0,0,0,0,0,0,0,0,0,0,0,0,0,0,0,0,0.0,0.0,0.0,0.0,0,0,0.0,0,0.0,-1,0.0,0.0,0,0.0,0.0787
4764,0,0.0794,,-0.02,0.03,-0.04,-0,1,-0,0.05,0.06,90,,,,,,,,,,,,,,,,,,,,,,,,,,,,,,,,,,,,,,,,,,,,,,,,,,,,,,,,,,,,,,,,,,,,,,,,,,,,,,,,,,,,,,,,,,,,,,,,,,,,,,,,,,,,,,,,,,,
4804,0,0.0801,,-0.02,0.03,-0.04,-0,1,-0,0.05,0.06,90,,,,,,,,,,,,,,,,,,,,,,,,,,,,,,,,,,,,,,,,,,,,,,,,,,,,,,,,,,,,,,,,,,,,,,,,,,,,,,,,,,,,,,,,,,,,,,,,,,,,,,,,,,,,,,,,,,,
4824,0,0.0804,,,,,,,,,,,0,0,0,0,32,0,0,1,0,0,0,0,0,9,7,12,0,0,96,0,0,138,8,8,0,0,0,0,1,3,1,1,0,77,76,75,0,0,0,0,0,0,0,3,1,1,0,80,78,75,0,0,0,0,0,0,0,0,0,0,0,0,0,0,0,3,3,3,1,349,349,0,0,0,0,0,0,0,0,0,0,0,0,0,0,0,0,0,0,0,0,0,0,0,0,0,0,0,0,0,0.0,0.0,0.0,0.0,0,0,0.0,0,0.0,-1,0.0,,0,0.0,0.0804
4844,0,0.0807,,-0.02,0.03,-0.04,-0,0,-0,0.05,0.06,90,,,,,,,,,,,,,,,,,,,,,,,,,,,,,,,,,,,,,,,,,,,,,,,,,,,,,,,,,,,,,,,,,,,,,,,,,,,,,,,,,,,,,,,,,,,,,,,,,,,,,,,,,,,,,,,,,,,
4884,0,0.0814,,-0.02,0.03,-0.04,-0,1,-0,0.05,0.06,90,,,,,,,,,,,,,,,,,,,,,,,,,,,,,,,,,,,,,,,,,,,,,,,,,,,,,,,,,,,,,,,,,,,,,,,,,,,,,,,,,,,,,,,,,,,,,,,,,,,,,,,,,,,,,,,,,,,
4924,0,0.0821,,-0.02,0.03,-0.04,-0,1,0,0.05,0.06,91,0,0,0,0,32,0,0,1,0,0,0,0,0,9,7,12,0,0,96,0,0,138,9,9,0,0,0,0,1,3,1,1,0,77,76,75,0,0,0,0,0,0,0,3,1,1,0,80,78,75,0,0,0,0,0,0,0,0,0,0,0,0,0,0,0,3,3,3,1,349,349,0,0,0,0,0,0,0,0,0,0,0,0,0,0,0,0,0,0,0,0,0,0,0,0,0,0,0,0,0,0.0,0.0,0.0,0.0,0,0,0.0,0,0.0,-1,0.0,0.0,0,0.0,0.0821
4964,0,0.0827,,-0.02,0.03,-0.04,-0,1,0,0.05,0.06,94,,,,,,,,,,,,,,,,,,,,,,,,,,,,,,,,,,,,,,,,,,,,,,,,,,,,,,,,,,,,,,,,,,,,,,,,,,,,,,,,,,,,,,,,,,,,,,,,,,,,,,,,,,,,,,,,,,,
5004,0,0.0834,,-0.02,0.03,-0.04,-0,1,0,0.05,0.06,90,,,,,,,,,,,,,,,,,,,,,,,,,,,,,,,,,,,,,,,,,,,,,,,,,,,,,,,,,,,,,,,,,,,,,,,,,,,,,,,,,,,,,,,,,,,,,,,,,,,,,,,,,,,,,,,,,,,
5024,0,0.0837,,,,,,,,,,,0,0,0,0,32,0,0,1,0,0,0,0,0,9,7,12,0,0,96,0,0,138,9,9,0,0,0,0,1,3,1,1,0,77,76,75,0,0,0,0,0,0,0,3,1,1,0,80,78,75,0,0,0,0,0,0,0,0,0,0,0,0,0,0,0,3,3,3,1,349,349,0,0,0,0,0,0,0,0,0,0,0,0,0,0,0,0,0,0,0,0,0,0,0,0,0,0,0,0,0,0.0,0.0,0.0,0.0,0,0,0.0,0,0.0,-1,0.0,,0,0.0,0.0837
5044,0,0.0841,,-0.02,0.03,-0.04,-0,1,0,0.05,0.06,91,,,,,,,,,,,,,,,,,,,,,,,,,,,,,,,,,,,,,,,,,,,,,,,,,,,,,,,,,,,,,,,,,,,,,,,,,,,,,,,,,,,,,,,,,,,,,,,,,,,,,,,,,,,,,,,,,,,
5084,0,0.0847,,-0.02,0.03,-0.04,-0,1,0,0.05,0.06,91,,,,,,,,,,,,,,,,,,,,,,,,,,,,,,,,,,,,,,,,,,,,,,,,,,,,,,,,,,,,,,,,,,,,,,,,,,,,,,,,,,,,,,,,,,,,,,,,,,,,,,,,,,,,,,,,,,,
5124,0,0.0854,,-0.02,0.03,-0.04,0,1,0,0.05,0.06,90,0,0,0,0,32,0,0,1,0,0,0,0,0,9,7,12,0,0,96,0,0,138,9,9,0,0,0,0,1,3,1,1,0,77,76,75,0,0,0,0,0,0,0,3,1,1,0,80,78,75,0,0,0,0,0,0,0,0,0,0,0,0,0,0,0,3,3,3,1,349,349,0,0,0,0,0,0,0,0,0,0,0,0,0,0,0,0,0,0,0,0,0,0,0,0,0,0,0,0,0,0.0,0.0,0.0,0.0,0,0,0.0,0,0.0,-1,0.0,0.0,0,0.0,0.0854
5164,0,0.0861,,-0.02,0.03,-0.04,-0,1,0,0.05,0.06,91,,,,,,,,,,,,,,,,,,,,,,,,,,,,,,,,,,,,,,,,,,,,,,,,,,,,,,,,,,,,,,,,,,,,,,,,,,,,,,,,,,,,,,,,,,,,,,,,,,,,,,,,,,,,,,,,,,,
5204,0,0.0867,,-0.02,0.03,-0.04,-0,1,0,0.05,0.06,90,,,,,,,,,,,,,,,,,,,,,,,,,,,,,,,,,,,,,,,,,,,,,,,,,,,,,,,,,,,,,,,,,,,,,,,,,,,,,,,,,,,,,,,,,,,,,,,,,,,,,,,,,,,,,,,,,,,
5224,0,0.0871,,,,,,,,,,,0,0,0,0,32,0,0,1,0,0,0,0,0,9,7,12,0,0,96,0,0,138,9,9,0,0,0,0,1,3,1,1,0,77,76,75,0,0,0,0,0,0,0,3,1,1,0,80,78,75,0,0,0,0,0,0,0,0,0,0,0,0,0,0,0,3,3,3,1,349,349,0,0,0,0,0,0,0,0,0,0,0,0,0,0,0,0,0,0,0,0,0,0,0,0,0,0,0,0,0,0.0,0.0,0.0,0.0,0,0,0.0,0,0.0,-1,0.0,,0,0.0,0.0871
5244,0,0.0874,,-0.02,0.03,-0.04,-0,1,0,0.05,0.06,91,,,,,,,,,,,,,,,,,,,,,,,,,,,,,,,,,,,,,,,,,,,,,,,,,,,,,,,,,,,,,,,,,,,,,,,,,,,,,,,,,,,,,,,,,,,,,,,,,,,,,,,,,,,,,,,,,,,
5284,0,0.0881,,-0.02,0.03,-0.04,-0,1,0,0.05,0.06,91,,,,,,,,,,,,,,,,,,,,,,,,,,,,,,,,,,,,,,,,,,,,,,,,,,,,,,,,,,,,,,,,,,,,,,,,,,,,,,,,,,,,,,,,,,,,,,,,,,,,,,,,,,,,,,,,,,,
5324,0,0.0887,12.45,-0.02,0.03,-0.04,-0,1,0,0.05,0.06,90,0,0,0,0,32,0,0,1,0,0,0,0,0,9,7,12,0,0,96,0,0,138,9,9,0,0,0,0,1,3,1,1,0,77,76,75,0,0,0,0,0,0,0,3,1,1,0,80,78,75,0,0,0,0,0,0,0,0,0,0,0,0,0,0,0,3,3,3,1,349,349,0,0,0,0,0,0,0,0,0,0,0,0,0,0,0,0,0,0,0,0,0,0,0,0,0,0,0,0,0,0.0,0.0,0.0,0.0,0,0,0.0,0,0.0,-1,0.0,0.0,0,0.0,0.0887
5364,0,0.0894,,-0.02,0.03,-0.04,-0,1,0,0.05,0.06,91,,,,,,,,,,,,,,,,,,,,,,,,,,,,,,,,,,,,,,,,,,,,,,,,,,,,,,,,,,,,,,,,,,,,,,,,,,,,,,,,,,,,,,,,,,,,,,,,,,,,,,,,,,,,,,,,,,,
5404,0,0.0901,,-0.02,0.03,-0.04,-0,1,0,0.05,0.06,90,,,,,,,,,,,,,,,,,,,,,,,,,,,,,,,,,,,,,,,,,,,,,,,,,,,,,,,,,,,,,,,,,,,,,,,,,,,,,,,,,,,,,,,,,,,,,,,,,,,,,,,,,,,,,,,,,,,
5424,0,0.0904,,,,,,,,,,,0,0,0,0,32,0,0,1,0,0,0,0,0,9,7,12,0,0,96,0,0,138,9,9,0,0,0,0,1,3,1,1,0,77,76,75,0,0,0,0,0,0,0,3,1,1,0,80,78,75,0,0,0,0,0,0,0,0,0,0,0,0,0,0,0,3,3,3,1,349,349,0,0,0,0,0,0,0,0,0,0,0,0,0,0,0,0,0,0,0,0,0,0,0,0,0,0,0,0,0,0.0,0.0,0.0,0.0,0,0,0.0,0,0.0,-1,0.0,,0,0.0,0.0904
5444,0,0.0907,,-0.02,0.03,-0.04,0,1,0,0.05,0.06,89,,,,,,,,,,,,,,,,,,,,,,,,,,,,,,,,,,,,,,,,,,,,,,,,,,,,,,,,,,,,,,,,,,,,,,,,,,,,,,,,,,,,,,,,,,,,,,,,,,,,,,,,,,,,,,,,,,,
5484,0,0.0914,,-0.02,0.03,-0.04,0,1,0,0.05,0.06,93,,,,,,,,,,,,,,,,,,,,,,,,,,,,,,,,,,,,,,,,,,,,,,,,,,,,,,,,,,,,,,,,,,,,,,,,,,,,,,,,,,,,,,,,,,,,,,,,,,,,,,,,,,,,,,,,,,,
5524,0,0.0921,,-0.02,0.03,-0.04,-0,1,0,0.05,0.06,93,0,0,0,0,32,0,0,1,0,0,0,0,0,9,7,12,0,0,96,0,0,138,9,9,0,0,0,0,1,3,1,1,0,77,76,75,0,0,0,0,0,0,0,3,1,1,0,80,78,75,0,0,0,0,0,0,0,0,0,0,0,0,0,0,3,1,1,0,80,79,78,0,0,0,0,0,0,0,0,0,0,0,0,0,0,0,0,0,0,0,0,0,0,0,0,0,0,0,0,0,0.0,0.0,0.0,0.0,0,0,0.0,0,0.0,-1,0.0,0.0,0,0.0,0.0921
5564,0,0.0927,,-0.02,0.03,-0.04,-0,1,0,0.05,0.06,94,,,,,,,,,,,,,,,,,,,,,,,,,,,,,,,,,,,,,,,,,,,,,,,,,,,,,,,,,,,,,,,,,,,,,,,,,,,,,,,,,,,,,,,,,,,,,,,,,,,,,,,,,,,,,,,,,,,
5604,0,0.0934,,-0.02,0.03,-0.04,0,1,0,0.05,0.06,93,,,,,,,,,,,,,,,,,,,,,,,,,,,,,,,,,,,,,,,,,,,,,,,,,,,,,,,,,,,,,,,,,,,,,,,,,,,,,,,,,,,,,,,,,,,,,,,,,,,,,,,,,,,,,,,,,,,
5624,0,0.0937,,,,,,,,,,,0,0,0,0,32,0,0,1,0,0,0,0,0,9,7,12,0,0,96,0,0,138,10,10,0,0,0,0,1,3,1,1,0,77,76,75,0,0,0,0,0,0,0,3,1,1,0,80,78,75,0,0,0,0,0,0,0,0,0,0,0,0,0,0,3,1,1,0,80,79,78,0,0,0,0,0,0,0,0,0,0,0,0,0,0,0,0,0,0,0,0,0,0,0,0,0,0,0,0,0,0.0,0.0,0.0,0.0,0,0,0.0,0,0.0,-1,0.0,,0,0.0,0.0937
5644,0,0.0941,,-0.02,0.03,-0.04,-0,1,0,0.05,0.06,94,,,,,,,,,,,,,,,,,,,,,,,,,,,,,,,,,,,,,,,,,,,,,,,,,,,,,,,,,,,,,,,,,,,,,,,,,,,,,,,,,,,,,,,,,,,,,,,,,,,,,,,,,,,,,,,,,,,
5684,0,0.0947,,-0.02,0.03,-0.04,-0,1,0,0.05,0.06,93,,,,,,,,,,,,,,,,,,,,,,,,,,,,,,,,,,,,,,,,,,,,,,,,,,,,,,,,,,,,,,,,,,,,,,,,,,,,,,,,,,,,,,,,,,,,,,,,,,,,,,,,,,,,,,,,,,,
5724,0,0.0954,,-0.02,0.03,-0.04,0,1,0,0.05,0.06,91,0,0,0,0,32,0,0,1,0,0,0,0,0,9,7,12,0,0,96,0,0,138,10,10,0,0,0,0,1,3,1,1,0,77,76,75,0,0,0,0,0,0,0,3,1,1,0,80,78,75,0,0,0,0,0,0,0,0,0,0,0,0,0,0,3,1,1,0,80,79,78,0,0,0,0,0,0,0,0,0,0,0,0,0,0,0,0,0,0,0,0,0,0,0,0,0,0,0,0,0,0.0,0.0,0.0,0.0,0,0,0.0,0,0.0,-1,0.0,0.0,0,0.0,0.0954
5764,0,0.0961,,-0.02,0.03,-0.04,0,1,0,0.05,0.06,90,,,,,,,,,,,,,,,,,,,,,,,,,,,,,,,,,,,,,,,,,,,,,,,,,,,,,,,,,,,,,,,,,,,,,,,,,,,,,,,,,,,,,,,,,,,,,,,,,,,,,,,,,,,,,,,,,,,
5804,0,0.0967,,-0.02,0.03,-0.04,-0,1,0,0.05,0.06,90,,,,,,,,,,,,,,,,,,,,,,,,,,,,,,,,,,,,,,,,,,,,,,,,,,,,,,,,,,,,,,,,,,,,,,,,,,,,,,,,,,,,,,,,,,,,,,,,,,,,,,,,,,,,,,,,,,,
5824,0,0.0971,,,,,,,,,,,0,0,0,0,32,0,0,1,0,0,0,0,0,9,7,12,0,0,96,0,0,138,10,10,0,0,0,0,1,3,1,1,0,77,76,75,0,0,0,0,0,0,0,3,1,1,0,80,78,75,0,0,0,0,0,0,0,0,0,0,0,0,0,0,3,1,1,0,80,79,78,0,0,0,0,0,0,0,0,0,0,0,0,0,0,0,0,0,0,0,0,0,0,0,0,0,0,0,0,0,0.0,0.0,0.0,0.0,0,0,0.0,0,0.0,-1,0.0,,0,0.0,0.0971
5844,0,0.0974,,-0.02,0.03,-0.04,-0,1,0,0.05,0.06,90,,,,,,,,,,,,,,,,,,,,,,,,,,,,,,,,,,,,,,,,,,,,,,,,,,,,,,,,,,,,,,,,,,,,,,,,,,,,,,,,,,,,,,,,,,,,,,,,,,,,,,,,,,,,,,,,,,,
5884,0,0.0981,,-0.02,0.03,-0.04,-0,1,0,0.05,0.06,89,,,,,,,,,,,,,,,,,,,,,,,,,,,,,,,,,,,,,,,,,,,,,,,,,,,,,,,,,,,,,,,,,,,,,,,,,,,,,,,,,,,,,,,,,,,,,,,,,,,,,,,,,,,,,,,,,,,
5924,0,0.0987,,-0.02,0.03,-0.04,-0,1,0,0.05,0.06,90,0,0,0,0,32,0,0,1,0,0,0,0,0,9,7,12,0,0,96,0,0,138,10,10,0,0,0,0,1,3,1,1,0,77,76,75,0,0,0,0,0,0,0,3,1,1,0,80,78,75,0,0,0,0,0,0,0,0,0,0,0,0,0,0,3,1,1,0,80,79,78,0,0,0,0,0,0,0,0,0,0,0,0,0,0,0,0,0,0,0,0,0,0,0,0,0,0,0,0,0,0.0,0.0,0.0,0.0,0,0,0.0,0,0.0,-1,0.0,0.0,0,0.0,0.0987
5964,0,0.0994,,-0.02,0.03,-0.04,-0,1,0,0.05,0.06,89,,,,,,,,,,,,,,,,,,,,,,,,,,,,,,,,,,,,,,,,,,,,,,,,,,,,,,,,,,,,,,,,,,,,,,,,,,,,,,,,,,,,,,,,,,,,,,,,,,,,,,,,,,,,,,,,,,,
6004,0,0.1001,,-0.02,0.03,-0.04,-0,1,0,0.05,0.06,91,,,,,,,,,,,,,,,,,,,,,,,,,,,,,,,,,,,,,,,,,,,,,,,,,,,,,,,,,,,,,,,,,,,,,,,,,,,,,,,,,,,,,,,,,,,,,,,,,,,,,,,,,,,,,,,,,,,
6024,0,0.1004,,,,,,,,,,,0,0,0,0,32,0,0,1,0,0,0,0,0,9,7,12,0,0,96,0,0,138,10,10,0,0,0,0,1,3,1,1,0,77,76,75,0,0,0,0,0,0,0,3,1,1,0,80,78,75,0,0,0,0,0,0,0,0,0,0,0,0,0,0,3,1,1,0,80,79,78,0,0,0,0,0,0,0,0,0,0,0,0,0,0,0,0,0,0,0,0,0,0,0,0,0,0,0,0,0,0.0,0.0,0.0,0.0,0,0,0.0,0,0.0,-1,0.0,,0,0.0,0.1004
6044,0,0.1007,,-0.02,0.03,-0.04,-0,1,0,0.05,0.06,92,,,,,,,,,,,,,,,,,,,,,,,,,,,,,,,,,,,,,,,,,,,,,,,,,,,,,,,,,,,,,,,,,,,,,,,,,,,,,,,,,,,,,,,,,,,,,,,,,,,,,,,,,,,,,,,,,,,
6084,0,0.1014,,-0.02,0.03,-0.04,-0,1,0,0.05,0.06,93,,,,,,,,,,,,,,,,,,,,,,,,,,,,,,,,,,,,,,,,,,,,,,,,,,,,,,,,,,,,,,,,,,,,,,,,,,,,,,,,,,,,,,,,,,,,,,,,,,,,,,,,,,,,,,,,,,,
6124,0,0.1021,,-0.02,0.03,-0.04,-0,0,0,0.05,0.06,93,0,0,0,0,32,0,0,1,0,0,0,0,0,9,7,12,0,0,96,0,0,138,10,10,0,0,0,0,1,3,1,1,0,77,76,75,0,0,0,0,0,0,0,3,1,1,0,80,78,75,0,0,0,0,0,0,0,0,0,0,0,0,0,0,3,1,1,0,80,79,78,0,0,0,0,0,0,0,0,0,0,0,0,0,0,0,0,0,0,0,0,0,0,0,0,0,0,0,0,0,0.0,0.0,0.0,0.0,0,0,0.0,0,0.0,-1,0.0,0.0,0,0.0,0.1021
6164,0,0.1027,,-0.02,0.03,-0.04,-0,0,0,0.05,0.06,92,,,,,,,,,,,,,,,,,,,,,,,,,,,,,,,,,,,,,,,,,,,,,,,,,,,,,,,,,,,,,,,,,,,,,,,,,,,,,,,,,,,,,,,,,,,,,,,,,,,,,,,,,,,,,,,,,,,
6204,0,0.1034,,-0.02,0.03,-0.04,-0,1,0,0.05,0.06,91,,,,,,,,,,,,,,,,,,,,,,,,,,,,,,,,,,,,,,,,,,,,,,,,,,,,,,,,,,,,,,,,,,,,,,,,,,,,,,,,,,,,,,,,,,,,,,,,,,,,,,,,,,,,,,,,,,,
6224,0,0.1037,,,,,,,,,,,0,0,0,0,32,0,0,1,0,0,0,0,0,9,7,12,0,0,96,0,0,138,10,10,0,0,0,0,1,3,1,1,0,77,76,75,0,0,0,0,0,0,0,0,3,3,3,0,347,347,0,0,0,0,0,0,0,0,0,0,0,0,0,0,3,1,1,0,80,79,78,0,0,0,0,0,0,0,0,0,0,0,0,0,0,0,0,0,0,0,0,0,0,0,0,0,0,0,0,0,0.0,0.0,0.0,0.0,0,0,0.0,0,0.0,-1,0.0,,0,0.0,0.1037
6244,0,0.1041,,-0.02,0.03,-0.04,-0,1,0,0.05,0.06,92,,,,,,,,,,,,,,,,,,,,,,,,,,,,,,,,,,,,,,,,,,,,,,,,,,,,,,,,,,,,,,,,,,,,,,,,,,,,,,,,,,,,,,,,,,,,,,,,,,,,,,,,,,,,,,,,,,,
6284,0,0.1047,,-0.02,0.03,-0.04,-0,1,0,0.05,0.06,92,,,,,,,,,,,,,,,,,,,,,,,,,,,,,,,,,,,,,,,,,,,,,,,,,,,,,,,,,,,,,,,,,,,,,,,,,,,,,,,,,,,,,,,,,,,,,,,,,,,,,,,,,,,,,,,,,,,
6324,0,0.1054,12.41,-0.02,0.03,-0.04,-0,1,0,0.05,0.06,91,0,0,0,0,32,0,0,1,0,0,0,0,0,9,7,12,0,0,96,0,0,138,10,10,0,0,0,0,1,3,1,1,0,77,76,75,0,0,0,0,0,0,0,0,3,3,3,0,347,347,0,0,0,0,0,0,0,0,0,0,0,0,0,0,3,1,1,0,80,79,78,0,0,0,0,0,0,0,0,0,0,0,0,0,0,0,0,0,0,0,0,0,0,0,0,0,0,0,0,0,0.0,0.0,0.0,0.0,0,0,0.0,0,0.0,-1,0.0,0.0,0,0.0,0.1054
6364,0,0.1061,,-0.02,0.03,-0.04,-0,1,0,0.05,0.06,91,,,,,,,,,,,,,,,,,,,,,,,,,,,,,,,,,,,,,,,,,,,,,,,,,,,,,,,,,,,,,,,,,,,,,,,,,,,,,,,,,,,,,,,,,,,,,,,,,,,,,,,,,,,,,,,,,,,
6404,0,0.1067,,-0.02,0.03,-0.04,-0,1,0,0.05,0.06,90,,,,,,,,,,,,,,,,,,,,,,,,,,,,,,,,,,,,,,,,,,,,,,,,,,,,,,,,,,,,,,,,,,,,,,,,,,,,,,,,,,,,,,,,,,,,,,,,,,,,,,,,,,,,,,,,,,,
6424,0,0.1071,,,,,,,,,,,0,0,0,0,32,0,0,1,0,0,0,0,0,9,7,12,0,0,96,0,0,138,10,10,0,0,0,0,1,3,1,1,0,77,76,75,0,0,0,0,0,0,0,0,3,3,3,0,347,347,0,0,0,0,0,0,0,0,0,0,0,0,0,0,3,1,1,0,80,79,78,0,0,0,0,0,0,0,0,0,0,0,0,0,0,0,0,0,0,0,0,0,0,0,0,0,0,0,0,0,0.0,0.0,0.0,0.0,0,0,0.0,0,0.0,-1,0.0,,0,0.0,0.1071
6444,0,0.1074,,-0.02,0.03,-0.04,-0,1,0,0.05,0.06,91,,,,,,,,,,,,,,,,,,,,,,,,,,,,,,,,,,,,,,,,,,,,,,,,,,,,,,,,,,,,,,,,,,,,,,,,,,,,,,,,,,,,,,,,,,,,,,,,,,,,,,,,,,,,,,,,,,,
6484,0,0.1081,,-0.02,0.03,-0.04,-0,1,0,0.05,0.06,92,,,,,,,,,,,,,,,,,,,,,,,,,,,,,,,,,,,,,,,,,,,,,,,,,,,,,,,,,,,,,,,,,,,,,,,,,,,,,,,,,,,,,,,,,,,,,,,,,,,,,,,,,,,,,,,,,,,
6524,0,0.1087,,-0.02,0.03,-0.04,-0,1,0,0.05,0.06,91,0,0,0,0,32,0,0,1,0,0,0,0,0,9,7,12,0,0,96,0,0,138,11,11,0,0,0,0,1,3,1,1,0,77,76,75,0,0,0,0,0,0,0,0,3,3,3,0,347,347,0,0,0,0,0,0,0,0,0,0,0,0,0,0,3,1,1,0,80,79,78,0,0,0,0,0,0,0,0,0,0,0,0,0,0,0,0,0,0,0,0,0,0,0,0,0,0,0,0,0,0.0,0.0,0.0,0.0,0,0,0.0,0,0.0,-1,0.0,0.0,0,0.0,0.1087
6564,0,0.1094,,-0.02,0.03,-0.04,-0,1,0,0.05,0.06,90,,,,,,,,,,,,,,,,,,,,,,,,,,,,,,,,,,,,,,,,,,,,,,,,,,,,,,,,,,,,,,,,,,,,,,,,,,,,,,,,,,,,,,,,,,,,,,,,,,,,,,,,,,,,,,,,,,,
6604,0,0.1101,,-0.02,0.03,-0.04,-0,1,0,0.05,0.06,92,,,,,,,,,,,,,,,,,,,,,,,,,,,,,,,,,,,,,,,,,,,,,,,,,,,,,,,,,,,,,,,,,,,,,,,,,,,,,,,,,,,,,,,,,,,,,,,,,,,,,,,,,,,,,,,,,,,
6624,0,0.1104,,,,,,,,,,,0,0,0,0,32,0,0,1,0,0,0,0,0,9,7,12,0,0,96,0,0,138,11,11,0,0,0,0,1,3,1,1,0,77,76,75,0,0,0,0,0,0,0,0,3,3,3,0,347,347,0,0,0,0,0,0,0,0,0,0,0,0,0,0,3,1,1,0,80,79,78,0,0,0,0,0,0,0,0,0,0,0,0,0,0,0,0,0,0,0,0,0,0,0,0,0,0,0,0,0,0.0,0.0,0.0,0.0,0,0,0.0,0,0.0,-1,0.0,,0,0.0,0.1104
6644,0,0.1107,,-0.02,0.03,-0.04,-0,1,0,0.05,0.06,93,,,,,,,,,,,,,,,,,,,,,,,,,,,,,,,,,,,,,,,,,,,,,,,,,,,,,,,,,,,,,,,,,,,,,,,,,,,,,,,,,,,,,,,,,,,,,,,,,,,,,,,,,,,,,,,,,,,
6684,0,0.1114,,-0.02,0.03,-0.04,-0,1,0,0.05,0.06,92,,,,,,,,,,,,,,,,,,,,,,,,,,,,,,,,,,,,,,,,,,,,,,,,,,,,,,,,,,,,,,,,,,,,,,,,,,,,,,,,,,,,,,,,,,,,,,,,,,,,,,,,,,,,,,,,,,,
6724,0,0.1121,,-0.02,0.03,-0.04,-0,1,0,0.05,0.06,91,0,0,0,0,32,0,0,1,0,0,0,0,0,9,7,12,0,0,96,0,0,138,11,11,0,0,0,0,1,3,1,1,0,77,76,75,0,0,0,0,0,0,0,0,3,3,3,0,347,347,0,0,0,0,0,0,0,0,0,0,0,0,0,0,3,1,1,0,80,79,78,0,0,0,0,0,0,0,0,0,0,0,0,0,0,0,0,0,0,0,0,0,0,0,0,0,0,0,0,0,0.0,0.0,0.0,0.0,0,0,0.0,0,0.0,-1,0.0,0.0,0,0.0,0.1121
6764,0,0.1127,,-0.02,0.03,-0.04,-0,1,0,0.05,0.06,91,,,,,,,,,,,,,,,,,,,,,,,,,,,,,,,,,,,,,,,,,,,,,,,,,,,,,,,,,,,,,,,,,,,,,,,,,,,,,,,,,,,,,,,,,,,,,,,,,,,,,,,,,,,,,,,,,,,
6804,0,0.1134,,-0.02,0.03,-0.04,-0,1,-0,0.05,0.06,90,,,,,,,,,,,,,,,,,,,,,,,,,,,,,,,,,,,,,,,,,,,,,,,,,,,,,,,,,,,,,,,,,,,,,,,,,,,,,,,,,,,,,,,,,,,,,,,,,,,,,,,,,,,,,,,,,,,
6824,0,0.1137,,,,,,,,,,,0,0,0,0,32,0,0,1,0,0,0,0,0,9,7,12,0,0,96,0,0,138,11,11,0,0,0,0,1,3,1,1,0,77,76,75,0,0,0,0,0,0,0,0,3,3,3,0,347,347,0,0,0,0,0,0,0,0,0,0,0,0,0,0,3,1,1,0,80,79,78,0,0,0,0,0,0,0,0,0,0,0,0,0,0,0,0,0,0,0,0,0,0,0,0,0,0,0,0,0,0.0,0.0,0.0,0.0,0,0,0.0,0,0.0,-1,0.0,,0,0.0,0.1137
6844,0,0.1141,,-0.02,0.03,-0.04,-0,1,0,0.05,0.06,91,,,,,,,,,,,,,,,,,,,,,,,,,,,,,,,,,,,,,,,,,,,,,,,,,,,,,,,,,,,,,,,,,,,,,,,,,,,,,,,,,,,,,,,,,,,,,,,,,,,,,,,,,,,,,,,,,,,
6884,0,0.1147,,-0.02,0.03,-0.04,-0,1,0,0.05,0.06,88,,,,,,,,,,,,,,,,,,,,,,,,,,,,,,,,,,,,,,,,,,,,,,,,,,,,,,,,,,,,,,,,,,,,,,,,,,,,,,,,,,,,,,,,,,,,,,,,,,,,,,,,,,,,,,,,,,,
6924,0,0.1154,,-0.02,0.03,-0.04,-0,1,0,0.05,0.06,92,0,0,0,0,32,0,0,1,0,0,0,0,0,9,7,12,0,0,96,0,0,138,11,11,0,0,0,0,1,3,1,1,0,77,76,75,0,0,0,0,0,0,0,0,3,3,3,0,347,347,0,0,0,0,0,0,0,0,0,0,0,0,0,0,3,1,1,0,80,79,78,0,0,0,0,0,0,0,0,0,0,0,0,0,0,0,0,0,0,0,0,0,0,0,0,0,0,0,0,0,0.0,0.0,0.0,0.0,0,0,0.0,0,0.0,-1,0.0,0.0,0,0.0,0.1154
6964,0,0.1161,,-0.02,0.03,-0.04,-0,0,0,0.05,0.06,88,,,,,,,,,,,,,,,,,,,,,,,,,,,,,,,,,,,,,,,,,,,,,,,,,,,,,,,,,,,,,,,,,,,,,,,,,,,,,,,,,,,,,,,,,,,,,,,,,,,,,,,,,,,,,,,,,,,
7004,0,0.1167,,-0.02,0.03,-0.04,-0,1,-0,0.05,0.06,87,,,,,,,,,,,,,,,,,,,,,,,,,,,,,,,,,,,,,,,,,,,,,,,,,,,,,,,,,,,,,,,,,,,,,,,,,,,,,,,,,,,,,,,,,,,,,,,,,,,,,,,,,,,,,,,,,,,
7024,0,0.1171,,,,,,,,,,,0,0,0,0,32,0,0,1,0,0,0,0,0,9,7,12,0,0,96,0,0,138,11,11,0,0,0,0,1,3,1,1,0,77,76,75,0,0,0,0,0,0,0,0,3,3,3,0,347,347,0,0,0,0,0,0,0,0,0,0,0,0,0,0,3,1,1,0,80,79,78,0,0,0,0,0,0,0,0,0,0,0,0,0,0,0,0,0,0,0,0,0,0,0,0,0,0,0,0,0,0.0,0.0,0.0,0.0,0,0,0.0,0,0.0,-1,0.0,,0,0.0,0.1171
7044,0,0.1174,,-0.02,0.03,-0.04,-0,1,-0,0.05,0.06,90,,,,,,,,,,,,,,,,,,,,,,,,,,,,,,,,,,,,,,,,,,,,,,,,,,,,,,,,,,,,,,,,,,,,,,,,,,,,,,,,,,,,,,,,,,,,,,,,,,,,,,,,,,,,,,,,,,,
7084,0,0.1181,,-0.01,0.03,-0.04,-0,1,-0,0.05,0.06,88,,,,,,,,,,,,,,,,,,,,,,,,,,,,,,,,,,,,,,,,,,,,,,,,,,,,,,,,,,,,,,,,,,,,,,,,,,,,,,,,,,,,,,,,,,,,,,,,,,,,,,,,,,,,,,,,,,,
7124,0,0.1187,,-0.02,0.03,-0.04,-0,1,-0,0.05,0.06,89,0,0,0,0,32,0,0,1,0,0,0,0,0,9,7,12,0,0,96,0,0,138,11,11,0,0,0,0,1,3,1,1,0,77,76,75,0,0,0,0,0,0,0,0,3,3,3,0,347,347,0,0,0,0,0,0,0,0,0,0,0,0,0,0,3,1,1,0,80,79,78,0,0,0,0,0,0,0,0,0,0,0,0,0,0,0,0,0,0,0,0,0,0,0,0,0,0,0,0,0,0.0,0.0,0.0,0.0,0,0,0.0,0,0.0,-1,0.0,0.0,0,0.0,0.1187
7164,0,0.1194,,-0.01,0.03,-0.04,-0,1,0,0.05,0.06,88,,,,,,,,,,,,,,,,,,,,,,,,,,,,,,,,,,,,,,,,,,,,,,,,,,,,,,,,,,,,,,,,,,,,,,,,,,,,,,,,,,,,,,,,,,,,,,,,,,,,,,,,,,,,,,,,,,,
7204,0,0.1201,,-0.01,0.03,-0.04,-0,1,0,0.05,0.06,90,,,,,,,,,,,,,,,,,,,,,,,,,,,,,,,,,,,,,,,,,,,,,,,,,,,,,,,,,,,,,,,,,,,,,,,,,,,,,,,,,,,,,,,,,,,,,,,,,,,,,,,,,,,,,,,,,,,
7224,0,0.1204,,,,,,,,,,,0,0,0,0,32,0,0,1,0,0,0,0,0,9,7,12,0,0,96,0,0,138,11,11,0,0,0,0,1,3,1,1,0,77,76,75,0,0,0,0,0,0,0,3,1,1,0,80,78,75,0,0,0,0,0,0,0,0,0,0,0,0,0,0,3,1,1,0,80,79,78,0,0,0,0,0,0,0,0,0,0,0,0,0,0,0,0,0,0,0,0,0,0,0,0,0,0,0,0,0,0.0,0.0,0.0,0.0,0,0,0.0,0,0.0,-1,0.0,,0,0.0,0.1204
7244,0,0.1207,,-0.02,0.03,-0.04,-0,1,0,0.05,0.06,91,,,,,,,,,,,,,,,,,,,,,,,,,,,,,,,,,,,,,,,,,,,,,,,,,,,,,,,,,,,,,,,,,,,,,,,,,,,,,,,,,,,,,,,,,,,,,,,,,,,,,,,,,,,,,,,,,,,
7284,0,0.1214,,-0.02,0.03,-0.04,-0,1,0,0.05,0.06,91,,,,,,,,,,,,,,,,,,,,,,,,,,,,,,,,,,,,,,,,,,,,,,,,,,,,,,,,,,,,,,,,,,,,,,,,,,,,,,,,,,,,,,,,,,,,,,,,,,,,,,,,,,,,,,,,,,,
7324,0,0.1221,12.43,-0.02,0.03,-0.04,-0,1,0,0.05,0.06,92,0,0,0,0,32,0,0,1,0,0,0,0,0,9,7,12,0,0,96,0,0,138,11,11,0,0,0,0,1,3,1,1,0,77,76,75,0,0,0,0,0,0,0,3,1,1,0,80,78,75,0,0,0,0,0,0,0,0,0,0,0,0,0,0,3,1,1,0,80,79,78,0,0,0,0,0,0,0,0,0,0,0,0,0,0,0,0,0,0,0,0,0,0,0,0,0,0,0,0,0,0.0,0.0,0.0,0.0,0,0,0.0,0,0.0,-1,0.0,0.0,0,0.0,0.1221
7364,0,0.1227,,-0.02,0.03,-0.04,-0,1,-0,0.05,0.06,93,,,,,,,,,,,,,,,,,,,,,,,,,,,,,,,,,,,,,,,,,,,,,,,,,,,,,,,,,,,,,,,,,,,,,,,,,,,,,,,,,,,,,,,,,,,,,,,,,,,,,,,,,,,,,,,,,,,
7404,0,0.1234,,-0.02,0.03,-0.04,-0,1,-0,0.05,0.06,95,,,,,,,,,,,,,,,,,,,,,,,,,,,,,,,,,,,,,,,,,,,,,,,,,,,,,,,,,,,,,,,,,,,,,,,,,,,,,,,,,,,,,,,,,,,,,,,,,,,,,,,,,,,,,,,,,,,
7424,0,0.1237,,,,,,,,,,,0,0,0,0,32,0,0,1,0,0,0,0,0,9,7,12,0,0,96,0,0,138,12,12,0,0,0,0,1,3,1,1,0,77,76,75,0,0,0,0,0,0,0,3,1,1,0,80,78,75,0,0,0,0,0,0,0,0,0,0,0,0,0,0,3,1,1,0,80,79,78,0,0,0,0,0,0,0,0,0,0,0,0,0,0,0,0,0,0,0,0,0,0,0,0,0,0,0,0,0,0.0,0.0,0.0,0.0,0,0,0.0,0,0.0,-1,0.0,,0,0.0,0.1237
7444,0,0.1241,,-0.02,0.03,-0.04,-0,1,0,0.05,0.06,94,,,,,,,,,,,,,,,,,,,,,,,,,,,,,,,,,,,,,,,,,,,,,,,,,,,,,,,,,,,,,,,,,,,,,,,,,,,,,,,,,,,,,,,,,,,,,,,,,,,,,,,,,,,,,,,,,,,
7484,0,0.1247,,-0.02,0.03,-0.04,-0,1,0,0.05,0.06,93,,,,,,,,,,,,,,,,,,,,,,,,,,,,,,,,,,,,,,,,,,,,,,,,,,,,,,,,,,,,,,,,,,,,,,,,,,,,,,,,,,,,,,,,,,,,,,,,,,,,,,,,,,,,,,,,,,,
7524,0,0.1254,,-0.02,0.03,-0.04,-0,1,0,0.05,0.06,93,0,0,0,0,32,0,0,1,0,0,0,0,0,9,7,12,0,0,96,0,0,138,12,12,0,0,0,0,1,3,1,1,0,77,76,75,0,0,0,0,0,0,0,3,1,1,0,80,78,75,0,0,0,0,0,0,0,0,0,0,0,0,0,0,0,3,3,3,1,349,349,0,0,0,0,0,0,0,0,0,0,0,0,0,0,0,0,0,0,0,0,0,0,0,0,0,0,0,0,0,0.0,0.0,0.0,0.0,0,0,0.0,0,0.0,-1,0.0,0.0,0,0.0,0.1254
7564,0,0.1261,,-0.02,0.03,-0.04,-0,1,0,0.05,0.06,91,,,,,,,,,,,,,,,,,,,,,,,,,,,,,,,,,,,,,,,,,,,,,,,,,,,,,,,,,,,,,,,,,,,,,,,,,,,,,,,,,,,,,,,,,,,,,,,,,,,,,,,,,,,,,,,,,,,
7604,0,0.1267,,-0.02,0.03,-0.04,-0,1,0,0.05,0.06,92,,,,,,,,,,,,,,,,,,,,,,,,,,,,,,,,,,,,,,,,,,,,,,,,,,,,,,,,,,,,,,,,,,,,,,,,,,,,,,,,,,,,,,,,,,,,,,,,,,,,,,,,,,,,,,,,,,,
7624,0,0.1271,,,,,,,,,,,0,0,0,0,32,0,0,1,0,0,0,0,0,9,7,12,0,0,96,0,0,138,12,12,0,0,0,0,1,3,1,1,0,77,76,75,0,0,0,0,0,0,0,3,1,1,0,80,78,75,0,0,0,0,0,0,0,0,0,0,0,0,0,0,0,3,3,3,1,349,349,0,0,0,0,0,0,0,0,0,0,0,0,0,0,0,0,0,0,0,0,0,0,0,0,0,0,0,0,0,0.0,0.0,0.0,0.0,0,0,0.0,0,0.0,-1,0.0,,0,0.0,0.1271
7644,0,0.1274,,-0.02,0.03,-0.04,-0,0,0,0.05,0.06,92,,,,,,,,,,,,,,,,,,,,,,,,,,,,,,,,,,,,,,,,,,,,,,,,,,,,,,,,,,,,,,,,,,,,,,,,,,,,,,,,,,,,,,,,,,,,,,,,,,,,,,,,,,,,,,,,,,,
7684,0,0.1281,,-0.02,0.03,-0.04,-0,0,0,0.05,0.06,92,,,,,,,,,,,,,,,,,,,,,,,,,,,,,,,,,,,,,,,,,,,,,,,,,,,,,,,,,,,,,,,,,,,,,,,,,,,,,,,,,,,,,,,,,,,,,,,,,,,,,,,,,,,,,,,,,,,
7724,0,0.1287,,-0.02,0.03,-0.04,-0,0,0,0.05,0.06,92,0,0,0,0,32,0,0,1,0,0,0,0,0,9,7,12,0,0,96,0,0,138,12,12,0,0,0,0,1,3,1,1,0,77,76,75,0,0,0,0,0,0,0,3,1,1,0,80,78,75,0,0,0,0,0,0,0,0,0,0,0,0,0,0,0,3,3,3,1,349,349,0,0,0,0,0,0,0,0,0,0,0,0,0,0,0,0,0,0,0,0,0,0,0,0,0,0,0,0,0,0.0,0.0,0.0,0.0,0,0,0.0,0,0.0,-1,0.0,0.0,0,0.0,0.1287
7764,0,0.1294,,-0.02,0.03,-0.04,-0,0,0,0.05,0.06,92,,,,,,,,,,,,,,,,,,,,,,,,,,,,,,,,,,,,,,,,,,,,,,,,,,,,,,,,,,,,,,,,,,,,,,,,,,,,,,,,,,,,,,,,,,,,,,,,,,,,,,,,,,,,,,,,,,,
7804,0,0.1301,,-0.02,0.03,-0.04,-0,1,-0,0.05,0.06,92,,,,,,,,,,,,,,,,,,,,,,,,,,,,,,,,,,,,,,,,,,,,,,,,,,,,,,,,,,,,,,,,,,,,,,,,,,,,,,,,,,,,,,,,,,,,,,,,,,,,,,,,,,,,,,,,,,,
7824,0,0.1304,,,,,,,,,,,0,0,0,0,32,0,0,1,0,0,0,0,0,9,7,12,0,0,96,0,0,138,12,12,0,0,0,0,1,3,1,1,0,77,76,75,0,0,0,0,0,0,0,3,1,1,0,80,78,75,0,0,0,0,0,0,0,0,0,0,0,0,0,0,0,3,3,3,1,349,349,0,0,0,0,0,0,0,0,0,0,0,0,0,0,0,0,0,0,0,0,0,0,0,0,0,0,0,0,0,0.0,0.0,0.0,0.0,0,0,0.0,0,0.0,-1,0.0,,0,0.0,0.1304
7844,0,0.1307,,-0.02,0.03,-0.04,-0,1,0,0.05,0.06,92,,,,,,,,,,,,,,,,,,,,,,,,,,,,,,,,,,,,,,,,,,,,,,,,,,,,,,,,,,,,,,,,,,,,,,,,,,,,,,,,,,,,,,,,,,,,,,,,,,,,,,,,,,,,,,,,,,,
7884,0,0.1314,,-0.02,0.03,-0.04,-0,1,0,0.05,0.06,92,,,,,,,,,,,,,,,,,,,,,,,,,,,,,,,,,,,,,,,,,,,,,,,,,,,,,,,,,,,,,,,,,,,,,,,,,,,,,,,,,,,,,,,,,,,,,,,,,,,,,,,,,,,,,,,,,,,
7924,0,0.1321,,-0.02,0.03,-0.04,-0,0,-0,0.05,0.06,93,0,0,0,0,32,0,0,1,0,0,0,0,0,9,7,12,0,0,96,0,0,138,12,12,0,0,0,0,1,3,1,1,0,77,76,75,0,0,0,0,0,0,0,3,1,1,0,80,78,75,0,0,0,0,0,0,0,0,0,0,0,0,0,0,0,3,3,3,1,349,349,0,0,0,0,0,0,0,0,0,0,0,0,0,0,0,0,0,0,0,0,0,0,0,0,0,0,0,0,0,0.0,0.0,0.0,0.0,0,0,0.0,0,0.0,-1,0.0,0.0,0,0.0,0.1321
7964,0,0.1327,,-0.02,0.03,-0.04,-0,1,0,0.05,0.06,93,,,,,,,,,,,,,,,,,,,,,,,,,,,,,,,,,,,,,,,,,,,,,,,,,,,,,,,,,,,,,,,,,,,,,,,,,,,,,,,,,,,,,,,,,,,,,,,,,,,,,,,,,,,,,,,,,,,
8004,0,0.1334,,-0.02,0.03,-0.04,-0,1,0,0.05,0.06,91,,,,,,,,,,,,,,,,,,,,,,,,,,,,,,,,,,,,,,,,,,,,,,,,,,,,,,,,,,,,,,,,,,,,,,,,,,,,,,,,,,,,,,,,,,,,,,,,,,,,,,,,,,,,,,,,,,,
8024,0,0.1337,,,,,,,,,,,0,0,0,0,32,0,0,1,0,0,0,0,0,9,7,12,0,0,96,0,0,138,12,12,0,0,0,0,1,3,1,1,0,77,76,75,0,0,0,0,0,0,0,3,1,1,0,80,78,75,0,0,0,0,0,0,0,0,0,0,0,0,0,0,0,3,3,3,1,349,349,0,0,0,0,0,0,0,0,0,0,0,0,0,0,0,0,0,0,0,0,0,0,0,0,0,0,0,0,0,0.0,0.0,0.0,0.0,0,0,0.0,0,0.0,-1,0.0,,0,0.0,0.1337
8044,0,0.1341,,-0.02,0.03,-0.04,-0,1,0,0.05,0.06,90,,,,,,,,,,,,,,,,,,,,,,,,,,,,,,,,,,,,,,,,,,,,,,,,,,,,,,,,,,,,,,,,,,,,,,,,,,,,,,,,,,,,,,,,,,,,,,,,,,,,,,,,,,,,,,,,,,,
8084,0,0.1347,,-0.02,0.03,-0.04,-0,1,0,0.05,0.06,90,,,,,,,,,,,,,,,,,,,,,,,,,,,,,,,,,,,,,,,,,,,,,,,,,,,,,,,,,,,,,,,,,,,,,,,,,,,,,,,,,,,,,,,,,,,,,,,,,,,,,,,,,,,,,,,,,,,
8124,0,0.1354,,-0.02,0.03,-0.04,-0,1,0,0.05,0.06,91,0,0,0,0,32,0,0,1,0,0,0,0,0,9,7,12,0,0,96,0,0,138,12,12,0,0,0,0,1,3,1,1,0,77,76,75,0,0,0,0,0,0,0,3,1,1,0,80,78,75,0,0,0,0,0,0,0,0,0,0,0,0,0,0,0,3,3,3,1,349,349,0,0,0,0,0,0,0,0,0,0,0,0,0,0,0,0,0,0,0,0,0,0,0,0,0,0,0,0,0,0.0,0.0,0.0,0.0,0,0,0.0,0,0.0,-1,0.0,0.0,0,0.0,0.1354
8164,0,0.1361,,-0.02,0.03,-0.04,-0,1,-0,0.05,0.06,89,,,,,,,,,,,,,,,,,,,,,,,,,,,,,,,,,,,,,,,,,,,,,,,,,,,,,,,,,,,,,,,,,,,,,,,,,,,,,,,,,,,,,,,,,,,,,,,,,,,,,,,,,,,,,,,,,,,
8204,0,0.1367,,-0.02,0.03,-0.04,-0,1,0,0.05,0.06,91,,,,,,,,,,,,,,,,,,,,,,,,,,,,,,,,,,,,,,,,,,,,,,,,,,,,,,,,,,,,,,,,,,,,,,,,,,,,,,,,,,,,,,,,,,,,,,,,,,,,,,,,,,,,,,,,,,,
8224,0,0.1371,,,,,,,,,,,0,0,0,0,32,0,0,1,0,0,0,0,0,9,7,12,0,0,96,0,0,138,12,12,0,0,0,0,1,3,1,1,0,77,76,75,0,0,0,0,0,0,0,3,1,1,0,80,78,75,0,0,0,0,0,0,0,0,0,0,0,0,0,0,0,3,3,3,1,349,349,0,0,0,0,0,0,0,0,0,0,0,0,0,0,0,0,0,0,0,0,0,0,0,0,0,0,0,0,0,0.0,0.0,0.0,0.0,0,0,0.0,0,0.0,-1,0.0,,0,0.0,0.1371
8244,0,0.1374,,-0.02,0.03,-0.04,-0,1,0,0.05,0.06,92,,,,,,,,,,,,,,,,,,,,,,,,,,,,,,,,,,,,,,,,,,,,,,,,,,,,,,,,,,,,,,,,,,,,,,,,,,,,,,,,,,,,,,,,,,,,,,,,,,,,,,,,,,,,,,,,,,,
8284,0,0.1381,,-0.02,0.03,-0.04,-0,1,0,0.05,0.06,94,,,,,,,,,,,,,,,,,,,,,,,,,,,,,,,,,,,,,,,,,,,,,,,,,,,,,,,,,,,,,,,,,,,,,,,,,,,,,,,,,,,,,,,,,,,,,,,,,,,,,,,,,,,,,,,,,,,
8324,0,0.1387,12.42,-0.02,0.03,-0.04,-0,1,0,0.05,0.06,94,0,0,0,0,32,0,0,1,0,0,0,0,0,9,7,12,0,0,96,0,0,138,12,12,0,0,0,0,1,3,1,1,0,77,76,75,0,0,0,0,0,0,0,3,1,1,0,80,78,75,0,0,0,0,0,0,0,0,0,0,0,0,0,0,0,3,3,3,1,349,349,0,0,0,0,0,0,0,0,0,0,0,0,0,0,0,0,0,0,0,0,0,0,0,0,0,0,0,0,0,0.0,0.0,0.0,0.0,0,0,0.0,0,0.0,-1,0.0,0.0,0,0.0,0.1387
8364,0,0.1394,,-0.02,0.03,-0.04,-0,1,0,0.05,0.06,95,,,,,,,,,,,,,,,,,,,,,,,,,,,,,,,,,,,,,,,,,,,,,,,,,,,,,,,,,,,,,,,,,,,,,,,,,,,,,,,,,,,,,,,,,,,,,,,,,,,,,,,,,,,,,,,,,,,
8404,0,0.1401,,-0.02,0.03,-0.04,-0,1,0,0.05,0.06,95,,,,,,,,,,,,,,,,,,,,,,,,,,,,,,,,,,,,,,,,,,,,,,,,,,,,,,,,,,,,,,,,,,,,,,,,,,,,,,,,,,,,,,,,,,,,,,,,,,,,,,,,,,,,,,,,,,,
8424,0,0.1404,,,,,,,,,,,0,0,0,0,32,0,0,1,0,0,0,0,0,9,7,12,0,0,96,0,0,138,12,12,0,0,0,0,1,3,1,1,0,77,76,75,0,0,0,0,0,0,0,3,1,1,0,80,78,75,0,0,0,0,0,0,0,0,0,0,0,0,0,0,0,3,3,3,1,349,349,0,0,0,0,0,0,0,0,0,0,0,0,0,0,0,0,0,0,0,0,0,0,0,0,0,0,0,0,0,0.0,0.0,0.0,0.0,0,0,0.0,0,0.0,-1,0.0,,0,0.0,0.1404
8444,0,0.1407,,-0.02,0.03,-0.04,-0,1,0,0.05,0.06,95,,,,,,,,,,,,,,,,,,,,,,,,,,,,,,,,,,,,,,,,,,,,,,,,,,,,,,,,,,,,,,,,,,,,,,,,,,,,,,,,,,,,,,,,,,,,,,,,,,,,,,,,,,,,,,,,,,,
8484,0,0.1414,,-0.02,0.03,-0.04,-0,1,0,0.05,0.06,94,,,,,,,,,,,,,,,,,,,,,,,,,,,,,,,,,,,,,,,,,,,,,,,,,,,,,,,,,,,,,,,,,,,,,,,,,,,,,,,,,,,,,,,,,,,,,,,,,,,,,,,,,,,,,,,,,,,
8524,0,0.1421,,-0.02,0.03,-0.04,-0,1,0,0.05,0.06,92,0,0,0,0,32,0,0,1,0,0,0,0,0,9,7,12,0,0,96,0,0,138,13,13,0,0,0,0,1,3,1,1,0,77,76,75,0,0,0,0,0,0,0,3,1,1,0,80,78,75,0,0,0,0,0,0,0,0,0,0,0,0,0,0,3,1,1,0,80,79,78,0,0,0,0,0,0,0,0,0,0,0,0,0,0,0,0,0,0,0,0,0,0,0,0,0,0,0,0,0,0.0,0.0,0.0,0.0,0,0,0.0,0,0.0,-1,0.0,0.0,0,0.0,0.1421
8564,0,0.1427,,-0.02,0.03,-0.04,-0,1,0,0.05,0.06,93,,,,,,,,,,,,,,,,,,,,,,,,,,,,,,,,,,,,,,,,,,,,,,,,,,,,,,,,,,,,,,,,,,,,,,,,,,,,,,,,,,,,,,,,,,,,,,,,,,,,,,,,,,,,,,,,,,,
8604,0,0.1434,,-0.02,0.03,-0.04,-0,1,0,0.05,0.06,92,,,,,,,,,,,,,,,,,,,,,,,,,,,,,,,,,,,,,,,,,,,,,,,,,,,,,,,,,,,,,,,,,,,,,,,,,,,,,,,,,,,,,,,,,,,,,,,,,,,,,,,,,,,,,,,,,,,
8624,0,0.1437,,,,,,,,,,,0,0,0,0,32,0,0,1,0,0,0,0,0,9,7,12,0,0,96,0,0,138,13,13,0,0,0,0,1,3,1,1,0,77,76,75,0,0,0,0,0,0,0,3,1,1,0,80,78,75,0,0,0,0,0,0,0,0,0,0,0,0,0,0,3,1,1,0,80,79,78,0,0,0,0,0,0,0,0,0,0,0,0,0,0,0,0,0,0,0,0,0,0,0,0,0,0,0,0,0,0.0,0.0,0.0,0.0,0,0,0.0,0,0.0,-1,0.0,,0,0.0,0.1437
8644,0,0.1441,,-0.02,0.03,-0.04,-0,1,0,0.05,0.06,92,,,,,,,,,,,,,,,,,,,,,,,,,,,,,,,,,,,,,,,,,,,,,,,,,,,,,,,,,,,,,,,,,,,,,,,,,,,,,,,,,,,,,,,,,,,,,,,,,,,,,,,,,,,,,,,,,,,
8684,0,0.1447,,-0.02,0.03,-0.04,-0,1,0,0.05,0.06,92,,,,,,,,,,,,,,,,,,,,,,,,,,,,,,,,,,,,,,,,,,,,,,,,,,,,,,,,,,,,,,,,,,,,,,,,,,,,,,,,,,,,,,,,,,,,,,,,,,,,,,,,,,,,,,,,,,,
8724,0,0.1454,,-0.02,0.03,-0.04,0,1,0,0.05,0.06,92,0,0,0,0,32,0,0,1,0,0,0,0,0,9,7,12,0,0,96,0,0,138,13,13,0,0,0,0,1,3,1,1,0,77,76,75,0,0,0,0,0,0,0,3,1,1,0,80,78,75,0,0,0,0,0,0,0,0,0,0,0,0,0,0,3,1,1,0,80,79,78,0,0,0,0,0,0,0,0,0,0,0,0,0,0,0,0,0,0,0,0,0,0,0,0,0,0,0,0,0,0.0,0.0,0.0,0.0,0,0,0.0,0,0.0,-1,0.0,0.0,0,0.0,0.1454
8764,0,0.1461,,-0.02,0.03,-0.04,-0,1,0,0.05,0.06,93,,,,,,,,,,,,,,,,,,,,,,,,,,,,,,,,,,,,,,,,,,,,,,,,,,,,,,,,,,,,,,,,,,,,,,,,,,,,,,,,,,,,,,,,,,,,,,,,,,,,,,,,,,,,,,,,,,,
8804,0,0.1467,,-0.01,0.03,-0.04,-0,1,0,0.05,0.06,93,,,,,,,,,,,,,,,,,,,,,,,,,,,,,,,,,,,,,,,,,,,,,,,,,,,,,,,,,,,,,,,,,,,,,,,,,,,,,,,,,,,,,,,,,,,,,,,,,,,,,,,,,,,,,,,,,,,
8824,0,0.1471,,,,,,,,,,,0,0,0,0,32,0,0,1,0,0,0,0,0,9,7,12,0,0,96,0,0,138,13,13,0,0,0,0,1,3,1,1,0,77,76,75,0,0,0,0,0,0,0,3,1,1,0,80,78,75,0,0,0,0,0,0,0,0,0,0,0,0,0,0,3,1,1,0,80,79,78,0,0,0,0,0,0,0,0,0,0,0,0,0,0,0,0,0,0,0,0,0,0,0,0,0,0,0,0,0,0.0,0.0,0.0,0.0,0,0,0.0,0,0.0,-1,0.0,,0,0.0,0.1471
8844,0,0.1474,,-0.02,0.03,-0.04,-0,1,0,0.05,0.06,93,,,,,,,,,,,,,,,,,,,,,,,,,,,,,,,,,,,,,,,,,,,,,,,,,,,,,,,,,,,,,,,,,,,,,,,,,,,,,,,,,,,,,,,,,,,,,,,,,,,,,,,,,,,,,,,,,,,
8884,0,0.1481,,-0.02,0.03,-0.04,-0,1,0,0.05,0.06,92,,,,,,,,,,,,,,,,,,,,,,,,,,,,,,,,,,,,,,,,,,,,,,,,,,,,,,,,,,,,,,,,,,,,,,,,,,,,,,,,,,,,,,,,,,,,,,,,,,,,,,,,,,,,,,,,,,,
8924,0,0.1487,,-0.02,0.03,-0.04,-0,1,-0,0.05,0.06,91,0,0,0,0,32,0,0,1,0,0,0,0,0,9,7,12,0,0,96,0,0,138,13,13,0,0,0,0,1,3,1,1,0,77,76,75,0,0,0,0,0,0,0,3,1,1,0,80,78,75,0,0,0,0,0,0,0,0,0,0,0,0,0,0,3,1,1,0,80,79,78,0,0,0,0,0,0,0,0,0,0,0,0,0,0,0,0,0,0,0,0,0,0,0,0,0,0,0,0,0,0.0,0.0,0.0,0.0,0,0,0.0,0,0.0,-1,0.0,0.0,0,0.0,0.1487
8964,0,0.1494,,-0.01,0.03,-0.04,-0,1,0,0.05,0.06,90,,,,,,,,,,,,,,,,,,,,,,,,,,,,,,,,,,,,,,,,,,,,,,,,,,,,,,,,,,,,,,,,,,,,,,,,,,,,,,,,,,,,,,,,,,,,,,,,,,,,,,,,,,,,,,,,,,,
9004,0,0.1501,,-0.01,0.03,-0.04,-0,1,0,0.05,0.06,89,,,,,,,,,,,,,,,,,,,,,,,,,,,,,,,,,,,,,,,,,,,,,,,,,,,,,,,,,,,,,,,,,,,,,,,,,,,,,,,,,,,,,,,,,,,,,,,,,,,,,,,,,,,,,,,,,,,
9024,0,0.1504,,,,,,,,,,,0,0,0,0,32,0,0,1,0,0,0,0,0,9,7,12,0,0,96,0,0,138,13,13,0,0,0,0,1,3,1,1,0,77,76,75,0,0,0,0,0,0,0,3,1,1,0,80,78,75,0,0,0,0,0,0,0,0,0,0,0,0,0,0,3,1,1,0,80,79,78,0,0,0,0,0,0,0,0,0,0,0,0,0,0,0,0,0,0,0,0,0,0,0,0,0,0,0,0,0,0.0,0.0,0.0,0.0,0,0,0.0,0,0.0,-1,0.0,,0,0.0,0.1504
9044,0,0.1507,,-0.02,0.03,-0.04,-0,1,0,0.05,0.06,89,,,,,,,,,,,,,,,,,,,,,,,,,,,,,,,,,,,,,,,,,,,,,,,,,,,,,,,,,,,,,,,,,,,,,,,,,,,,,,,,,,,,,,,,,,,,,,,,,,,,,,,,,,,,,,,,,,,
9084,0,0.1514,,-0.02,0.03,-0.04,-0,1,0,0.05,0.06,87,,,,,,,,,,,,,,,,,,,,,,,,,,,,,,,,,,,,,,,,,,,,,,,,,,,,,,,,,,,,,,,,,,,,,,,,,,,,,,,,,,,,,,,,,,,,,,,,,,,,,,,,,,,,,,,,,,,
9124,0,0.1521,,-0.02,0.03,-0.04,-0,1,0,0.05,0.06,87,0,0,0,0,32,0,0,1,0,0,0,0,0,9,7,12,0,0,96,0,0,138,13,13,0,0,0,0,1,3,1,1,0,77,76,75,0,0,0,0,0,0,0,3,1,1,0,80,78,75,0,0,0,0,0,0,0,0,0,0,0,0,0,0,3,1,1,0,80,79,78,0,0,0,0,0,0,0,0,0,0,0,0,0,0,0,0,0,0,0,0,0,0,0,0,0,0,0,0,0,0.0,0.0,0.0,0.0,0,0,0.0,0,0.0,-1,0.0,0.0,0,0.0,0.1521
9164,0,0.1527,,-0.02,0.03,-0.04,-0,1,-0,0.05,0.06,88,,,,,,,,,,,,,,,,,,,,,,,,,,,,,,,,,,,,,,,,,,,,,,,,,,,,,,,,,,,,,,,,,,,,,,,,,,,,,,,,,,,,,,,,,,,,,,,,,,,,,,,,,,,,,,,,,,,
9204,0,0.1534,,-0.02,0.03,-0.04,-0,1,-0,0.05,0.06,88,,,,,,,,,,,,,,,,,,,,,,,,,,,,,,,,,,,,,,,,,,,,,,,,,,,,,,,,,,,,,,,,,,,,,,,,,,,,,,,,,,,,,,,,,,,,,,,,,,,,,,,,,,,,,,,,,,,
9224,0,0.1537,,,,,,,,,,,0,0,0,0,32,0,0,1,0,0,0,0,0,9,7,12,0,0,96,0,0,138,13,13,0,0,0,0,1,3,1,1,0,77,76,75,0,0,0,0,0,0,0,0,3,3,3,0,347,346,0,0,0,0,0,0,0,0,0,0,0,0,0,0,3,1,1,0,80,79,78,0,0,0,0,0,0,0,0,0,0,0,0,0,0,0,0,0,0,0,0,0,0,0,0,0,0,0,0,0,0.0,0.0,0.0,0.0,0,0,0.0,0,0.0,-1,0.0,,0,0.0,0.1537
9244,0,0.1541,,-0.02,0.03,-0.04,-0,1,0,0.05,0.06,89,,,,,,,,,,,,,,,,,,,,,,,,,,,,,,,,,,,,,,,,,,,,,,,,,,,,,,,,,,,,,,,,,,,,,,,,,,,,,,,,,,,,,,,,,,,,,,,,,,,,,,,,,,,,,,,,,,,
9284,0,0.1547,,-0.02,0.03,-0.04,-0,1,0,0.05,0.06,90,,,,,,,,,,,,,,,,,,,,,,,,,,,,,,,,,,,,,,,,,,,,,,,,,,,,,,,,,,,,,,,,,,,,,,,,,,,,,,,,,,,,,,,,,,,,,,,,,,,,,,,,,,,,,,,,,,,
9324,0,0.1554,12.38,-0.02,0.03,-0.04,-0,0,0,0.05,0.06,90,0,0,0,0,32,0,0,1,0,0,0,0,0,9,7,12,0,0,96,0,0,138,13,13,0,0,0,0,1,3,1,1,0,77,76,75,0,0,0,0,0,0,0,0,3,3,3,0,347,346,0,0,0,0,0,0,0,0,0,0,0,0,0,0,3,1,1,0,80,79,78,0,0,0,0,0,0,0,0,0,0,0,0,0,0,0,0,0,0,0,0,0,0,0,0,0,0,0,0,0,0.0,0.0,0.0,0.0,0,0,0.0,0,0.0,-1,0.0,0.0,0,0.0,0.1554
9364,0,0.1561,,-0.02,0.03,-0.04,-0,1,0,0.05,0.06,89,,,,,,,,,,,,,,,,,,,,,,,,,,,,,,,,,,,,,,,,,,,,,,,,,,,,,,,,,,,,,,,,,,,,,,,,,,,,,,,,,,,,,,,,,,,,,,,,,,,,,,,,,,,,,,,,,,,
9404,0,0.1567,,-0.02,0.03,-0.04,-0,1,0,0.05,0.06,89,,,,,,,,,,,,,,,,,,,,,,,,,,,,,,,,,,,,,,,,,,,,,,,,,,,,,,,,,,,,,,,,,,,,,,,,,,,,,,,,,,,,,,,,,,,,,,,,,,,,,,,,,,,,,,,,,,,
9424,0,0.1571,,,,,,,,,,,0,0,0,0,32,0,0,1,0,0,0,0,0,9,7,12,0,0,96,0,0,138,13,13,0,0,0,0,1,3,1,1,0,77,76,75,0,0,0,0,0,0,0,0,3,3,3,0,347,346,0,0,0,0,0,0,0,0,0,0,0,0,0,0,3,1,1,0,80,79,78,0,0,0,0,0,0,0,0,0,0,0,0,0,0,0,0,0,0,0,0,0,0,0,0,0,0,0,0,0,0.0,0.0,0.0,0.0,0,0,0.0,0,0.0,-1,0.0,,0,0.0,0.1571
9444,0,0.1574,,-0.02,0.03,-0.04,-0,0,0,0.05,0.06,89,,,,,,,,,,,,,,,,,,,,,,,,,,,,,,,,,,,,,,,,,,,,,,,,,,,,,,,,,,,,,,,,,,,,,,,,,,,,,,,,,,,,,,,,,,,,,,,,,,,,,,,,,,,,,,,,,,,
9484,0,0.1581,,-0.02,0.03,-0.04,-0,1,0,0.05,0.06,90,,,,,,,,,,,,,,,,,,,,,,,,,,,,,,,,,,,,,,,,,,,,,,,,,,,,,,,,,,,,,,,,,,,,,,,,,,,,,,,,,,,,,,,,,,,,,,,,,,,,,,,,,,,,,,,,,,,
9524,0,0.1587,,-0.02,0.03,-0.04,-0,1,0,0.05,0.06,90,0,0,0,0,32,0,0,1,0,0,0,0,0,9,7,12,0,0,96,0,0,138,14,14,0,0,0,0,1,3,1,1,0,77,76,75,0,0,0,0,0,0,0,0,3,3,3,0,347,346,0,0,0,0,0,0,0,0,0,0,0,0,0,0,3,1,1,0,80,79,78,0,0,0,0,0,0,0,0,0,0,0,0,0,0,0,0,0,0,0,0,0,0,0,0,0,0,0,0,0,0.0,0.0,0.0,0.0,0,0,0.0,0,0.0,-1,0.0,0.0,0,0.0,0.1587
9564,0,0.1594,,-0.02,0.03,-0.04,-0,0,0,0.05,0.06,90,,,,,,,,,,,,,,,,,,,,,,,,,,,,,,,,,,,,,,,,,,,,,,,,,,,,,,,,,,,,,,,,,,,,,,,,,,,,,,,,,,,,,,,,,,,,,,,,,,,,,,,,,,,,,,,,,,,
9604,0,0.1601,,-0.02,0.03,-0.04,-0,0,0,0.05,0.06,89,,,,,,,,,,,,,,,,,,,,,,,,,,,,,,,,,,,,,,,,,,,,,,,,,,,,,,,,,,,,,,,,,,,,,,,,,,,,,,,,,,,,,,,,,,,,,,,,,,,,,,,,,,,,,,,,,,,
9624,0,0.1604,,,,,,,,,,,0,0,0,0,32,0,0,1,0,0,0,0,0,9,7,12,0,0,96,0,0,138,14,14,0,0,0,0,1,3,1,1,0,77,76,75,0,0,0,0,0,0,0,0,3,3,3,0,347,346,0,0,0,0,0,0,0,0,0,0,0,0,0,0,3,1,1,0,80,79,78,0,0,0,0,0,0,0,0,0,0,0,0,0,0,0,0,0,0,0,0,0,0,0,0,0,0,0,0,0,0.0,0.0,0.0,0.0,0,0,0.0,0,0.0,-1,0.0,,0,0.0,0.1604
9644,0,0.1607,,-0.02,0.03,-0.04,-0,0,0,0.05,0.06,91,,,,,,,,,,,,,,,,,,,,,,,,,,,,,,,,,,,,,,,,,,,,,,,,,,,,,,,,,,,,,,,,,,,,,,,,,,,,,,,,,,,,,,,,,,,,,,,,,,,,,,,,,,,,,,,,,,,
9684,0,0.1614,,-0.02,0.03,-0.04,-0,0,0,0.05,0.06,92,,,,,,,,,,,,,,,,,,,,,,,,,,,,,,,,,,,,,,,,,,,,,,,,,,,,,,,,,,,,,,,,,,,,,,,,,,,,,,,,,,,,,,,,,,,,,,,,,,,,,,,,,,,,,,,,,,,
9724,0,0.1621,,-0.02,0.03,-0.04,-0,0,0,0.05,0.06,91,0,0,0,0,32,0,0,1,0,0,0,0,0,9,7,12,0,0,96,0,0,138,14,14,0,0,0,0,1,3,1,1,0,77,76,75,0,0,0,0,0,0,0,0,3,3,3,0,347,346,0,0,0,0,0,0,0,0,0,0,0,0,0,0,3,1,1,0,80,79,78,0,0,0,0,0,0,0,0,0,0,0,0,0,0,0,0,0,0,0,0,0,0,0,0,0,0,0,0,0,0.0,0.0,0.0,0.0,0,0,0.0,0,0.0,-1,0.0,0.0,0,0.0,0.1621
9764,0,0.1627,,-0.02,0.03,-0.04,-0,0,0,0.05,0.06,90,,,,,,,,,,,,,,,,,,,,,,,,,,,,,,,,,,,,,,,,,,,,,,,,,,,,,,,,,,,,,,,,,,,,,,,,,,,,,,,,,,,,,,,,,,,,,,,,,,,,,,,,,,,,,,,,,,,
9804,0,0.1634,,-0.02,0.03,-0.04,-0,0,0,0.05,0.06,91,,,,,,,,,,,,,,,,,,,,,,,,,,,,,,,,,,,,,,,,,,,,,,,,,,,,,,,,,,,,,,,,,,,,,,,,,,,,,,,,,,,,,,,,,,,,,,,,,,,,,,,,,,,,,,,,,,,
9824,0,0.1637,,,,,,,,,,,0,0,0,0,32,0,0,1,0,0,0,0,0,9,7,12,0,0,96,0,0,138,14,14,0,0,0,0,1,3,1,1,0,77,76,75,0,0,0,0,0,0,0,0,3,3,3,0,347,346,0,0,0,0,0,0,0,0,0,0,0,0,0,0,3,1,1,0,80,79,78,0,0,0,0,0,0,0,0,0,0,0,0,0,0,0,0,0,0,0,0,0,0,0,0,0,0,0,0,0,0.0,0.0,0.0,0.0,0,0,0.0,0,0.0,-1,0.0,,0,0.0,0.1637
9844,0,0.1641,,-0.02,0.03,-0.04,-0,0,-0,0.05,0.06,90,,,,,,,,,,,,,,,,,,,,,,,,,,,,,,,,,,,,,,,,,,,,,,,,,,,,,,,,,,,,,,,,,,,,,,,,,,,,,,,,,,,,,,,,,,,,,,,,,,,,,,,,,,,,,,,,,,,
9884,0,0.1647,,-0.02,0.03,-0.04,-0,0,-0,0.05,0.06,89,,,,,,,,,,,,,,,,,,,,,,,,,,,,,,,,,,,,,,,,,,,,,,,,,,,,,,,,,,,,,,,,,,,,,,,,,,,,,,,,,,,,,,,,,,,,,,,,,,,,,,,,,,,,,,,,,,,
9924,0,0.1654,,-0.02,0.03,-0.04,-0,0,-0,0.05,0.06,91,0,0,0,0,32,0,0,1,0,0,0,0,0,9,7,12,0,0,96,0,0,138,14,14,0,0,0,0,1,3,1,1,0,77,76,75,0,0,0,0,0,0,0,0,3,3,3,0,347,346,0,0,0,0,0,0,0,0,0,0,0,0,0,0,3,1,1,0,80,79,78,0,0,0,0,0,0,0,0,0,0,0,0,0,0,0,0,0,0,0,0,0,0,0,0,0,0,0,0,0,0.0,0.0,0.0,0.0,0,0,0.0,0,0.0,-1,0.0,0.0,0,0.0,0.1654
9964,0,0.1661,,-0.02,0.03,-0.04,-0,1,-0,0.05,0.06,91,,,,,,,,,,,,,,,,,,,,,,,,,,,,,,,,,,,,,,,,,,,,,,,,,,,,,,,,,,,,,,,,,,,,,,,,,,,,,,,,,,,,,,,,,,,,,,,,,,,,,,,,,,,,,,,,,,,
10004,0,0.1667,,-0.02,0.03,-0.04,-0,1,-0,0.05,0.06,94,,,,,,,,,,,,,,,,,,,,,,,,,,,,,,,,,,,,,,,,,,,,,,,,,,,,,,,,,,,,,,,,,,,,,,,,,,,,,,,,,,,,,,,,,,,,,,,,,,,,,,,,,,,,,,,,,,,
10024,0,0.1671,,,,,,,,,,,0,0,0,0,32,0,0,1,0,0,0,0,0,9,7,12,0,0,96,0,0,138,14,14,0,0,0,0,1,3,1,1,0,77,76,75,0,0,0,0,0,0,0,0,3,3,3,0,347,346,0,0,0,0,0,0,0,0,0,0,0,0,0,0,3,1,1,0,80,79,78,0,0,0,0,0,0,0,0,0,0,0,0,0,0,0,0,0,0,0,0,0,0,0,0,0,0,0,0,0,0.0,0.0,0.0,0.0,0,0,0.0,0,0.0,-1,0.0,,0,0.0,0.1671
10044,0,0.1674,,-0.02,0.03,-0.04,-0,1,-0,0.05,0.06,92,,,,,,,,,,,,,,,,,,,,,,,,,,,,,,,,,,,,,,,,,,,,,,,,,,,,,,,,,,,,,,,,,,,,,,,,,,,,,,,,,,,,,,,,,,,,,,,,,,,,,,,,,,,,,,,,,,,
10084,0,0.1681,,-0.02,0.03,-0.04,-0,1,0,0.05,0.06,90,,,,,,,,,,,,,,,,,,,,,,,,,,,,,,,,,,,,,,,,,,,,,,,,,,,,,,,,,,,,,,,,,,,,,,,,,,,,,,,,,,,,,,,,,,,,,,,,,,,,,,,,,,,,,,,,,,,
10124,0,0.1687,,-0.02,0.03,-0.04,-0,1,-0,0.05,0.06,91,0,0,0,0,32,0,0,1,0,0,0,0,0,9,7,12,0,0,96,0,0,138,14,14,0,0,0,0,1,3,1,1,0,77,76,75,0,0,0,0,0,0,0,0,3,3,3,0,347,346,0,0,0,0,0,0,0,0,0,0,0,0,0,0,3,1,1,0,80,79,78,0,0,0,0,0,0,0,0,0,0,0,0,0,0,0,0,0,0,0,0,0,0,0,0,0,0,0,0,0,0.0,0.0,0.0,0.0,0,0,0.0,0,0.0,-1,0.0,0.0,0,0.0,0.1687
10164,0,0.1694,,-0.02,0.03,-0.04,-0,1,-0,0.05,0.06,94,,,,,,,,,,,,,,,,,,,,,,,,,,,,,,,,,,,,,,,,,,,,,,,,,,,,,,,,,,,,,,,,,,,,,,,,,,,,,,,,,,,,,,,,,,,,,,,,,,,,,,,,,,,,,,,,,,,
10204,0,0.1701,,-0.02,0.03,-0.04,-0,1,0,0.05,0.06,93,,,,,,,,,,,,,,,,,,,,,,,,,,,,,,,,,,,,,,,,,,,,,,,,,,,,,,,,,,,,,,,,,,,,,,,,,,,,,,,,,,,,,,,,,,,,,,,,,,,,,,,,,,,,,,,,,,,
10224,0,0.1704,,,,,,,,,,,0,0,0,0,32,0,0,1,0,0,0,0,0,9,7,12,0,0,96,0,0,138,14,14,0,0,0,0,1,3,1,1,0,77,76,75,0,0,0,0,0,0,0,3,1,1,0,80,78,75,0,0,0,0,0,0,0,0,0,0,0,0,0,0,3,1,1,0,80,79,78,0,0,0,0,0,0,0,0,0,0,0,0,0,0,0,0,0,0,0,0,0,0,0,0,0,0,0,0,0,0.0,0.0,0.0,0.0,0,0,0.0,0,0.0,-1,0.0,,0,0.0,0.1704
10244,0,0.1707,,-0.02,0.03,-0.04,-0,1,-0,0.05,0.06,92,,,,,,,,,,,,,,,,,,,,,,,,,,,,,,,,,,,,,,,,,,,,,,,,,,,,,,,,,,,,,,,,,,,,,,,,,,,,,,,,,,,,,,,,,,,,,,,,,,,,,,,,,,,,,,,,,,,
10284,0,0.1714,,-0.02,0.03,-0.04,-0,1,0,0.05,0.06,93,,,,,,,,,,,,,,,,,,,,,,,,,,,,,,,,,,,,,,,,,,,,,,,,,,,,,,,,,,,,,,,,,,,,,,,,,,,,,,,,,,,,,,,,,,,,,,,,,,,,,,,,,,,,,,,,,,,
10324,0,0.1721,12.42,-0.02,0.03,-0.04,-0,1,0,0.05,0.06,92,0,0,0,0,32,0,0,1,0,0,0,0,0,9,7,12,0,0,96,0,0,138,14,14,0,0,0,0,1,3,1,1,0,77,76,75,0,0,0,0,0,0,0,3,1,1,0,80,78,75,0,0,0,0,0,0,0,0,0,0,0,0,0,0,3,1,1,0,80,79,78,0,0,0,0,0,0,0,0,0,0,0,0,0,0,0,0,0,0,0,0,0,0,0,0,0,0,0,0,0,0.0,0.0,0.0,0.0,0,0,0.0,0,0.0,-1,0.0,0.0,0,0.0,0.1721
10364,0,0.1727,,-0.02,0.03,-0.04,-0,1,0,0.05,0.06,90,,,,,,,,,,,,,,,,,,,,,,,,,,,,,,,,,,,,,,,,,,,,,,,,,,,,,,,,,,,,,,,,,,,,,,,,,,,,,,,,,,,,,,,,,,,,,,,,,,,,,,,,,,,,,,,,,,,
