"Interval"|"ms"|0|0|1,"Utc"|"ms"|0|0|1,"ElapsedTime"|"Min"|0.0|0.0|10,"Battery"|"Volts"|0.0|20.0|1,"AccelX"|"G"|-3.0|3.0|25,"AccelY"|"G"|-3.0|3.0|25,"AccelZ"|"G"|-3.0|3.0|25,"Yaw"|"Deg/Sec"|-120|120|25,"Pitch"|"Deg/Sec"|-120|120|25,"Roll"|"Deg/Sec"|-120|120|25,"Gsum"|"G"|0.0|3.0|25,"GsumMax"|"G"|0.0|3.0|25,"GsumPct"|"%"|0|100|25,"INV_Command"|""|-3277|3277|10,"VCU_INV_Inv"|""|0|1|10,"VCU_INV_Tor"|""|-3277|3277|10,"INV_Run_Fau"|""|0|65535|10,"INV_Post_Fa"|""|0|65535|10,"INV_Run_Fau"|""|0|65535|10,"INV_Post_Fa"|""|0|65535|10,"INV_Directi"|""|0|1|10,"INV_Inverte"|""|0|1|10,"INV_Relay_2"|""|0|1|10,"INV_Inverte"|""|0|1|10,"INV_Inverte"|""|0|1|10,"INV_Relay_1"|""|0|1|10,"INV_Inverte"|""|0|255|10,"INV_VSM_Sta"|""|0|15|10,"INV_PWM_Fre"|""|0|255|10,"INV_DC_BusV"|""|-3277|3277|10,"INV_DCBus_I"|""|-3277|3277|10,"INV_Delta_R"|""|-3277|3277|10,"INV_Motor_S"|""|-32768|32767|10,"INV_Torque_"|""|-3277|3277|10,"INV_Motor_T"|""|-3277|3277|10,"INV_Hot_Spo"|""|-3277|3277|10,"INV_Coolant"|""|-3277|3277|10,"INV_Fast_DC"|""|-3277|3277|10,"APPS1"|""|-32768|32767|10,"APPS2"|""|-32768|32767|10,"c_apps"|""|-32768|32767|10,"Faultcode"|""|0|4|10,"Multiplexor"|""|0|0|10,"BMS_1_1_Vol"|""|0|10|10,"BMS_1_1_Vol"|""|0|10|10,"BMS_1_1_Vol"|""|0|10|10,"BMS_1_1_Tem"|""|0|200|10,"BMS_1_1_Tem"|""|0|200|10,"BMS_1_1_Tem"|""|0|200|10,"Multiplexor"|""|0|0|10,"BMS_1_2_Vol"|""|0|10|10,"BMS_1_2_Vol"|""|0|10|10,"BMS_1_2_Vol"|""|0|10|10,"BMS_1_2_Tem"|""|0|200|10,"BMS_1_2_Tem"|""|0|200|10,"BMS_1_2_Tem"|""|0|200|10,"Multiplexor"|""|0|0|10,"BMS_2_1_Vol"|""|0|10|10,"BMS_2_1_Vol"|""|0|10|10,"BMS_2_1_Vol"|""|0|10|10,"BMS_2_1_Tem"|""|0|200|10,"BMS_2_1_Tem"|""|0|200|10,"BMS_2_1_Tem"|""|0|200|10,"Multiplexor"|""|0|0|10,"BMS_2_2_Vol"|""|0|10|10,"BMS_2_2_Vol"|""|0|10|10,"BMS_2_2_Vol"|""|0|10|10,"BMS_2_2_Tem"|""|0|200|10,"BMS_2_2_Tem"|""|0|200|10,"BMS_2_2_Tem"|""|0|200|10,"Multiplexor"|""|0|0|10,"BMS_3_1_Vol"|""|0|10|10,"BMS_3_1_Vol"|""|0|10|10,"BMS_3_1_Vol"|""|0|10|10,"BMS_3_1_Tem"|""|0|200|10,"BMS_3_1_Tem"|""|0|200|10,"BMS_3_1_Tem"|""|0|200|10,"Multiplexor"|""|0|0|10,"BMS_3_2_Vol"|""|0|10|10,"BMS_3_2_Vol"|""|0|10|10,"BMS_3_2_Vol"|""|0|10|10,"BMS_3_2_Tem"|""|0|200|10,"BMS_3_2_Tem"|""|0|200|10,"BMS_3_2_Tem"|""|0|200|10,"Multiplexor"|""|0|0|10,"BMS_4_1_Vol"|""|0|10|10,"BMS_4_1_Vol"|""|0|10|10,"BMS_4_1_Vol"|""|0|10|10,"BMS_4_1_Tem"|""|0|200|10,"BMS_4_1_Tem"|""|0|200|10,"BMS_4_1_Tem"|""|0|200|10,"Multiplexor"|""|0|0|10,"BMS_4_2_Vol"|""|0|10|10,"BMS_4_2_Vol"|""|0|10|10,"BMS_4_2_Vol"|""|0|10|10,"BMS_4_2_Tem"|""|0|200|10,"BMS_4_2_Tem"|""|0|200|10,"BMS_4_2_Tem"|""|0|200|10,"HS_MaxVolta"|""|0|655|10,"HS_MinVolta"|""|0|655|10,"HS_AverageV"|""|0|655|10,"HS_MaxTemp"|""|0|6553|10,"HS_MinTemp"|""|0|6553|10,"HS_AverageT"|""|0|6553|10,"HS_MaxTemp"|""|0|6553|10,"HS_MinTemp"|""|0|6553|10,"HS_AverageT"|""|0|6553|10,"HS_MaxTemp"|""|0|6553|10,"HS_MinTemp"|""|0|6553|10,"HS_AverageT"|""|0|6553|10,"HS_MaxTemp"|""|0|6553|10,"HS_MinTemp"|""|0|6553|10,"HS_AverageT"|""|0|6553|10,"Latitude"|"Degrees"|-180.0|180.0|10,"Longitude"|"Degrees"|-180.0|180.0|10,"Speed"|"mph"|0.0|150.0|10,"Altitude"|"ft"|0.0|4000.0|10,"GPSSats"|""|0|20|10,"GPSQual"|""|0|5|10,"GPSDOP"|""|0.0|20.0|10,"LapCount"|""|0|0|10,"LapTime"|"Min"|0.0|0.0|10,"Sector"|""|0|0|10,"SectorTime"|"Min"|0.0|0.0|10,"PredTime"|"Min"|0.0|0.0|5,"CurrentLap"|""|0|0|10,"Distance"|"mi"|0.0|0.0|10,"SessionTime"|"Min"|0.0|0.0|10
1331,0,0.0222,,-0.01,0.03,-0.04,-0,1,-0,0.05,0.05,98,,,,,,,,,,,,,,,,,,,,,,,,,,,,,,,,,,,,,,,,,,,,,,,,,,,,,,,,,,,,,,,,,,,,,,,,,,,,,,,,,,,,,,,,,,,,,,,,,,,,,,,,,,,,,,,,,,,
1371,0,0.0228,,-0.01,0.03,-0.04,-0,1,-0,0.05,0.05,97,,,,,,,,,,,,,,,,,,,,,,,,,,,,,,,,,,,,,,,,,,,,,,,,,,,,,,,,,,,,,,,,,,,,,,,,,,,,,,,,,,,,,,,,,,,,,,,,,,,,,,,,,,,,,,,,,,,
1391,0,0.0232,,,,,,,,,,,0,0,0,0,32,0,0,1,0,0,0,0,0,9,7,12,0,0,96,0,0,138,21,21,0,0,0,0,1,0,0,0,0,0,0,0,0,0,0,0,0,0,0,3,1,1,0,78,77,73,0,0,0,0,0,0,0,0,0,0,0,0,0,0,0,3,3,3,1,349,349,0,0,0,0,0,0,0,0,0,0,0,0,0,0,0,0,0,0,0,0,0,0,0,0,0,0,0,0,0,0.0,0.0,0.0,0.0,0,0,0.0,0,0.0,-1,0.0,,0,0.0,0.0232
1411,0,0.0235,,-0.01,0.03,-0.04,-0,1,-0,0.05,0.05,97,,,,,,,,,,,,,,,,,,,,,,,,,,,,,,,,,,,,,,,,,,,,,,,,,,,,,,,,,,,,,,,,,,,,,,,,,,,,,,,,,,,,,,,,,,,,,,,,,,,,,,,,,,,,,,,,,,,
1451,0,0.0242,,-0.01,0.03,-0.04,-0,1,-0,0.05,0.05,96,,,,,,,,,,,,,,,,,,,,,,,,,,,,,,,,,,,,,,,,,,,,,,,,,,,,,,,,,,,,,,,,,,,,,,,,,,,,,,,,,,,,,,,,,,,,,,,,,,,,,,,,,,,,,,,,,,,
1491,0,0.0248,,-0.01,0.03,-0.04,-0,1,-0,0.05,0.05,97,0,0,0,0,32,0,0,1,0,0,0,0,0,9,7,12,0,0,96,0,0,138,21,21,0,0,0,0,1,0,0,0,0,0,0,0,0,0,0,0,0,0,0,3,1,1,0,78,77,73,0,0,0,0,0,0,0,0,0,0,0,0,0,0,0,3,3,3,1,349,349,0,0,0,0,0,0,0,0,0,0,0,0,0,0,0,0,0,0,0,0,0,0,0,0,0,0,0,0,0,0.0,0.0,0.0,0.0,0,0,0.0,0,0.0,-1,0.0,0.0,0,0.0,0.0248
1531,0,0.0255,,-0.01,0.03,-0.04,-0,1,-0,0.05,0.05,97,,,,,,,,,,,,,,,,,,,,,,,,,,,,,,,,,,,,,,,,,,,,,,,,,,,,,,,,,,,,,,,,,,,,,,,,,,,,,,,,,,,,,,,,,,,,,,,,,,,,,,,,,,,,,,,,,,,
1571,0,0.0262,,-0.01,0.03,-0.04,-0,1,-0,0.05,0.05,97,,,,,,,,,,,,,,,,,,,,,,,,,,,,,,,,,,,,,,,,,,,,,,,,,,,,,,,,,,,,,,,,,,,,,,,,,,,,,,,,,,,,,,,,,,,,,,,,,,,,,,,,,,,,,,,,,,,
1591,0,0.0265,,,,,,,,,,,0,0,0,0,32,0,0,1,0,0,0,0,0,9,7,12,0,0,96,0,0,138,21,21,0,0,0,0,1,0,0,0,0,0,0,0,0,0,0,0,0,0,0,3,1,1,0,78,77,73,0,0,0,0,0,0,0,0,0,0,0,0,0,0,0,3,3,3,1,349,349,0,0,0,0,0,0,0,0,0,0,0,0,0,0,0,0,0,0,0,0,0,0,0,0,0,0,0,0,0,0.0,0.0,0.0,0.0,0,0,0.0,0,0.0,-1,0.0,,0,0.0,0.0265
1611,0,0.0268,,-0.01,0.03,-0.04,-0,0,-0,0.05,0.05,97,,,,,,,,,,,,,,,,,,,,,,,,,,,,,,,,,,,,,,,,,,,,,,,,,,,,,,,,,,,,,,,,,,,,,,,,,,,,,,,,,,,,,,,,,,,,,,,,,,,,,,,,,,,,,,,,,,,
1651,0,0.0275,,-0.01,0.03,-0.04,-0,1,0,0.05,0.05,96,,,,,,,,,,,,,,,,,,,,,,,,,,,,,,,,,,,,,,,,,,,,,,,,,,,,,,,,,,,,,,,,,,,,,,,,,,,,,,,,,,,,,,,,,,,,,,,,,,,,,,,,,,,,,,,,,,,
1691,0,0.0282,,-0.01,0.03,-0.04,-0,1,-0,0.05,0.05,96,0,0,0,0,32,0,0,1,0,0,0,0,0,9,7,12,0,0,96,0,0,138,21,21,0,0,0,0,1,0,0,0,0,0,0,0,0,0,0,0,0,0,0,3,1,1,0,78,77,73,0,0,0,0,0,0,0,0,0,0,0,0,0,0,0,3,3,3,1,349,349,0,0,0,0,0,0,0,0,0,0,0,0,0,0,0,0,0,0,0,0,0,0,0,0,0,0,0,0,0,0.0,0.0,0.0,0.0,0,0,0.0,0,0.0,-1,0.0,0.0,0,0.0,0.0282
1731,0,0.0288,,-0.01,0.03,-0.04,-0,1,0,0.05,0.05,96,,,,,,,,,,,,,,,,,,,,,,,,,,,,,,,,,,,,,,,,,,,,,,,,,,,,,,,,,,,,,,,,,,,,,,,,,,,,,,,,,,,,,,,,,,,,,,,,,,,,,,,,,,,,,,,,,,,
1771,0,0.0295,,-0.01,0.03,-0.04,-0,1,-0,0.05,0.05,95,,,,,,,,,,,,,,,,,,,,,,,,,,,,,,,,,,,,,,,,,,,,,,,,,,,,,,,,,,,,,,,,,,,,,,,,,,,,,,,,,,,,,,,,,,,,,,,,,,,,,,,,,,,,,,,,,,,
1791,0,0.0298,,,,,,,,,,,0,0,0,0,32,0,0,1,0,0,0,0,0,9,7,12,0,0,96,0,0,138,21,21,0,0,0,0,1,0,0,0,0,0,0,0,0,0,0,0,0,0,0,3,1,1,0,78,77,73,0,0,0,0,0,0,0,0,0,0,0,0,0,0,0,3,3,3,1,349,349,0,0,0,0,0,0,0,0,0,0,0,0,0,0,0,0,0,0,0,0,0,0,0,0,0,0,0,0,0,0.0,0.0,0.0,0.0,0,0,0.0,0,0.0,-1,0.0,,0,0.0,0.0298
1811,0,0.0302,,-0.01,0.03,-0.04,-0,1,-0,0.05,0.05,95,,,,,,,,,,,,,,,,,,,,,,,,,,,,,,,,,,,,,,,,,,,,,,,,,,,,,,,,,,,,,,,,,,,,,,,,,,,,,,,,,,,,,,,,,,,,,,,,,,,,,,,,,,,,,,,,,,,
1851,0,0.0308,,-0.01,0.03,-0.04,-0,0,-0,0.05,0.05,94,,,,,,,,,,,,,,,,,,,,,,,,,,,,,,,,,,,,,,,,,,,,,,,,,,,,,,,,,,,,,,,,,,,,,,,,,,,,,,,,,,,,,,,,,,,,,,,,,,,,,,,,,,,,,,,,,,,
1891,0,0.0315,,-0.01,0.03,-0.04,-0,0,-0,0.05,0.05,95,0,0,0,0,32,0,0,1,0,0,0,0,0,9,7,12,0,0,96,0,0,138,21,21,0,0,0,0,1,0,0,0,0,0,0,0,0,0,0,0,0,0,0,3,1,1,0,78,77,73,0,0,0,0,0,0,0,0,0,0,0,0,0,0,0,3,3,3,1,349,349,0,0,0,0,0,0,0,0,0,0,0,0,0,0,0,0,0,0,0,0,0,0,0,0,0,0,0,0,0,0.0,0.0,0.0,0.0,0,0,0.0,0,0.0,-1,0.0,0.0,0,0.0,0.0315
1931,0,0.0322,,-0.01,0.03,-0.04,-0,1,-0,0.05,0.05,95,,,,,,,,,,,,,,,,,,,,,,,,,,,,,,,,,,,,,,,,,,,,,,,,,,,,,,,,,,,,,,,,,,,,,,,,,,,,,,,,,,,,,,,,,,,,,,,,,,,,,,,,,,,,,,,,,,,
1971,0,0.0328,,-0.01,0.03,-0.04,-0,1,-0,0.05,0.05,97,,,,,,,,,,,,,,,,,,,,,,,,,,,,,,,,,,,,,,,,,,,,,,,,,,,,,,,,,,,,,,,,,,,,,,,,,,,,,,,,,,,,,,,,,,,,,,,,,,,,,,,,,,,,,,,,,,,
1991,0,0.0332,,,,,,,,,,,0,0,0,0,32,0,0,1,0,0,0,0,0,9,7,12,0,0,96,0,0,138,21,21,0,0,0,0,1,0,0,0,0,0,0,0,0,0,0,0,0,0,0,3,1,1,0,78,77,73,0,0,0,0,0,0,0,0,0,0,0,0,0,0,0,3,3,3,1,349,349,0,0,0,0,0,0,0,0,0,0,0,0,0,0,0,0,0,0,0,0,0,0,0,0,0,0,0,0,0,0.0,0.0,0.0,0.0,0,0,0.0,0,0.0,-1,0.0,,0,0.0,0.0332
2011,0,0.0335,,-0.01,0.03,-0.04,-0,1,-0,0.05,0.05,96,,,,,,,,,,,,,,,,,,,,,,,,,,,,,,,,,,,,,,,,,,,,,,,,,,,,,,,,,,,,,,,,,,,,,,,,,,,,,,,,,,,,,,,,,,,,,,,,,,,,,,,,,,,,,,,,,,,
2051,0,0.0342,,-0.01,0.03,-0.04,-0,1,-0,0.05,0.05,95,,,,,,,,,,,,,,,,,,,,,,,,,,,,,,,,,,,,,,,,,,,,,,,,,,,,,,,,,,,,,,,,,,,,,,,,,,,,,,,,,,,,,,,,,,,,,,,,,,,,,,,,,,,,,,,,,,,
2091,0,0.0348,12.57,-0.01,0.03,-0.04,-0,1,-0,0.05,0.05,96,0,0,0,0,32,0,0,1,0,0,0,0,0,9,7,12,0,0,96,0,0,138,21,21,0,0,0,0,1,0,0,0,0,0,0,0,0,0,0,0,0,0,0,3,1,1,0,78,77,73,0,0,0,0,0,0,0,0,0,0,0,0,0,0,3,1,1,0,78,78,77,0,0,0,0,0,0,0,0,0,0,0,0,0,0,0,0,0,0,0,0,0,0,0,0,0,0,0,0,0,0.0,0.0,0.0,0.0,0,0,0.0,0,0.0,-1,0.0,0.0,0,0.0,0.0348
2131,0,0.0355,,-0.01,0.03,-0.04,-0,1,-0,0.05,0.05,96,,,,,,,,,,,,,,,,,,,,,,,,,,,,,,,,,,,,,,,,,,,,,,,,,,,,,,,,,,,,,,,,,,,,,,,,,,,,,,,,,,,,,,,,,,,,,,,,,,,,,,,,,,,,,,,,,,,
2171,0,0.0362,,-0.01,0.03,-0.04,-0,1,-0,0.05,0.05,98,,,,,,,,,,,,,,,,,,,,,,,,,,,,,,,,,,,,,,,,,,,,,,,,,,,,,,,,,,,,,,,,,,,,,,,,,,,,,,,,,,,,,,,,,,,,,,,,,,,,,,,,,,,,,,,,,,,
2191,0,0.0365,,,,,,,,,,,0,0,0,0,32,0,0,1,0,0,0,0,0,9,7,12,0,0,96,0,0,138,21,21,0,0,0,0,1,0,0,0,0,0,0,0,0,0,0,0,0,0,0,3,1,1,0,78,77,73,0,0,0,0,0,0,0,0,0,0,0,0,0,0,3,1,1,0,78,78,77,0,0,0,0,0,0,0,0,0,0,0,0,0,0,0,0,0,0,0,0,0,0,0,0,0,0,0,0,0,0.0,0.0,0.0,0.0,0,0,0.0,0,0.0,-1,0.0,,0,0.0,0.0365
2211,0,0.0369,,-0.01,0.03,-0.04,-0,1,-0,0.05,0.05,97,,,,,,,,,,,,,,,,,,,,,,,,,,,,,,,,,,,,,,,,,,,,,,,,,,,,,,,,,,,,,,,,,,,,,,,,,,,,,,,,,,,,,,,,,,,,,,,,,,,,,,,,,,,,,,,,,,,
2251,0,0.0375,,-0.01,0.03,-0.04,-0,0,-0,0.05,0.05,97,,,,,,,,,,,,,,,,,,,,,,,,,,,,,,,,,,,,,,,,,,,,,,,,,,,,,,,,,,,,,,,,,,,,,,,,,,,,,,,,,,,,,,,,,,,,,,,,,,,,,,,,,,,,,,,,,,,
2291,0,0.0382,,-0.01,0.03,-0.04,-0,1,-0,0.05,0.05,97,0,0,0,0,32,0,0,1,0,0,0,0,0,9,7,12,0,0,96,0,0,138,21,21,0,0,0,0,1,0,0,0,0,0,0,0,0,0,0,0,0,0,0,3,1,1,0,78,77,73,0,0,0,0,0,0,0,0,0,0,0,0,0,0,3,1,1,0,78,78,77,0,0,0,0,0,0,0,0,0,0,0,0,0,0,0,0,0,0,0,0,0,0,0,0,0,0,0,0,0,0.0,0.0,0.0,0.0,0,0,0.0,0,0.0,-1,0.0,0.0,0,0.0,0.0382
2331,0,0.0388,,-0.01,0.03,-0.04,-0,1,-0,0.05,0.05,96,,,,,,,,,,,,,,,,,,,,,,,,,,,,,,,,,,,,,,,,,,,,,,,,,,,,,,,,,,,,,,,,,,,,,,,,,,,,,,,,,,,,,,,,,,,,,,,,,,,,,,,,,,,,,,,,,,,
2371,0,0.0395,,-0.01,0.03,-0.04,-0,1,-0,0.05,0.05,96,,,,,,,,,,,,,,,,,,,,,,,,,,,,,,,,,,,,,,,,,,,,,,,,,,,,,,,,,,,,,,,,,,,,,,,,,,,,,,,,,,,,,,,,,,,,,,,,,,,,,,,,,,,,,,,,,,,
2391,0,0.0398,,,,,,,,,,,0,0,0,0,32,0,0,1,0,0,0,0,0,9,7,12,0,0,96,0,0,138,21,21,0,0,0,0,1,0,0,0,0,0,0,0,0,0,0,0,0,0,0,3,1,1,0,78,77,73,0,0,0,0,0,0,0,0,0,0,0,0,0,0,3,1,1,0,78,78,77,0,0,0,0,0,0,0,0,0,0,0,0,0,0,0,0,0,0,0,0,0,0,0,0,0,0,0,0,0,0.0,0.0,0.0,0.0,0,0,0.0,0,0.0,-1,0.0,,0,0.0,0.0398
2411,0,0.0402,,-0.01,0.03,-0.04,-0,1,-0,0.05,0.05,96,,,,,,,,,,,,,,,,,,,,,,,,,,,,,,,,,,,,,,,,,,,,,,,,,,,,,,,,,,,,,,,,,,,,,,,,,,,,,,,,,,,,,,,,,,,,,,,,,,,,,,,,,,,,,,,,,,,
2451,0,0.0408,,-0.01,0.03,-0.04,-0,1,-0,0.05,0.05,96,,,,,,,,,,,,,,,,,,,,,,,,,,,,,,,,,,,,,,,,,,,,,,,,,,,,,,,,,,,,,,,,,,,,,,,,,,,,,,,,,,,,,,,,,,,,,,,,,,,,,,,,,,,,,,,,,,,
2491,0,0.0415,,-0.01,0.03,-0.04,-0,1,-0,0.05,0.05,96,0,0,0,0,32,0,0,1,0,0,0,0,0,9,7,12,0,0,96,0,0,138,21,21,0,0,0,0,1,0,0,0,0,0,0,0,0,0,0,0,0,0,0,3,1,1,0,78,77,73,0,0,0,0,0,0,0,0,0,0,0,0,0,0,3,1,1,0,78,78,77,0,0,0,0,0,0,0,0,0,0,0,0,0,0,0,0,0,0,0,0,0,0,0,0,0,0,0,0,0,0.0,0.0,0.0,0.0,0,0,0.0,0,0.0,-1,0.0,0.0,0,0.0,0.0415
2531,0,0.0422,,-0.01,0.03,-0.04,-0,1,-0,0.05,0.05,97,,,,,,,,,,,,,,,,,,,,,,,,,,,,,,,,,,,,,,,,,,,,,,,,,,,,,,,,,,,,,,,,,,,,,,,,,,,,,,,,,,,,,,,,,,,,,,,,,,,,,,,,,,,,,,,,,,,
2571,0,0.0428,,-0.01,0.03,-0.04,-0,1,-0,0.05,0.05,98,,,,,,,,,,,,,,,,,,,,,,,,,,,,,,,,,,,,,,,,,,,,,,,,,,,,,,,,,,,,,,,,,,,,,,,,,,,,,,,,,,,,,,,,,,,,,,,,,,,,,,,,,,,,,,,,,,,
2591,0,0.0432,,,,,,,,,,,0,0,0,0,32,0,0,1,0,0,0,0,0,9,7,12,0,0,96,0,0,138,21,21,0,0,0,0,1,0,0,0,0,0,0,0,0,0,0,0,0,0,0,3,1,1,0,78,77,73,0,0,0,0,0,0,0,0,0,0,0,0,0,0,3,1,1,0,78,78,77,0,0,0,0,0,0,0,0,0,0,0,0,0,0,0,0,0,0,0,0,0,0,0,0,0,0,0,0,0,0.0,0.0,0.0,0.0,0,0,0.0,0,0.0,-1,0.0,,0,0.0,0.0432
2611,0,0.0435,,-0.01,0.03,-0.04,-0,1,-0,0.05,0.05,99,,,,,,,,,,,,,,,,,,,,,,,,,,,,,,,,,,,,,,,,,,,,,,,,,,,,,,,,,,,,,,,,,,,,,,,,,,,,,,,,,,,,,,,,,,,,,,,,,,,,,,,,,,,,,,,,,,,
2651,0,0.0442,,-0.01,0.03,-0.04,-0,1,-0,0.05,0.05,97,,,,,,,,,,,,,,,,,,,,,,,,,,,,,,,,,,,,,,,,,,,,,,,,,,,,,,,,,,,,,,,,,,,,,,,,,,,,,,,,,,,,,,,,,,,,,,,,,,,,,,,,,,,,,,,,,,,
2691,0,0.0448,,-0.01,0.03,-0.04,-0,1,-0,0.05,0.05,97,0,0,0,0,32,0,0,1,0,0,0,0,0,9,7,12,0,0,96,0,0,138,21,21,0,0,0,0,1,3,1,1,0,77,75,73,0,0,0,0,0,0,0,3,1,1,0,78,77,73,0,0,0,0,0,0,0,0,0,0,0,0,0,0,3,1,1,0,78,78,77,0,0,0,0,0,0,0,0,0,0,0,0,0,0,0,0,0,0,0,0,0,0,0,0,0,0,0,0,0,0.0,0.0,0.0,0.0,0,0,0.0,0,0.0,-1,0.0,0.0,0,0.0,0.0448
2731,0,0.0455,,-0.01,0.03,-0.04,-0,1,-0,0.05,0.05,97,,,,,,,,,,,,,,,,,,,,,,,,,,,,,,,,,,,,,,,,,,,,,,,,,,,,,,,,,,,,,,,,,,,,,,,,,,,,,,,,,,,,,,,,,,,,,,,,,,,,,,,,,,,,,,,,,,,
2771,0,0.0462,,-0.01,0.03,-0.04,-0,1,-0,0.05,0.05,97,,,,,,,,,,,,,,,,,,,,,,,,,,,,,,,,,,,,,,,,,,,,,,,,,,,,,,,,,,,,,,,,,,,,,,,,,,,,,,,,,,,,,,,,,,,,,,,,,,,,,,,,,,,,,,,,,,,
2791,0,0.0465,,,,,,,,,,,0,0,0,0,32,0,0,1,0,0,0,0,0,9,7,12,0,0,96,0,0,138,21,21,0,0,0,0,1,3,1,1,0,77,75,73,0,0,0,0,0,0,0,3,1,1,0,78,77,73,0,0,0,0,0,0,0,0,0,0,0,0,0,0,3,1,1,0,78,78,77,0,0,0,0,0,0,0,0,0,0,0,0,0,0,0,0,0,0,0,0,0,0,0,0,0,0,0,0,0,0.0,0.0,0.0,0.0,0,0,0.0,0,0.0,-1,0.0,,0,0.0,0.0465
2811,0,0.0468,,-0.01,0.03,-0.04,-0,1,-0,0.05,0.05,98,,,,,,,,,,,,,,,,,,,,,,,,,,,,,,,,,,,,,,,,,,,,,,,,,,,,,,,,,,,,,,,,,,,,,,,,,,,,,,,,,,,,,,,,,,,,,,,,,,,,,,,,,,,,,,,,,,,
2851,0,0.0475,,-0.01,0.03,-0.04,-0,1,-0,0.05,0.05,98,,,,,,,,,,,,,,,,,,,,,,,,,,,,,,,,,,,,,,,,,,,,,,,,,,,,,,,,,,,,,,,,,,,,,,,,,,,,,,,,,,,,,,,,,,,,,,,,,,,,,,,,,,,,,,,,,,,
2891,0,0.0482,,-0.01,0.03,-0.04,-0,1,-0,0.05,0.05,97,0,0,0,0,32,0,0,1,0,0,0,0,0,9,7,12,0,0,96,0,0,138,21,21,0,0,0,0,1,3,1,1,0,77,75,73,0,0,0,0,0,0,0,0,3,3,3,0,347,347,0,0,0,0,0,0,0,0,0,0,0,0,0,0,3,1,1,0,78,78,77,0,0,0,0,0,0,0,0,0,0,0,0,0,0,0,0,0,0,0,0,0,0,0,0,0,0,0,0,0,0.0,0.0,0.0,0.0,0,0,0.0,0,0.0,-1,0.0,0.0,0,0.0,0.0482
2931,0,0.0488,,-0.01,0.03,-0.04,-0,1,-0,0.05,0.05,97,,,,,,,,,,,,,,,,,,,,,,,,,,,,,,,,,,,,,,,,,,,,,,,,,,,,,,,,,,,,,,,,,,,,,,,,,,,,,,,,,,,,,,,,,,,,,,,,,,,,,,,,,,,,,,,,,,,
2971,0,0.0495,,-0.01,0.03,-0.04,-0,1,-0,0.05,0.05,97,,,,,,,,,,,,,,,,,,,,,,,,,,,,,,,,,,,,,,,,,,,,,,,,,,,,,,,,,,,,,,,,,,,,,,,,,,,,,,,,,,,,,,,,,,,,,,,,,,,,,,,,,,,,,,,,,,,
2991,0,0.0498,,,,,,,,,,,0,0,0,0,32,0,0,1,0,0,0,0,0,9,7,12,0,0,96,0,0,138,21,21,0,0,0,0,1,3,1,1,0,77,75,73,0,0,0,0,0,0,0,0,3,3,3,0,347,347,0,0,0,0,0,0,0,0,0,0,0,0,0,0,3,1,1,0,78,78,77,0,0,0,0,0,0,0,0,0,0,0,0,0,0,0,0,0,0,0,0,0,0,0,0,0,0,0,0,0,0.0,0.0,0.0,0.0,0,0,0.0,0,0.0,-1,0.0,,0,0.0,0.0498
3011,0,0.0502,,-0.01,0.03,-0.04,-0,1,-0,0.05,0.05,96,,,,,,,,,,,,,,,,,,,,,,,,,,,,,,,,,,,,,,,,,,,,,,,,,,,,,,,,,,,,,,,,,,,,,,,,,,,,,,,,,,,,,,,,,,,,,,,,,,,,,,,,,,,,,,,,,,,
3051,0,0.0508,,-0.01,0.03,-0.04,-0,1,-0,0.05,0.05,96,,,,,,,,,,,,,,,,,,,,,,,,,,,,,,,,,,,,,,,,,,,,,,,,,,,,,,,,,,,,,,,,,,,,,,,,,,,,,,,,,,,,,,,,,,,,,,,,,,,,,,,,,,,,,,,,,,,
3091,0,0.0515,12.54,-0.01,0.03,-0.04,-0,1,-0,0.05,0.05,96,0,0,0,0,32,0,0,1,0,0,0,0,0,9,7,12,0,0,96,0,0,138,21,21,0,0,0,0,1,3,1,1,0,77,75,73,0,0,0,0,0,0,0,0,3,3,3,0,347,347,0,0,0,0,0,0,0,0,0,0,0,0,0,0,3,1,1,0,78,78,77,0,0,0,0,0,0,0,0,0,0,0,0,0,0,0,0,0,0,0,0,0,0,0,0,0,0,0,0,0,0.0,0.0,0.0,0.0,0,0,0.0,0,0.0,-1,0.0,0.0,0,0.0,0.0515
3131,0,0.0522,,-0.01,0.03,-0.04,-0,1,-0,0.05,0.05,97,,,,,,,,,,,,,,,,,,,,,,,,,,,,,,,,,,,,,,,,,,,,,,,,,,,,,,,,,,,,,,,,,,,,,,,,,,,,,,,,,,,,,,,,,,,,,,,,,,,,,,,,,,,,,,,,,,,
3171,0,0.0528,,-0.01,0.03,-0.04,-0,1,-0,0.05,0.05,98,,,,,,,,,,,,,,,,,,,,,,,,,,,,,,,,,,,,,,,,,,,,,,,,,,,,,,,,,,,,,,,,,,,,,,,,,,,,,,,,,,,,,,,,,,,,,,,,,,,,,,,,,,,,,,,,,,,
3191,0,0.0532,,,,,,,,,,,0,0,0,0,32,0,0,1,0,0,0,0,0,9,7,12,0,0,96,0,0,138,21,21,0,0,0,0,1,3,1,1,0,77,75,73,0,0,0,0,0,0,0,0,3,3,3,0,347,347,0,0,0,0,0,0,0,0,0,0,0,0,0,0,3,1,1,0,78,78,77,0,0,0,0,0,0,0,0,0,0,0,0,0,0,0,0,0,0,0,0,0,0,0,0,0,0,0,0,0,0.0,0.0,0.0,0.0,0,0,0.0,0,0.0,-1,0.0,,0,0.0,0.0532
3211,0,0.0535,,-0.01,0.03,-0.04,-0,1,-0,0.05,0.05,98,,,,,,,,,,,,,,,,,,,,,,,,,,,,,,,,,,,,,,,,,,,,,,,,,,,,,,,,,,,,,,,,,,,,,,,,,,,,,,,,,,,,,,,,,,,,,,,,,,,,,,,,,,,,,,,,,,,
3251,0,0.0542,,-0.01,0.03,-0.04,-0,1,-0,0.05,0.05,98,,,,,,,,,,,,,,,,,,,,,,,,,,,,,,,,,,,,,,,,,,,,,,,,,,,,,,,,,,,,,,,,,,,,,,,,,,,,,,,,,,,,,,,,,,,,,,,,,,,,,,,,,,,,,,,,,,,
3291,0,0.0548,,-0.01,0.03,-0.04,-0,1,-0,0.05,0.05,97,0,0,0,0,32,0,0,1,0,0,0,0,0,9,7,12,0,0,96,0,0,138,21,21,0,0,0,0,1,3,1,1,0,77,75,73,0,0,0,0,0,0,0,0,3,3,3,0,347,347,0,0,0,0,0,0,0,0,0,0,0,0,0,0,3,1,1,0,78,78,77,0,0,0,0,0,0,0,0,0,0,0,0,0,0,0,0,0,0,0,0,0,0,0,0,0,0,0,0,0,0.0,0.0,0.0,0.0,0,0,0.0,0,0.0,-1,0.0,0.0,0,0.0,0.0548
3331,0,0.0555,,-0.01,0.03,-0.04,-0,1,-0,0.05,0.05,98,,,,,,,,,,,,,,,,,,,,,,,,,,,,,,,,,,,,,,,,,,,,,,,,,,,,,,,,,,,,,,,,,,,,,,,,,,,,,,,,,,,,,,,,,,,,,,,,,,,,,,,,,,,,,,,,,,,
3371,0,0.0562,,-0.01,0.03,-0.04,-0,1,-0,0.05,0.05,97,,,,,,,,,,,,,,,,,,,,,,,,,,,,,,,,,,,,,,,,,,,,,,,,,,,,,,,,,,,,,,,,,,,,,,,,,,,,,,,,,,,,,,,,,,,,,,,,,,,,,,,,,,,,,,,,,,,
3391,0,0.0565,,,,,,,,,,,0,0,0,0,32,0,0,1,0,0,0,0,0,9,7,12,0,0,96,0,0,138,21,21,0,0,0,0,1,3,1,1,0,77,75,73,0,0,0,0,0,0,0,0,3,3,3,0,347,347,0,0,0,0,0,0,0,0,0,0,0,0,0,0,3,1,1,0,78,78,77,0,0,0,0,0,0,0,0,0,0,0,0,0,0,0,0,0,0,0,0,0,0,0,0,0,0,0,0,0,0.0,0.0,0.0,0.0,0,0,0.0,0,0.0,-1,0.0,,0,0.0,0.0565
3411,0,0.0568,,-0.01,0.03,-0.04,-0,0,-0,0.05,0.05,97,,,,,,,,,,,,,,,,,,,,,,,,,,,,,,,,,,,,,,,,,,,,,,,,,,,,,,,,,,,,,,,,,,,,,,,,,,,,,,,,,,,,,,,,,,,,,,,,,,,,,,,,,,,,,,,,,,,
3451,0,0.0575,,-0.01,0.03,-0.04,-0,1,-0,0.05,0.05,97,,,,,,,,,,,,,,,,,,,,,,,,,,,,,,,,,,,,,,,,,,,,,,,,,,,,,,,,,,,,,,,,,,,,,,,,,,,,,,,,,,,,,,,,,,,,,,,,,,,,,,,,,,,,,,,,,,,
3491,0,0.0582,,-0.01,0.03,-0.04,-0,1,-0,0.05,0.05,99,0,0,0,0,32,0,0,1,0,0,0,0,0,9,7,12,0,0,96,0,0,138,21,21,0,0,0,0,1,3,1,1,0,77,75,73,0,0,0,0,0,0,0,0,3,3,3,0,347,347,0,0,0,0,0,0,0,0,0,0,0,0,0,0,3,1,1,0,78,78,77,0,0,0,0,0,0,0,0,0,0,0,0,0,0,0,0,0,0,0,0,0,0,0,0,0,0,0,0,0,0.0,0.0,0.0,0.0,0,0,0.0,0,0.0,-1,0.0,0.0,0,0.0,0.0582
3531,0,0.0588,,-0.01,0.03,-0.04,-0,1,-0,0.05,0.05,98,,,,,,,,,,,,,,,,,,,,,,,,,,,,,,,,,,,,,,,,,,,,,,,,,,,,,,,,,,,,,,,,,,,,,,,,,,,,,,,,,,,,,,,,,,,,,,,,,,,,,,,,,,,,,,,,,,,
3571,0,0.0595,,-0.01,0.03,-0.04,-0,1,-0,0.05,0.05,96,,,,,,,,,,,,,,,,,,,,,,,,,,,,,,,,,,,,,,,,,,,,,,,,,,,,,,,,,,,,,,,,,,,,,,,,,,,,,,,,,,,,,,,,,,,,,,,,,,,,,,,,,,,,,,,,,,,
3591,0,0.0598,,,,,,,,,,,0,0,0,0,32,0,0,1,0,0,0,0,0,9,7,12,0,0,96,0,0,138,21,21,0,0,0,0,1,3,1,1,0,77,75,73,0,0,0,0,0,0,0,0,3,3,3,0,347,347,0,0,0,0,0,0,0,0,0,0,0,0,0,0,3,1,1,0,78,78,77,0,0,0,0,0,0,0,0,0,0,0,0,0,0,0,0,0,0,0,0,0,0,0,0,0,0,0,0,0,0.0,0.0,0.0,0.0,0,0,0.0,0,0.0,-1,0.0,,0,0.0,0.0598
3611,0,0.0602,,-0.01,0.03,-0.04,-0,1,-0,0.05,0.05,95,,,,,,,,,,,,,,,,,,,,,,,,,,,,,,,,,,,,,,,,,,,,,,,,,,,,,,,,,,,,,,,,,,,,,,,,,,,,,,,,,,,,,,,,,,,,,,,,,,,,,,,,,,,,,,,,,,,
3651,0,0.0608,,-0.01,0.03,-0.04,-0,1,0,0.05,0.05,95,,,,,,,,,,,,,,,,,,,,,,,,,,,,,,,,,,,,,,,,,,,,,,,,,,,,,,,,,,,,,,,,,,,,,,,,,,,,,,,,,,,,,,,,,,,,,,,,,,,,,,,,,,,,,,,,,,,
3691,0,0.0615,,-0.01,0.03,-0.04,-0,1,0,0.05,0.05,95,0,0,0,0,32,0,0,1,0,0,0,0,0,9,7,12,0,0,96,0,0,138,21,21,0,0,0,0,1,3,1,1,0,77,75,73,0,0,0,0,0,0,0,0,3,3,3,0,347,347,0,0,0,0,0,0,0,0,0,0,0,0,0,0,3,1,1,0,78,78,77,0,0,0,0,0,0,0,0,0,0,0,0,0,0,0,0,0,0,0,0,0,0,0,0,0,0,0,0,0,0.0,0.0,0.0,0.0,0,0,0.0,0,0.0,-1,0.0,0.0,0,0.0,0.0615
3731,0,0.0622,,-0.01,0.03,-0.04,-0,1,0,0.05,0.05,97,,,,,,,,,,,,,,,,,,,,,,,,,,,,,,,,,,,,,,,,,,,,,,,,,,,,,,,,,,,,,,,,,,,,,,,,,,,,,,,,,,,,,,,,,,,,,,,,,,,,,,,,,,,,,,,,,,,
3771,0,0.0628,,-0.01,0.03,-0.04,-0,1,-0,0.05,0.05,98,,,,,,,,,,,,,,,,,,,,,,,,,,,,,,,,,,,,,,,,,,,,,,,,,,,,,,,,,,,,,,,,,,,,,,,,,,,,,,,,,,,,,,,,,,,,,,,,,,,,,,,,,,,,,,,,,,,
3791,0,0.0632,,,,,,,,,,,0,0,0,0,32,0,0,1,0,0,0,0,0,9,7,12,0,0,96,0,0,138,21,21,0,0,0,0,1,3,1,1,0,77,75,73,0,0,0,0,0,0,0,0,3,3,3,0,347,347,0,0,0,0,0,0,0,0,0,0,0,0,0,0,3,1,1,0,78,78,77,0,0,0,0,0,0,0,0,0,0,0,0,0,0,0,0,0,0,0,0,0,0,0,0,0,0,0,0,0,0.0,0.0,0.0,0.0,0,0,0.0,0,0.0,-1,0.0,,0,0.0,0.0632
3811,0,0.0635,,-0.01,0.03,-0.04,-0,1,-0,0.05,0.05,98,,,,,,,,,,,,,,,,,,,,,,,,,,,,,,,,,,,,,,,,,,,,,,,,,,,,,,,,,,,,,,,,,,,,,,,,,,,,,,,,,,,,,,,,,,,,,,,,,,,,,,,,,,,,,,,,,,,
3851,0,0.0642,,-0.01,0.03,-0.04,-0,1,-0,0.05,0.05,98,,,,,,,,,,,,,,,,,,,,,,,,,,,,,,,,,,,,,,,,,,,,,,,,,,,,,,,,,,,,,,,,,,,,,,,,,,,,,,,,,,,,,,,,,,,,,,,,,,,,,,,,,,,,,,,,,,,
3891,0,0.0648,,-0.01,0.03,-0.04,-0,1,-0,0.05,0.05,97,0,0,0,0,32,0,0,1,0,0,0,0,0,9,7,12,0,0,96,0,0,138,21,21,0,0,0,0,1,3,1,1,0,77,75,73,0,0,0,0,0,0,0,3,1,1,0,78,77,73,0,0,0,0,0,0,0,0,0,0,0,0,0,0,3,1,1,0,78,78,77,0,0,0,0,0,0,0,0,0,0,0,0,0,0,0,0,0,0,0,0,0,0,0,0,0,0,0,0,0,0.0,0.0,0.0,0.0,0,0,0.0,0,0.0,-1,0.0,0.0,0,0.0,0.0648
3931,0,0.0655,,-0.01,0.03,-0.04,-0,1,-0,0.05,0.05,97,,,,,,,,,,,,,,,,,,,,,,,,,,,,,,,,,,,,,,,,,,,,,,,,,,,,,,,,,,,,,,,,,,,,,,,,,,,,,,,,,,,,,,,,,,,,,,,,,,,,,,,,,,,,,,,,,,,
3971,0,0.0662,,-0.01,0.03,-0.04,-0,1,-0,0.05,0.05,97,,,,,,,,,,,,,,,,,,,,,,,,,,,,,,,,,,,,,,,,,,,,,,,,,,,,,,,,,,,,,,,,,,,,,,,,,,,,,,,,,,,,,,,,,,,,,,,,,,,,,,,,,,,,,,,,,,,
3991,0,0.0665,,,,,,,,,,,0,0,0,0,32,0,0,1,0,0,0,0,0,9,7,12,0,0,96,0,0,138,21,21,0,0,0,0,1,3,1,1,0,77,75,73,0,0,0,0,0,0,0,3,1,1,0,78,77,73,0,0,0,0,0,0,0,0,0,0,0,0,0,0,3,1,1,0,78,78,77,0,0,0,0,0,0,0,0,0,0,0,0,0,0,0,0,0,0,0,0,0,0,0,0,0,0,0,0,0,0.0,0.0,0.0,0.0,0,0,0.0,0,0.0,-1,0.0,,0,0.0,0.0665
4011,0,0.0668,,-0.01,0.03,-0.04,-0,1,-0,0.05,0.05,96,,,,,,,,,,,,,,,,,,,,,,,,,,,,,,,,,,,,,,,,,,,,,,,,,,,,,,,,,,,,,,,,,,,,,,,,,,,,,,,,,,,,,,,,,,,,,,,,,,,,,,,,,,,,,,,,,,,
4051,0,0.0675,,-0.01,0.03,-0.04,-0,1,-0,0.05,0.05,97,,,,,,,,,,,,,,,,,,,,,,,,,,,,,,,,,,,,,,,,,,,,,,,,,,,,,,,,,,,,,,,,,,,,,,,,,,,,,,,,,,,,,,,,,,,,,,,,,,,,,,,,,,,,,,,,,,,
4091,0,0.0682,12.56,-0.01,0.03,-0.04,-0,1,-0,0.05,0.05,97,0,0,0,0,32,0,0,1,0,0,0,0,0,9,7,12,0,0,96,0,0,138,21,21,0,0,0,0,1,3,1,1,0,77,75,73,0,0,0,0,0,0,0,3,1,1,0,78,77,73,0,0,0,0,0,0,0,0,0,0,0,0,0,0,3,1,1,0,78,78,77,0,0,0,0,0,0,0,0,0,0,0,0,0,0,0,0,0,0,0,0,0,0,0,0,0,0,0,0,0,0.0,0.0,0.0,0.0,0,0,0.0,0,0.0,-1,0.0,0.0,0,0.0,0.0682
4131,0,0.0689,,-0.01,0.03,-0.04,-0,1,-0,0.05,0.05,96,,,,,,,,,,,,,,,,,,,,,,,,,,,,,,,,,,,,,,,,,,,,,,,,,,,,,,,,,,,,,,,,,,,,,,,,,,,,,,,,,,,,,,,,,,,,,,,,,,,,,,,,,,,,,,,,,,,
4171,0,0.0695,,-0.01,0.03,-0.04,-0,1,-0,0.05,0.05,95,,,,,,,,,,,,,,,,,,,,,,,,,,,,,,,,,,,,,,,,,,,,,,,,,,,,,,,,,,,,,,,,,,,,,,,,,,,,,,,,,,,,,,,,,,,,,,,,,,,,,,,,,,,,,,,,,,,
4191,0,0.0698,,,,,,,,,,,0,0,0,0,32,0,0,1,0,0,0,0,0,9,7,12,0,0,96,0,0,138,21,21,0,0,0,0,1,3,1,1,0,77,75,73,0,0,0,0,0,0,0,3,1,1,0,78,77,73,0,0,0,0,0,0,0,0,0,0,0,0,0,0,0,3,3,3,1,349,349,0,0,0,0,0,0,0,0,0,0,0,0,0,0,0,0,0,0,0,0,0,0,0,0,0,0,0,0,0,0.0,0.0,0.0,0.0,0,0,0.0,0,0.0,-1,0.0,,0,0.0,0.0698
4211,0,0.0702,,-0.01,0.03,-0.04,-0,1,-0,0.05,0.05,96,,,,,,,,,,,,,,,,,,,,,,,,,,,,,,,,,,,,,,,,,,,,,,,,,,,,,,,,,,,,,,,,,,,,,,,,,,,,,,,,,,,,,,,,,,,,,,,,,,,,,,,,,,,,,,,,,,,
4251,0,0.0708,,-0.01,0.03,-0.04,-0,1,-0,0.05,0.05,96,,,,,,,,,,,,,,,,,,,,,,,,,,,,,,,,,,,,,,,,,,,,,,,,,,,,,,,,,,,,,,,,,,,,,,,,,,,,,,,,,,,,,,,,,,,,,,,,,,,,,,,,,,,,,,,,,,,
4291,0,0.0715,,-0.01,0.03,-0.04,-0,1,-0,0.05,0.05,97,0,0,0,0,32,0,0,1,0,0,0,0,0,9,7,12,0,0,96,0,0,138,21,21,0,0,0,0,1,3,1,1,0,77,75,73,0,0,0,0,0,0,0,3,1,1,0,78,77,73,0,0,0,0,0,0,0,0,0,0,0,0,0,0,0,3,3,3,1,349,349,0,0,0,0,0,0,0,0,0,0,0,0,0,0,0,0,0,0,0,0,0,0,0,0,0,0,0,0,0,0.0,0.0,0.0,0.0,0,0,0.0,0,0.0,-1,0.0,0.0,0,0.0,0.0715
4331,0,0.0722,,-0.01,0.03,-0.04,-0,1,-0,0.05,0.05,97,,,,,,,,,,,,,,,,,,,,,,,,,,,,,,,,,,,,,,,,,,,,,,,,,,,,,,,,,,,,,,,,,,,,,,,,,,,,,,,,,,,,,,,,,,,,,,,,,,,,,,,,,,,,,,,,,,,
4371,0,0.0728,,-0.01,0.03,-0.04,-0,1,-0,0.05,0.05,96,,,,,,,,,,,,,,,,,,,,,,,,,,,,,,,,,,,,,,,,,,,,,,,,,,,,,,,,,,,,,,,,,,,,,,,,,,,,,,,,,,,,,,,,,,,,,,,,,,,,,,,,,,,,,,,,,,,
4391,0,0.0732,,,,,,,,,,,0,0,0,0,32,0,0,1,0,0,0,0,0,9,7,12,0,0,96,0,0,138,21,21,0,0,0,0,1,3,1,1,0,77,75,73,0,0,0,0,0,0,0,3,1,1,0,78,77,73,0,0,0,0,0,0,0,0,0,0,0,0,0,0,0,3,3,3,1,349,349,0,0,0,0,0,0,0,0,0,0,0,0,0,0,0,0,0,0,0,0,0,0,0,0,0,0,0,0,0,0.0,0.0,0.0,0.0,0,0,0.0,0,0.0,-1,0.0,,0,0.0,0.0732
4411,0,0.0735,,-0.01,0.03,-0.04,-0,1,-0,0.05,0.05,96,,,,,,,,,,,,,,,,,,,,,,,,,,,,,,,,,,,,,,,,,,,,,,,,,,,,,,,,,,,,,,,,,,,,,,,,,,,,,,,,,,,,,,,,,,,,,,,,,,,,,,,,,,,,,,,,,,,
4451,0,0.0742,,-0.01,0.03,-0.04,-0,0,-0,0.05,0.05,96,,,,,,,,,,,,,,,,,,,,,,,,,,,,,,,,,,,,,,,,,,,,,,,,,,,,,,,,,,,,,,,,,,,,,,,,,,,,,,,,,,,,,,,,,,,,,,,,,,,,,,,,,,,,,,,,,,,
4491,0,0.0748,,-0.01,0.03,-0.04,-0,0,-0,0.05,0.05,96,0,0,0,0,32,0,0,1,0,0,0,0,0,9,7,12,0,0,96,0,0,138,21,21,0,0,0,0,1,3,1,1,0,77,75,73,0,0,0,0,0,0,0,3,1,1,0,78,77,73,0,0,0,0,0,0,0,0,0,0,0,0,0,0,0,3,3,3,1,349,349,0,0,0,0,0,0,0,0,0,0,0,0,0,0,0,0,0,0,0,0,0,0,0,0,0,0,0,0,0,0.0,0.0,0.0,0.0,0,0,0.0,0,0.0,-1,0.0,0.0,0,0.0,0.0748
4531,0,0.0755,,-0.01,0.03,-0.04,-0,0,-0,0.05,0.05,94,,,,,,,,,,,,,,,,,,,,,,,,,,,,,,,,,,,,,,,,,,,,,,,,,,,,,,,,,,,,,,,,,,,,,,,,,,,,,,,,,,,,,,,,,,,,,,,,,,,,,,,,,,,,,,,,,,,
4571,0,0.0762,,-0.01,0.03,-0.04,-0,1,-0,0.05,0.05,96,,,,,,,,,,,,,,,,,,,,,,,,,,,,,,,,,,,,,,,,,,,,,,,,,,,,,,,,,,,,,,,,,,,,,,,,,,,,,,,,,,,,,,,,,,,,,,,,,,,,,,,,,,,,,,,,,,,
4591,0,0.0765,,,,,,,,,,,0,0,0,0,32,0,0,1,0,0,0,0,0,9,7,12,0,0,96,0,0,138,21,21,0,0,0,0,1,3,1,1,0,77,75,73,0,0,0,0,0,0,0,3,1,1,0,78,77,73,0,0,0,0,0,0,0,0,0,0,0,0,0,0,0,3,3,3,1,349,349,0,0,0,0,0,0,0,0,0,0,0,0,0,0,0,0,0,0,0,0,0,0,0,0,0,0,0,0,0,0.0,0.0,0.0,0.0,0,0,0.0,0,0.0,-1,0.0,,0,0.0,0.0765
4611,0,0.0768,,-0.01,0.03,-0.04,-0,1,-0,0.05,0.05,97,,,,,,,,,,,,,,,,,,,,,,,,,,,,,,,,,,,,,,,,,,,,,,,,,,,,,,,,,,,,,,,,,,,,,,,,,,,,,,,,,,,,,,,,,,,,,,,,,,,,,,,,,,,,,,,,,,,
4651,0,0.0775,,-0.01,0.03,-0.04,-0,1,-0,0.05,0.05,96,,,,,,,,,,,,,,,,,,,,,,,,,,,,,,,,,,,,,,,,,,,,,,,,,,,,,,,,,,,,,,,,,,,,,,,,,,,,,,,,,,,,,,,,,,,,,,,,,,,,,,,,,,,,,,,,,,,
4691,0,0.0782,,-0.01,0.03,-0.04,-0,1,-0,0.05,0.05,97,0,0,0,0,32,0,0,1,0,0,0,0,0,9,7,12,0,0,96,0,0,138,21,21,0,0,0,0,1,3,1,1,0,77,75,73,0,0,0,0,0,0,0,3,1,1,0,78,77,73,0,0,0,0,0,0,0,0,0,0,0,0,0,0,0,3,3,3,1,349,349,0,0,0,0,0,0,0,0,0,0,0,0,0,0,0,0,0,0,0,0,0,0,0,0,0,0,0,0,0,0.0,0.0,0.0,0.0,0,0,0.0,0,0.0,-1,0.0,0.0,0,0.0,0.0782
4731,0,0.0788,,-0.01,0.03,-0.04,-0,1,-0,0.05,0.05,97,,,,,,,,,,,,,,,,,,,,,,,,,,,,,,,,,,,,,,,,,,,,,,,,,,,,,,,,,,,,,,,,,,,,,,,,,,,,,,,,,,,,,,,,,,,,,,,,,,,,,,,,,,,,,,,,,,,
4771,0,0.0795,,-0.01,0.03,-0.04,-0,1,-0,0.05,0.05,97,,,,,,,,,,,,,,,,,,,,,,,,,,,,,,,,,,,,,,,,,,,,,,,,,,,,,,,,,,,,,,,,,,,,,,,,,,,,,,,,,,,,,,,,,,,,,,,,,,,,,,,,,,,,,,,,,,,
4791,0,0.0799,,,,,,,,,,,0,0,0,0,32,0,0,1,0,0,0,0,0,9,7,12,0,0,96,0,0,138,21,21,0,0,0,0,1,3,1,1,0,77,75,73,0,0,0,0,0,0,0,3,1,1,0,78,77,73,0,0,0,0,0,0,0,0,0,0,0,0,0,0,0,3,3,3,1,349,349,0,0,0,0,0,0,0,0,0,0,0,0,0,0,0,0,0,0,0,0,0,0,0,0,0,0,0,0,0,0.0,0.0,0.0,0.0,0,0,0.0,0,0.0,-1,0.0,,0,0.0,0.0799
4811,0,0.0802,,-0.01,0.03,-0.04,-0,1,-0,0.05,0.05,97,,,,,,,,,,,,,,,,,,,,,,,,,,,,,,,,,,,,,,,,,,,,,,,,,,,,,,,,,,,,,,,,,,,,,,,,,,,,,,,,,,,,,,,,,,,,,,,,,,,,,,,,,,,,,,,,,,,
4851,0,0.0808,,-0.01,0.03,-0.04,-0,1,-0,0.05,0.05,96,,,,,,,,,,,,,,,,,,,,,,,,,,,,,,,,,,,,,,,,,,,,,,,,,,,,,,,,,,,,,,,,,,,,,,,,,,,,,,,,,,,,,,,,,,,,,,,,,,,,,,,,,,,,,,,,,,,
4891,0,0.0815,,-0.01,0.03,-0.04,-0,1,-0,0.05,0.05,97,0,0,0,0,32,0,0,1,0,0,0,0,0,9,7,12,0,0,96,0,0,138,21,21,0,0,0,0,1,3,1,1,0,77,75,73,0,0,0,0,0,0,0,3,1,1,0,78,77,73,0,0,0,0,0,0,0,0,0,0,0,0,0,0,0,3,3,3,1,349,349,0,0,0,0,0,0,0,0,0,0,0,0,0,0,0,0,0,0,0,0,0,0,0,0,0,0,0,0,0,0.0,0.0,0.0,0.0,0,0,0.0,0,0.0,-1,0.0,0.0,0,0.0,0.0815
4931,0,0.0822,,-0.01,0.03,-0.04,-0,1,-0,0.05,0.05,97,,,,,,,,,,,,,,,,,,,,,,,,,,,,,,,,,,,,,,,,,,,,,,,,,,,,,,,,,,,,,,,,,,,,,,,,,,,,,,,,,,,,,,,,,,,,,,,,,,,,,,,,,,,,,,,,,,,
4971,0,0.0828,,-0.01,0.03,-0.04,-0,1,-0,0.05,0.05,95,,,,,,,,,,,,,,,,,,,,,,,,,,,,,,,,,,,,,,,,,,,,,,,,,,,,,,,,,,,,,,,,,,,,,,,,,,,,,,,,,,,,,,,,,,,,,,,,,,,,,,,,,,,,,,,,,,,
4991,0,0.0832,,,,,,,,,,,0,0,0,0,32,0,0,1,0,0,0,0,0,9,7,12,0,0,96,0,0,138,21,21,0,0,0,0,1,3,1,1,0,77,75,73,0,0,0,0,0,0,0,3,1,1,0,78,77,73,0,0,0,0,0,0,0,0,0,0,0,0,0,0,0,3,3,3,1,349,349,0,0,0,0,0,0,0,0,0,0,0,0,0,0,0,0,0,0,0,0,0,0,0,0,0,0,0,0,0,0.0,0.0,0.0,0.0,0,0,0.0,0,0.0,-1,0.0,,0,0.0,0.0832
5011,0,0.0835,,-0.01,0.03,-0.04,-0,1,-0,0.05,0.05,94,,,,,,,,,,,,,,,,,,,,,,,,,,,,,,,,,,,,,,,,,,,,,,,,,,,,,,,,,,,,,,,,,,,,,,,,,,,,,,,,,,,,,,,,,,,,,,,,,,,,,,,,,,,,,,,,,,,
5051,0,0.0842,,-0.01,0.03,-0.04,-0,1,-0,0.05,0.05,95,,,,,,,,,,,,,,,,,,,,,,,,,,,,,,,,,,,,,,,,,,,,,,,,,,,,,,,,,,,,,,,,,,,,,,,,,,,,,,,,,,,,,,,,,,,,,,,,,,,,,,,,,,,,,,,,,,,
5091,0,0.0848,12.53,-0.01,0.03,-0.04,-0,1,-0,0.05,0.05,94,0,0,0,0,32,0,0,1,0,0,0,0,0,9,7,12,0,0,96,0,0,138,21,21,0,0,0,0,1,3,1,1,0,77,75,73,0,0,0,0,0,0,0,3,1,1,0,78,77,73,0,0,0,0,0,0,0,0,0,0,0,0,0,0,0,3,3,3,1,349,349,0,0,0,0,0,0,0,0,0,0,0,0,0,0,0,0,0,0,0,0,0,0,0,0,0,0,0,0,0,0.0,0.0,0.0,0.0,0,0,0.0,0,0.0,-1,0.0,0.0,0,0.0,0.0848
5131,0,0.0855,,-0.01,0.03,-0.04,-0,1,-0,0.05,0.05,94,,,,,,,,,,,,,,,,,,,,,,,,,,,,,,,,,,,,,,,,,,,,,,,,,,,,,,,,,,,,,,,,,,,,,,,,,,,,,,,,,,,,,,,,,,,,,,,,,,,,,,,,,,,,,,,,,,,
5171,0,0.0862,,-0.01,0.03,-0.04,-0,1,-0,0.05,0.05,95,,,,,,,,,,,,,,,,,,,,,,,,,,,,,,,,,,,,,,,,,,,,,,,,,,,,,,,,,,,,,,,,,,,,,,,,,,,,,,,,,,,,,,,,,,,,,,,,,,,,,,,,,,,,,,,,,,,
12803,1716156540391,0.2134,,-0.01,0.03,-0.04,-0,1,-0,0.05,0.05,96,,,,,,,,,,,,,,,,,,,,,,,,,,,,,,,,,,,,,,,,,,,,,,,,,,,,,,,,,,,,,,,,,,,,,,,,,,,,,,,,,,,,,,,,,,,,,,,,,,,,,,,,,,,,,,,,,,,
12823,1716156540411,0.2137,,,,,,,,,,,0,0,0,0,32,0,0,1,0,0,0,0,0,9,7,12,0.3,0,96,0,0,138,21,21,0,0,0,0,1,3,1,1,0,77,75,73,0,0,0,0,0,0,0,3,1,1,0,78,77,73,0,0,0,0,0,0,0,0,0,0,0,0,0,0,3,1,1,0,78,78,77,0,0,0,0,0,0,0,0,0,0,0,0,0,0,0,0,0,0,0,0,0,0,0,0,0,0,0,0,0,48.466213,-122.438988,0.02,97.6,24,2,1.0,0,0.0,-1,0.0,,0,0.0,0.2137
12843,1716156540431,0.214,,-0.01,0.03,-0.04,-0,1,-0,0.05,0.05,96,,,,,,,,,,,,,,,,,,,,,,,,,,,,,,,,,,,,,,,,,,,,,,,,,,,,,,,,,,,,,,,,,,,,,,,,,,,,,,,,,,,,,,,,,,,,,,,,,,,,,,,,,,,,,,,,,,,
12883,1716156540471,0.2147,,-0.01,0.03,-0.04,-0,1,-0,0.05,0.05,96,,,,,,,,,,,,,,,,,,,,,,,,,,,,,,,,,,,,,,,,,,,,,,,,,,,,,,,,,,,,,,,,,,,,,,,,,,,,,,,,,,,,,,,,,,,,,,,,,,,,,,,,,,,,,,,,,,,
12923,1716156540509,0.2154,,-0.01,0.03,-0.04,-0,1,-0,0.05,0.05,96,0,0,0,0,32,0,0,1,0,0,0,0,0,9,7,12,0.3,0,96,0,0,138,21,21,0,0,0,0,1,3,1,1,0,77,75,73,0,0,0,0,0,0,0,3,1,1,0,78,77,73,0,0,0,0,0,0,0,0,0,0,0,0,0,0,0,3,3,3,1,349,349,0,0,0,0,0,0,0,0,0,0,0,0,0,0,0,0,0,0,0,0,0,0,0,0,0,0,0,0,0,48.466213,-122.438988,0.03,98.4,24,2,1.0,0,0.0,-1,0.0,0.0,0,0.0,0.2154
12963,1716156540549,0.216,,-0.01,0.03,-0.04,-0,1,-0,0.05,0.05,95,,,,,,,,,,,,,,,,,,,,,,,,,,,,,,,,,,,,,,,,,,,,,,,,,,,,,,,,,,,,,,,,,,,,,,,,,,,,,,,,,,,,,,,,,,,,,,,,,,,,,,,,,,,,,,,,,,,
13003,1716156540589,0.2167,,-0.01,0.03,-0.04,-0,1,-0,0.05,0.05,95,,,,,,,,,,,,,,,,,,,,,,,,,,,,,,,,,,,,,,,,,,,,,,,,,,,,,,,,,,,,,,,,,,,,,,,,,,,,,,,,,,,,,,,,,,,,,,,,,,,,,,,,,,,,,,,,,,,
13023,1716156540609,0.217,,,,,,,,,,,0,0,0,0,32,0,0,1,0,0,0,0,0,9,7,12,0.3,0,96,0,0,138,21,21,0,0,0,0,1,3,1,1,0,77,75,73,0,0,0,0,0,0,0,3,1,1,0,78,77,73,0,0,0,0,0,0,0,0,0,0,0,0,0,0,0,3,3,3,1,349,349,0,0,0,0,0,0,0,0,0,0,0,0,0,0,0,0,0,0,0,0,0,0,0,0,0,0,0,0,0,48.466213,-122.438988,0.03,98.1,24,2,1.0,0,0.0,-1,0.0,,0,0.0,0.217
13043,1716156540629,0.2174,,-0.01,0.03,-0.04,-0,1,-0,0.05,0.05,95,,,,,,,,,,,,,,,,,,,,,,,,,,,,,,,,,,,,,,,,,,,,,,,,,,,,,,,,,,,,,,,,,,,,,,,,,,,,,,,,,,,,,,,,,,,,,,,,,,,,,,,,,,,,,,,,,,,
13083,1716156540669,0.218,,-0.01,0.03,-0.04,-0,1,-0,0.05,0.05,95,,,,,,,,,,,,,,,,,,,,,,,,,,,,,,,,,,,,,,,,,,,,,,,,,,,,,,,,,,,,,,,,,,,,,,,,,,,,,,,,,,,,,,,,,,,,,,,,,,,,,,,,,,,,,,,,,,,
13123,1716156540711,0.2187,,-0.01,0.03,-0.04,-0,1,-0,0.05,0.05,95,0,0,0,0,32,0,0,1,0,0,0,0,0,9,7,12,0.4,0,96,0,0,138,21,21,0,0,0,0,1,3,1,1,0,77,75,73,0,0,0,0,0,0,0,3,1,1,0,78,77,73,0,0,0,0,0,0,0,0,0,0,0,0,0,0,0,3,3,3,1,349,349,0,0,0,0,0,0,0,0,0,0,0,0,0,0,0,0,0,0,0,0,0,0,0,0,0,0,0,0,0,48.466209,-122.438988,0.03,97.3,24,2,1.0,0,0.0,-1,0.0,0.0,0,0.0,0.2187
13163,1716156540751,0.2194,,-0.01,0.03,-0.04,-0,1,-0,0.05,0.05,95,,,,,,,,,,,,,,,,,,,,,,,,,,,,,,,,,,,,,,,,,,,,,,,,,,,,,,,,,,,,,,,,,,,,,,,,,,,,,,,,,,,,,,,,,,,,,,,,,,,,,,,,,,,,,,,,,,,
13203,1716156540791,0.22,,-0.01,0.03,-0.04,-0,1,-0,0.05,0.05,96,,,,,,,,,,,,,,,,,,,,,,,,,,,,,,,,,,,,,,,,,,,,,,,,,,,,,,,,,,,,,,,,,,,,,,,,,,,,,,,,,,,,,,,,,,,,,,,,,,,,,,,,,,,,,,,,,,,
13223,1716156540809,0.2204,,,,,,,,,,,0,0,0,0,32,0,0,1,0,0,0,0,0,9,7,12,0.3,0,96,0,0,138,21,21,0,0,0,0,1,3,1,1,0,77,75,73,0,0,0,0,0,0,0,3,1,1,0,78,77,73,0,0,0,0,0,0,0,0,0,0,0,0,0,0,0,3,3,3,1,349,349,0,0,0,0,0,0,0,0,0,0,0,0,0,0,0,0,0,0,0,0,0,0,0,0,0,0,0,0,0,48.466206,-122.438988,0.04,96.6,24,2,1.0,0,0.0,-1,0.0,,0,0.0,0.2204
13243,1716156540829,0.2207,,-0.01,0.03,-0.04,-0,1,0,0.05,0.05,95,,,,,,,,,,,,,,,,,,,,,,,,,,,,,,,,,,,,,,,,,,,,,,,,,,,,,,,,,,,,,,,,,,,,,,,,,,,,,,,,,,,,,,,,,,,,,,,,,,,,,,,,,,,,,,,,,,,
13283,1716156540869,0.2214,,-0.01,0.03,-0.04,-0,1,0,0.05,0.05,94,,,,,,,,,,,,,,,,,,,,,,,,,,,,,,,,,,,,,,,,,,,,,,,,,,,,,,,,,,,,,,,,,,,,,,,,,,,,,,,,,,,,,,,,,,,,,,,,,,,,,,,,,,,,,,,,,,,
13323,1716156540912,0.222,,-0.01,0.03,-0.04,-0,1,0,0.05,0.05,95,0,0,0,0,32,0,0,1,0,0,0,0,0,9,7,12,0.3,0,96,0,0,138,21,21,0,0,0,0,1,3,1,1,0,77,75,73,0,0,0,0,0,0,0,3,1,1,0,78,77,73,0,0,0,0,0,0,0,0,0,0,0,0,0,0,0,3,3,3,1,349,349,0,0,0,0,0,0,0,0,0,0,0,0,0,0,0,0,0,0,0,0,0,0,0,0,0,0,0,0,0,48.466206,-122.438988,0.05,95.9,24,2,1.0,0,0.0,-1,0.0,0.0,0,0.0,0.222
13363,1716156540952,0.2227,,-0.01,0.03,-0.04,-0,1,-0,0.05,0.05,94,,,,,,,,,,,,,,,,,,,,,,,,,,,,,,,,,,,,,,,,,,,,,,,,,,,,,,,,,,,,,,,,,,,,,,,,,,,,,,,,,,,,,,,,,,,,,,,,,,,,,,,,,,,,,,,,,,,
13403,1716156540992,0.2234,,-0.01,0.03,-0.04,-0,1,-0,0.05,0.05,95,,,,,,,,,,,,,,,,,,,,,,,,,,,,,,,,,,,,,,,,,,,,,,,,,,,,,,,,,,,,,,,,,,,,,,,,,,,,,,,,,,,,,,,,,,,,,,,,,,,,,,,,,,,,,,,,,,,
13423,1716156541004,0.2237,,,,,,,,,,,0,0,0,0,32,0,0,1,0,0,0,0,0,9,7,12,0.3,0,96,0,0,138,21,21,0,0,0,0,1,3,1,1,0,77,75,73,0,0,0,0,0,0,0,3,1,1,0,78,77,73,0,0,0,0,0,0,0,0,0,0,0,0,0,0,0,3,3,3,1,349,349,0,0,0,0,0,0,0,0,0,0,0,0,0,0,0,0,0,0,0,0,0,0,0,0,0,0,0,0,0,48.466202,-122.438988,0.05,95.0,24,2,1.0,0,0.0,-1,0.0,,0,0.0,0.2237
13443,1716156541024,0.224,,-0.01,0.03,-0.04,-0,1,0,0.05,0.05,95,,,,,,,,,,,,,,,,,,,,,,,,,,,,,,,,,,,,,,,,,,,,,,,,,,,,,,,,,,,,,,,,,,,,,,,,,,,,,,,,,,,,,,,,,,,,,,,,,,,,,,,,,,,,,,,,,,,
13483,1716156541064,0.2247,,-0.01,0.03,-0.04,-0,1,-0,0.05,0.05,96,,,,,,,,,,,,,,,,,,,,,,,,,,,,,,,,,,,,,,,,,,,,,,,,,,,,,,,,,,,,,,,,,,,,,,,,,,,,,,,,,,,,,,,,,,,,,,,,,,,,,,,,,,,,,,,,,,,
13523,1716156541112,0.2254,,-0.01,0.03,-0.04,-0,1,0,0.05,0.05,96,0,0,0,0,32,0,0,1,0,0,0,0,0,9,7,12,0.4,0,96,0,0,138,21,21,0,0,0,0,1,3,1,1,0,77,75,73,0,0,0,0,0,0,0,3,1,1,0,78,77,73,0,0,0,0,0,0,0,0,0,0,0,0,0,0,0,3,3,3,1,349,349,0,0,0,0,0,0,0,0,0,0,0,0,0,0,0,0,0,0,0,0,0,0,0,0,0,0,0,0,0,48.466198,-122.438988,0.04,93.1,24,2,1.0,0,0.0,-1,0.0,0.0,0,0.0,0.2254
13563,1716156541152,0.226,,-0.01,0.03,-0.04,-0,1,-0,0.05,0.05,96,,,,,,,,,,,,,,,,,,,,,,,,,,,,,,,,,,,,,,,,,,,,,,,,,,,,,,,,,,,,,,,,,,,,,,,,,,,,,,,,,,,,,,,,,,,,,,,,,,,,,,,,,,,,,,,,,,,
13603,1716156541192,0.2267,,-0.01,0.03,-0.04,-0,1,-0,0.05,0.05,96,,,,,,,,,,,,,,,,,,,,,,,,,,,,,,,,,,,,,,,,,,,,,,,,,,,,,,,,,,,,,,,,,,,,,,,,,,,,,,,,,,,,,,,,,,,,,,,,,,,,,,,,,,,,,,,,,,,
13623,1716156541212,0.227,,,,,,,,,,,0,0,0,0,32,0,0,1,0,0,0,0,0,9,7,12,0.4,0,96,0,0,138,21,21,0,0,0,0,1,3,1,1,0,77,75,73,0,0,0,0,0,0,0,3,1,1,0,78,77,73,0,0,0,0,0,0,0,0,0,0,0,0,0,0,0,3,3,3,1,349,349,0,0,0,0,0,0,0,0,0,0,0,0,0,0,0,0,0,0,0,0,0,0,0,0,0,0,0,0,0,48.466198,-122.438988,0.02,92.9,24,2,1.0,0,0.0,-1,0.0,,0,0.0,0.227
13643,1716156541232,0.2274,,-0.01,0.03,-0.04,-0,1,-0,0.05,0.05,97,,,,,,,,,,,,,,,,,,,,,,,,,,,,,,,,,,,,,,,,,,,,,,,,,,,,,,,,,,,,,,,,,,,,,,,,,,,,,,,,,,,,,,,,,,,,,,,,,,,,,,,,,,,,,,,,,,,
13683,1716156541272,0.228,,-0.01,0.03,-0.04,-0,1,0,0.05,0.05,97,,,,,,,,,,,,,,,,,,,,,,,,,,,,,,,,,,,,,,,,,,,,,,,,,,,,,,,,,,,,,,,,,,,,,,,,,,,,,,,,,,,,,,,,,,,,,,,,,,,,,,,,,,,,,,,,,,,
13723,1716156541312,0.2287,12.45,-0.01,0.03,-0.04,-0,1,0,0.05,0.05,98,0,0,0,0,32,0,0,1,0,0,0,0,0,9,7,12,0.3,0,96,0,0,138,21,21,0,0,0,0,1,3,1,1,0,77,75,73,0,0,0,0,0,0,0,3,1,1,0,78,77,73,0,0,0,0,0,0,0,0,0,0,0,0,0,0,0,3,3,3,1,349,349,0,0,0,0,0,0,0,0,0,0,0,0,0,0,0,0,0,0,0,0,0,0,0,0,0,0,0,0,0,48.466194,-122.438988,0.05,92.2,24,2,1.0,0,0.0,-1,0.0,0.0,0,0.0,0.2287
13763,1716156541352,0.2294,,-0.02,0.03,-0.04,-0,1,-0,0.05,0.05,97,,,,,,,,,,,,,,,,,,,,,,,,,,,,,,,,,,,,,,,,,,,,,,,,,,,,,,,,,,,,,,,,,,,,,,,,,,,,,,,,,,,,,,,,,,,,,,,,,,,,,,,,,,,,,,,,,,,
13803,1716156541392,0.23,,-0.01,0.03,-0.04,-0,1,0,0.05,0.05,98,,,,,,,,,,,,,,,,,,,,,,,,,,,,,,,,,,,,,,,,,,,,,,,,,,,,,,,,,,,,,,,,,,,,,,,,,,,,,,,,,,,,,,,,,,,,,,,,,,,,,,,,,,,,,,,,,,,
13823,1716156541412,0.2304,,,,,,,,,,,0,0,0,0,32,0,0,1,0,0,0,0,0,9,7,12,0.4,0,96,0,0,138,21,21,0,0,0,0,1,3,1,1,0,77,75,73,0,0,0,0,0,0,0,3,1,1,0,78,77,73,0,0,0,0,0,0,0,0,0,0,0,0,0,0,0,3,3,3,1,349,349,0,0,0,0,0,0,0,0,0,0,0,0,0,0,0,0,0,0,0,0,0,0,0,0,0,0,0,0,0,48.466194,-122.438988,0.07,92.1,24,2,1.0,0,0.0,-1,0.0,,0,0.0,0.2304
13843,1716156541432,0.2307,,-0.02,0.03,-0.04,-0,1,0,0.05,0.05,97,,,,,,,,,,,,,,,,,,,,,,,,,,,,,,,,,,,,,,,,,,,,,,,,,,,,,,,,,,,,,,,,,,,,,,,,,,,,,,,,,,,,,,,,,,,,,,,,,,,,,,,,,,,,,,,,,,,
13883,1716156541472,0.2314,,-0.02,0.03,-0.04,-0,1,0,0.05,0.05,95,,,,,,,,,,,,,,,,,,,,,,,,,,,,,,,,,,,,,,,,,,,,,,,,,,,,,,,,,,,,,,,,,,,,,,,,,,,,,,,,,,,,,,,,,,,,,,,,,,,,,,,,,,,,,,,,,,,
13923,1716156541510,0.232,,-0.01,0.03,-0.04,-0,1,-0,0.05,0.05,97,0,0,0,0,32,0,0,1,0,0,0,0,0,9,7,12,0.4,0,96,0,0,138,21,21,0,0,0,0,1,3,1,1,0,77,75,73,0,0,0,0,0,0,0,3,1,1,0,78,77,73,0,0,0,0,0,0,0,0,0,0,0,0,0,0,3,1,1,0,78,77,77,0,0,0,0,0,0,0,0,0,0,0,0,0,0,0,0,0,0,0,0,0,0,0,0,0,0,0,0,0,48.466194,-122.438988,0.0,91.8,24,2,1.0,0,0.0,-1,0.0,0.0,0,0.0,0.232
13963,1716156541550,0.2327,,-0.02,0.03,-0.04,-0,1,-0,0.05,0.05,97,,,,,,,,,,,,,,,,,,,,,,,,,,,,,,,,,,,,,,,,,,,,,,,,,,,,,,,,,,,,,,,,,,,,,,,,,,,,,,,,,,,,,,,,,,,,,,,,,,,,,,,,,,,,,,,,,,,
14003,1716156541590,0.2334,,-0.01,0.03,-0.04,-0,1,0,0.05,0.05,93,,,,,,,,,,,,,,,,,,,,,,,,,,,,,,,,,,,,,,,,,,,,,,,,,,,,,,,,,,,,,,,,,,,,,,,,,,,,,,,,,,,,,,,,,,,,,,,,,,,,,,,,,,,,,,,,,,,
14023,1716156541610,0.2337,,,,,,,,,,,0,0,0,0,32,0,0,1,0,0,0,0,0,9,7,12,0.3,0,96,0,0,138,21,21,0,0,0,0,1,3,1,1,0,77,75,73,0,0,0,0,0,0,0,3,1,1,0,78,77,73,0,0,0,0,0,0,0,0,0,0,0,0,0,0,3,1,1,0,78,77,77,0,0,0,0,0,0,0,0,0,0,0,0,0,0,0,0,0,0,0,0,0,0,0,0,0,0,0,0,0,48.466194,-122.438988,0.02,91.2,24,2,1.0,0,0.0,-1,0.0,,0,0.0,0.2337
14043,1716156541630,0.234,,-0.01,0.03,-0.04,-0,1,-0,0.05,0.05,93,,,,,,,,,,,,,,,,,,,,,,,,,,,,,,,,,,,,,,,,,,,,,,,,,,,,,,,,,,,,,,,,,,,,,,,,,,,,,,,,,,,,,,,,,,,,,,,,,,,,,,,,,,,,,,,,,,,
14083,1716156541670,0.2347,,-0.01,0.03,-0.04,-0,1,-0,0.05,0.05,94,,,,,,,,,,,,,,,,,,,,,,,,,,,,,,,,,,,,,,,,,,,,,,,,,,,,,,,,,,,,,,,,,,,,,,,,,,,,,,,,,,,,,,,,,,,,,,,,,,,,,,,,,,,,,,,,,,,
14123,1716156541710,0.2354,,-0.01,0.03,-0.04,-0,1,-0,0.05,0.05,93,0,0,0,0,32,0,0,1,0,0,0,0,0,9,7,12,0.4,0,96,0,0,138,21,21,0,0,0,0,1,3,1,1,0,77,75,73,0,0,0,0,0,0,0,3,1,1,0,78,77,73,0,0,0,0,0,0,0,0,0,0,0,0,0,0,3,1,1,0,78,77,77,0,0,0,0,0,0,0,0,0,0,0,0,0,0,0,0,0,0,0,0,0,0,0,0,0,0,0,0,0,48.466194,-122.438988,0.02,91.0,24,2,1.0,0,0.0,-1,0.0,0.0,0,0.0,0.2354
14163,1716156541750,0.236,,-0.01,0.03,-0.04,-0,1,-0,0.05,0.05,93,,,,,,,,,,,,,,,,,,,,,,,,,,,,,,,,,,,,,,,,,,,,,,,,,,,,,,,,,,,,,,,,,,,,,,,,,,,,,,,,,,,,,,,,,,,,,,,,,,,,,,,,,,,,,,,,,,,
14203,1716156541790,0.2367,,-0.01,0.03,-0.04,-0,1,-0,0.05,0.05,93,,,,,,,,,,,,,,,,,,,,,,,,,,,,,,,,,,,,,,,,,,,,,,,,,,,,,,,,,,,,,,,,,,,,,,,,,,,,,,,,,,,,,,,,,,,,,,,,,,,,,,,,,,,,,,,,,,,
14223,1716156541809,0.237,,,,,,,,,,,0,0,0,0,32,0,0,1,0,0,0,0,0,9,7,12,0.3,0,96,0,0,138,21,21,0,0,0,0,1,3,1,1,0,77,75,73,0,0,0,0,0,0,0,3,1,1,0,78,77,73,0,0,0,0,0,0,0,0,0,0,0,0,0,0,3,1,1,0,78,77,77,0,0,0,0,0,0,0,0,0,0,0,0,0,0,0,0,0,0,0,0,0,0,0,0,0,0,0,0,0,48.46619,-122.438988,0.02,91.1,24,2,1.0,0,0.0,-1,0.0,,0,0.0,0.237
14243,1716156541829,0.2374,,-0.01,0.03,-0.04,-0,1,-0,0.05,0.05,94,,,,,,,,,,,,,,,,,,,,,,,,,,,,,,,,,,,,,,,,,,,,,,,,,,,,,,,,,,,,,,,,,,,,,,,,,,,,,,,,,,,,,,,,,,,,,,,,,,,,,,,,,,,,,,,,,,,
14283,1716156541869,0.238,,-0.01,0.03,-0.04,-0,1,-0,0.05,0.05,92,,,,,,,,,,,,,,,,,,,,,,,,,,,,,,,,,,,,,,,,,,,,,,,,,,,,,,,,,,,,,,,,,,,,,,,,,,,,,,,,,,,,,,,,,,,,,,,,,,,,,,,,,,,,,,,,,,,
14323,1716156541911,0.2387,,-0.01,0.03,-0.04,-0,1,-0,0.05,0.05,92,0,0,0,0,32,0,0,1,0,0,0,0,0,9,7,12,0.4,0,96,0,0,138,21,21,0,0,0,0,1,3,1,1,0,77,75,73,0,0,0,0,0,0,0,3,1,1,0,78,77,73,0,0,0,0,0,0,0,0,0,0,0,0,0,0,3,1,1,0,78,77,77,0,0,0,0,0,0,0,0,0,0,0,0,0,0,0,0,0,0,0,0,0,0,0,0,0,0,0,0,0,48.46619,-122.438988,0.02,90.6,24,2,1.0,0,0.0,-1,0.0,0.0,0,0.0,0.2387
14363,1716156541951,0.2394,,-0.01,0.03,-0.04,-0,1,-0,0.05,0.05,95,,,,,,,,,,,,,,,,,,,,,,,,,,,,,,,,,,,,,,,,,,,,,,,,,,,,,,,,,,,,,,,,,,,,,,,,,,,,,,,,,,,,,,,,,,,,,,,,,,,,,,,,,,,,,,,,,,,
14403,1716156541991,0.24,,-0.01,0.03,-0.04,-0,1,-0,0.05,0.05,95,,,,,,,,,,,,,,,,,,,,,,,,,,,,,,,,,,,,,,,,,,,,,,,,,,,,,,,,,,,,,,,,,,,,,,,,,,,,,,,,,,,,,,,,,,,,,,,,,,,,,,,,,,,,,,,,,,,
14423,1716156542005,0.2404,,,,,,,,,,,0,0,0,0,32,0,0,1,0,0,0,0,0,9,7,12,0.3,0,96,0,0,138,21,21,0,0,0,0,1,3,1,1,0,77,75,73,0,0,0,0,0,0,0,3,1,1,0,78,77,73,0,0,0,0,0,0,0,0,0,0,0,0,0,0,3,1,1,0,78,77,77,0,0,0,0,0,0,0,0,0,0,0,0,0,0,0,0,0,0,0,0,0,0,0,0,0,0,0,0,0,48.466187,-122.438988,0.09,90.1,24,2,1.0,0,0.0,-1,0.0,,0,0.0,0.2404
14443,1716156542025,0.2407,,-0.02,0.03,-0.04,-0,1,-0,0.05,0.05,97,,,,,,,,,,,,,,,,,,,,,,,,,,,,,,,,,,,,,,,,,,,,,,,,,,,,,,,,,,,,,,,,,,,,,,,,,,,,,,,,,,,,,,,,,,,,,,,,,,,,,,,,,,,,,,,,,,,
14483,1716156542065,0.2414,,-0.01,0.03,-0.04,-0,0,-0,0.05,0.05,97,,,,,,,,,,,,,,,,,,,,,,,,,,,,,,,,,,,,,,,,,,,,,,,,,,,,,,,,,,,,,,,,,,,,,,,,,,,,,,,,,,,,,,,,,,,,,,,,,,,,,,,,,,,,,,,,,,,
14523,1716156542111,0.242,,-0.01,0.03,-0.04,-0,1,0,0.05,0.05,96,0,0,0,0,32,0,0,1,0,0,0,0,0,9,7,12,0.4,0,96,0,0,138,21,21,0,0,0,0,1,3,1,1,0,77,75,73,0,0,0,0,0,0,0,3,1,1,0,78,77,73,0,0,0,0,0,0,0,0,0,0,0,0,0,0,3,1,1,0,78,77,77,0,0,0,0,0,0,0,0,0,0,0,0,0,0,0,0,0,0,0,0,0,0,0,0,0,0,0,0,0,48.466187,-122.438988,0.03,89.7,24,2,1.0,0,0.0,-1,0.0,0.0,0,0.0,0.242
14563,1716156542151,0.2427,,-0.01,0.03,-0.04,-0,0,-0,0.05,0.05,96,,,,,,,,,,,,,,,,,,,,,,,,,,,,,,,,,,,,,,,,,,,,,,,,,,,,,,,,,,,,,,,,,,,,,,,,,,,,,,,,,,,,,,,,,,,,,,,,,,,,,,,,,,,,,,,,,,,
14603,1716156542193,0.2434,,-0.01,0.03,-0.04,-0,1,-0,0.05,0.05,97,,,,,,,,,,,,,,,,,,,,,,,,,,,,,,,,,,,,,,,,,,,,,,,,,,,,,,,,,,,,,,,,,,,,,,,,,,,,,,,,,,,,,,,,,,,,,,,,,,,,,,,,,,,,,,,,,,,
14623,1716156542213,0.2437,,,,,,,,,,,0,0,0,0,32,0,0,1,0,0,0,0,0,9,7,12,0.3,0,96,0,0,138,21,21,0,0,0,0,1,3,1,1,0,77,75,73,0,0,0,0,0,0,0,0,3,3,3,0,347,347,0,0,0,0,0,0,0,0,0,0,0,0,0,0,3,1,1,0,78,77,77,0,0,0,0,0,0,0,0,0,0,0,0,0,0,0,0,0,0,0,0,0,0,0,0,0,0,0,0,0,48.466183,-122.438988,0.2,89.4,24,2,1.0,0,0.0,-1,0.0,,0,0.0,0.2437
14643,1716156542233,0.244,,-0.01,0.03,-0.04,-0,0,-0,0.05,0.05,97,,,,,,,,,,,,,,,,,,,,,,,,,,,,,,,,,,,,,,,,,,,,,,,,,,,,,,,,,,,,,,,,,,,,,,,,,,,,,,,,,,,,,,,,,,,,,,,,,,,,,,,,,,,,,,,,,,,
14683,1716156542273,0.2447,,-0.01,0.03,-0.04,-0,0,-0,0.05,0.05,98,,,,,,,,,,,,,,,,,,,,,,,,,,,,,,,,,,,,,,,,,,,,,,,,,,,,,,,,,,,,,,,,,,,,,,,,,,,,,,,,,,,,,,,,,,,,,,,,,,,,,,,,,,,,,,,,,,,
14723,1716156542313,0.2454,12.53,-0.01,0.03,-0.04,-0,1,-0,0.05,0.05,96,0,0,0,0,32,0,0,1,0,0,0,0,0,9,7,12,0.3,0,96,0,0,138,21,21,0,0,0,0,1,3,1,1,0,77,75,73,0,0,0,0,0,0,0,0,3,3,3,0,347,347,0,0,0,0,0,0,0,0,0,0,0,0,0,0,3,1,1,0,78,77,77,0,0,0,0,0,0,0,0,0,0,0,0,0,0,0,0,0,0,0,0,0,0,0,0,0,0,0,0,0,48.466183,-122.438988,0.2,89.1,24,2,1.0,0,0.0,-1,0.0,0.0,0,0.0,0.2454
14763,1716156542353,0.246,,-0.01,0.03,-0.04,-0,1,0,0.05,0.05,97,,,,,,,,,,,,,,,,,,,,,,,,,,,,,,,,,,,,,,,,,,,,,,,,,,,,,,,,,,,,,,,,,,,,,,,,,,,,,,,,,,,,,,,,,,,,,,,,,,,,,,,,,,,,,,,,,,,
14803,1716156542392,0.2467,,-0.01,0.03,-0.04,-0,1,-0,0.05,0.05,95,,,,,,,,,,,,,,,,,,,,,,,,,,,,,,,,,,,,,,,,,,,,,,,,,,,,,,,,,,,,,,,,,,,,,,,,,,,,,,,,,,,,,,,,,,,,,,,,,,,,,,,,,,,,,,,,,,,
14823,1716156542412,0.247,,,,,,,,,,,0,0,0,0,32,0,0,1,0,0,0,0,0,9,7,12,0.4,0,96,0,0,138,21,21,0,0,0,0,1,3,1,1,0,77,75,73,0,0,0,0,0,0,0,0,3,3,3,0,347,347,0,0,0,0,0,0,0,0,0,0,0,0,0,0,3,1,1,0,78,77,77,0,0,0,0,0,0,0,0,0,0,0,0,0,0,0,0,0,0,0,0,0,0,0,0,0,0,0,0,0,48.466183,-122.438988,0.15,89.2,24,2,1.0,0,0.0,-1,0.0,,0,0.0,0.247
14843,1716156542432,0.2474,,-0.01,0.03,-0.04,-0,1,-0,0.05,0.05,95,,,,,,,,,,,,,,,,,,,,,,,,,,,,,,,,,,,,,,,,,,,,,,,,,,,,,,,,,,,,,,,,,,,,,,,,,,,,,,,,,,,,,,,,,,,,,,,,,,,,,,,,,,,,,,,,,,,
14883,1716156542472,0.248,,-0.01,0.03,-0.04,-0,1,-0,0.05,0.05,94,,,,,,,,,,,,,,,,,,,,,,,,,,,,,,,,,,,,,,,,,,,,,,,,,,,,,,,,,,,,,,,,,,,,,,,,,,,,,,,,,,,,,,,,,,,,,,,,,,,,,,,,,,,,,,,,,,,
14923,1716156542509,0.2487,,-0.01,0.03,-0.04,-0,1,-0,0.05,0.05,95,0,0,0,0,32,0,0,1,0,0,0,0,0,9,7,12,0.3,0,96,0,0,138,21,21,0,0,0,0,1,3,1,1,0,77,75,73,0,0,0,0,0,0,0,0,3,3,3,0,347,347,0,0,0,0,0,0,0,0,0,0,0,0,0,0,3,1,1,0,78,77,77,0,0,0,0,0,0,0,0,0,0,0,0,0,0,0,0,0,0,0,0,0,0,0,0,0,0,0,0,0,48.466179,-122.438988,0.09,89.1,24,2,1.0,0,0.0,-1,0.0,0.0,0,0.0,0.2487
14963,1716156542549,0.2494,,-0.01,0.03,-0.04,-0,1,-0,0.05,0.05,96,,,,,,,,,,,,,,,,,,,,,,,,,,,,,,,,,,,,,,,,,,,,,,,,,,,,,,,,,,,,,,,,,,,,,,,,,,,,,,,,,,,,,,,,,,,,,,,,,,,,,,,,,,,,,,,,,,,
15003,1716156542589,0.25,,-0.01,0.03,-0.04,-0,1,-0,0.05,0.05,96,,,,,,,,,,,,,,,,,,,,,,,,,,,,,,,,,,,,,,,,,,,,,,,,,,,,,,,,,,,,,,,,,,,,,,,,,,,,,,,,,,,,,,,,,,,,,,,,,,,,,,,,,,,,,,,,,,,
15023,1716156542609,0.2504,,,,,,,,,,,0,0,0,0,32,0,0,1,0,0,0,0,0,9,7,12,0.3,0,96,0,0,138,21,21,0,0,0,0,1,3,1,1,0,77,75,73,0,0,0,0,0,0,0,0,3,3,3,0,347,347,0,0,0,0,0,0,0,0,0,0,0,0,0,0,3,1,1,0,78,77,77,0,0,0,0,0,0,0,0,0,0,0,0,0,0,0,0,0,0,0,0,0,0,0,0,0,0,0,0,0,48.466179,-122.438988,0.27,89.4,24,2,1.0,0,0.0,-1,0.0,,0,0.0,0.2504
15043,1716156542629,0.2507,,-0.01,0.03,-0.04,-0,1,-0,0.05,0.05,97,,,,,,,,,,,,,,,,,,,,,,,,,,,,,,,,,,,,,,,,,,,,,,,,,,,,,,,,,,,,,,,,,,,,,,,,,,,,,,,,,,,,,,,,,,,,,,,,,,,,,,,,,,,,,,,,,,,
15083,1716156542669,0.2514,,-0.01,0.03,-0.04,-0,1,-0,0.05,0.05,97,,,,,,,,,,,,,,,,,,,,,,,,,,,,,,,,,,,,,,,,,,,,,,,,,,,,,,,,,,,,,,,,,,,,,,,,,,,,,,,,,,,,,,,,,,,,,,,,,,,,,,,,,,,,,,,,,,,
15123,1716156542709,0.2521,,-0.01,0.03,-0.04,-0,1,-0,0.05,0.05,96,0,0,0,0,32,0,0,1,0,0,0,0,0,9,7,12,0.4,0,96,0,0,138,21,21,0,0,0,0,1,3,1,1,0,77,75,73,0,0,0,0,0,0,0,0,3,3,3,0,347,347,0,0,0,0,0,0,0,0,0,0,0,0,0,0,3,1,1,0,78,77,77,0,0,0,0,0,0,0,0,0,0,0,0,0,0,0,0,0,0,0,0,0,0,0,0,0,0,0,0,0,48.466179,-122.438988,0.33,89.3,24,2,1.0,0,0.0,-1,0.0,0.0,0,0.0,0.2521
15163,1716156542749,0.2527,,-0.01,0.03,-0.04,-0,0,-0,0.05,0.05,96,,,,,,,,,,,,,,,,,,,,,,,,,,,,,,,,,,,,,,,,,,,,,,,,,,,,,,,,,,,,,,,,,,,,,,,,,,,,,,,,,,,,,,,,,,,,,,,,,,,,,,,,,,,,,,,,,,,
15203,1716156542789,0.2534,,-0.01,0.03,-0.04,-0,0,-0,0.05,0.05,95,,,,,,,,,,,,,,,,,,,,,,,,,,,,,,,,,,,,,,,,,,,,,,,,,,,,,,,,,,,,,,,,,,,,,,,,,,,,,,,,,,,,,,,,,,,,,,,,,,,,,,,,,,,,,,,,,,,
15223,1716156542808,0.2537,,,,,,,,,,,0,0,0,0,32,0,0,1,0,0,0,0,0,9,7,12,0.4,0,96,0,0,138,21,21,0,0,0,0,1,3,1,1,0,77,75,73,0,0,0,0,0,0,0,0,3,3,3,0,347,347,0,0,0,0,0,0,0,0,0,0,0,0,0,0,3,1,1,0,78,77,77,0,0,0,0,0,0,0,0,0,0,0,0,0,0,0,0,0,0,0,0,0,0,0,0,0,0,0,0,0,48.466179,-122.438988,0.04,89.4,24,2,1.0,0,0.0,-1,0.0,,0,0.0,0.2537
15243,1716156542828,0.254,,-0.01,0.03,-0.04,-0,0,-0,0.05,0.05,95,,,,,,,,,,,,,,,,,,,,,,,,,,,,,,,,,,,,,,,,,,,,,,,,,,,,,,,,,,,,,,,,,,,,,,,,,,,,,,,,,,,,,,,,,,,,,,,,,,,,,,,,,,,,,,,,,,,
15283,1716156542868,0.2547,,-0.01,0.03,-0.04,-0,0,-0,0.05,0.05,95,,,,,,,,,,,,,,,,,,,,,,,,,,,,,,,,,,,,,,,,,,,,,,,,,,,,,,,,,,,,,,,,,,,,,,,,,,,,,,,,,,,,,,,,,,,,,,,,,,,,,,,,,,,,,,,,,,,
15323,1716156542912,0.2554,,-0.01,0.03,-0.04,-0,1,-0,0.05,0.05,93,0,0,0,0,32,0,0,1,0,0,0,0,0,9,7,12,0.3,0,96,0,0,138,21,21,0,0,0,0,1,3,1,1,0,77,75,73,0,0,0,0,0,0,0,0,3,3,3,0,347,347,0,0,0,0,0,0,0,0,0,0,0,0,0,0,3,1,1,0,78,77,77,0,0,0,0,0,0,0,0,0,0,0,0,0,0,0,0,0,0,0,0,0,0,0,0,0,0,0,0,0,48.466175,-122.438988,0.05,89.2,24,2,1.0,0,0.0,-1,0.0,0.0,0,0.0,0.2554
15363,1716156542952,0.256,,-0.01,0.03,-0.04,-0,1,-0,0.05,0.05,93,,,,,,,,,,,,,,,,,,,,,,,,,,,,,,,,,,,,,,,,,,,,,,,,,,,,,,,,,,,,,,,,,,,,,,,,,,,,,,,,,,,,,,,,,,,,,,,,,,,,,,,,,,,,,,,,,,,
15403,1716156542992,0.2567,,-0.01,0.03,-0.04,-0,1,-0,0.05,0.05,94,,,,,,,,,,,,,,,,,,,,,,,,,,,,,,,,,,,,,,,,,,,,,,,,,,,,,,,,,,,,,,,,,,,,,,,,,,,,,,,,,,,,,,,,,,,,,,,,,,,,,,,,,,,,,,,,,,,
15423,1716156543004,0.257,,,,,,,,,,,0,0,0,0,32,0,0,1,0,0,0,0,0,9,7,12,0.3,0,96,0,0,138,21,21,0,0,0,0,1,3,1,1,0,77,75,73,0,0,0,0,0,0,0,0,3,3,3,0,347,347,0,0,0,0,0,0,0,0,0,0,0,0,0,0,3,1,1,0,78,77,77,0,0,0,0,0,0,0,0,0,0,0,0,0,0,0,0,0,0,0,0,0,0,0,0,0,0,0,0,0,48.466175,-122.438988,0.05,89.0,24,2,1.0,0,0.0,-1,0.0,,0,0.0,0.257
15443,1716156543024,0.2574,,-0.01,0.03,-0.04,-0,1,0,0.05,0.05,95,,,,,,,,,,,,,,,,,,,,,,,,,,,,,,,,,,,,,,,,,,,,,,,,,,,,,,,,,,,,,,,,,,,,,,,,,,,,,,,,,,,,,,,,,,,,,,,,,,,,,,,,,,,,,,,,,,,
15483,1716156543064,0.258,,-0.01,0.03,-0.04,-0,1,0,0.05,0.05,95,,,,,,,,,,,,,,,,,,,,,,,,,,,,,,,,,,,,,,,,,,,,,,,,,,,,,,,,,,,,,,,,,,,,,,,,,,,,,,,,,,,,,,,,,,,,,,,,,,,,,,,,,,,,,,,,,,,
15523,1716156543112,0.2587,,-0.01,0.03,-0.04,-0,1,0,0.05,0.05,95,0,0,0,0,32,0,0,1,0,0,0,0,0,9,7,12,0.4,0,96,0,0,138,21,21,0,0,0,0,1,3,1,1,0,77,75,73,0,0,0,0,0,0,0,0,3,3,3,0,347,347,0,0,0,0,0,0,0,0,0,0,0,0,0,0,3,1,1,0,78,77,77,0,0,0,0,0,0,0,0,0,0,0,0,0,0,0,0,0,0,0,0,0,0,0,0,0,0,0,0,0,48.466175,-122.438988,0.07,88.7,24,2,1.0,0,0.0,-1,0.0,0.0,0,0.0,0.2587
15563,1716156543152,0.2594,,-0.01,0.03,-0.04,-0,0,0,0.05,0.05,96,,,,,,,,,,,,,,,,,,,,,,,,,,,,,,,,,,,,,,,,,,,,,,,,,,,,,,,,,,,,,,,,,,,,,,,,,,,,,,,,,,,,,,,,,,,,,,,,,,,,,,,,,,,,,,,,,,,
15603,1716156543192,0.26,,-0.01,0.03,-0.04,-0,1,0,0.05,0.05,96,,,,,,,,,,,,,,,,,,,,,,,,,,,,,,,,,,,,,,,,,,,,,,,,,,,,,,,,,,,,,,,,,,,,,,,,,,,,,,,,,,,,,,,,,,,,,,,,,,,,,,,,,,,,,,,,,,,
15623,1716156543203,0.2604,,,,,,,,,,,0,0,0,0,32,0,0,1,0,0,0,0,0,9,7,12,0.3,0,96,0,0,138,21,21,0,0,0,0,1,3,1,1,0,77,75,73,0,0,0,0,0,0,0,3,1,1,0,78,77,73,0,0,0,0,0,0,0,0,0,0,0,0,0,0,3,1,1,0,78,77,77,0,0,0,0,0,0,0,0,0,0,0,0,0,0,0,0,0,0,0,0,0,0,0,0,0,0,0,0,0,48.466175,-122.439003,0.02,88.8,24,2,1.0,0,0.0,-1,0.0,,0,0.0,0.2604
15643,1716156543223,0.2607,,-0.01,0.03,-0.04,-0,0,0,0.05,0.05,96,,,,,,,,,,,,,,,,,,,,,,,,,,,,,,,,,,,,,,,,,,,,,,,,,,,,,,,,,,,,,,,,,,,,,,,,,,,,,,,,,,,,,,,,,,,,,,,,,,,,,,,,,,,,,,,,,,,
15683,1716156543263,0.2614,,-0.01,0.03,-0.04,-0,0,0,0.05,0.05,96,,,,,,,,,,,,,,,,,,,,,,,,,,,,,,,,,,,,,,,,,,,,,,,,,,,,,,,,,,,,,,,,,,,,,,,,,,,,,,,,,,,,,,,,,,,,,,,,,,,,,,,,,,,,,,,,,,,
15723,1716156543310,0.262,12.55,-0.01,0.03,-0.04,-0,1,0,0.05,0.05,97,0,0,0,0,32,0,0,1,0,0,0,0,0,9,7,12,0.3,0,96,0,0,138,21,21,0,0,0,0,1,3,1,1,0,77,75,73,0,0,0,0,0,0,0,3,1,1,0,78,77,73,0,0,0,0,0,0,0,0,0,0,0,0,0,0,3,1,1,0,78,77,77,0,0,0,0,0,0,0,0,0,0,0,0,0,0,0,0,0,0,0,0,0,0,0,0,0,0,0,0,0,48.466175,-122.438988,0.03,89.0,24,2,1.0,0,0.0,-1,0.0,0.0,0,0.0,0.262
15763,1716156543350,0.2627,,-0.01,0.03,-0.04,-0,0,-0,0.05,0.05,97,,,,,,,,,,,,,,,,,,,,,,,,,,,,,,,,,,,,,,,,,,,,,,,,,,,,,,,,,,,,,,,,,,,,,,,,,,,,,,,,,,,,,,,,,,,,,,,,,,,,,,,,,,,,,,,,,,,
15803,1716156543392,0.2634,,-0.01,0.03,-0.04,-0,0,-0,0.05,0.05,96,,,,,,,,,,,,,,,,,,,,,,,,,,,,,,,,,,,,,,,,,,,,,,,,,,,,,,,,,,,,,,,,,,,,,,,,,,,,,,,,,,,,,,,,,,,,,,,,,,,,,,,,,,,,,,,,,,,
15823,1716156543412,0.2637,,,,,,,,,,,0,0,0,0,32,0,0,1,0,0,0,0,0,9,7,12,0.3,0,96,0,0,138,21,21,0,0,0,0,1,3,1,1,0,77,75,73,0,0,0,0,0,0,0,3,1,1,0,78,77,73,0,0,0,0,0,0,0,0,0,0,0,0,0,0,3,1,1,0,78,77,77,0,0,0,0,0,0,0,0,0,0,0,0,0,0,0,0,0,0,0,0,0,0,0,0,0,0,0,0,0,48.466175,-122.439003,0.05,89.0,24,2,1.0,0,0.0,-1,0.0,,0,0.0,0.2637
15843,1716156543432,0.264,,-0.01,0.03,-0.04,-0,1,-0,0.05,0.05,96,,,,,,,,,,,,,,,,,,,,,,,,,,,,,,,,,,,,,,,,,,,,,,,,,,,,,,,,,,,,,,,,,,,,,,,,,,,,,,,,,,,,,,,,,,,,,,,,,,,,,,,,,,,,,,,,,,,
15883,1716156543472,0.2647,,-0.01,0.03,-0.04,-0,1,-0,0.05,0.05,97,,,,,,,,,,,,,,,,,,,,,,,,,,,,,,,,,,,,,,,,,,,,,,,,,,,,,,,,,,,,,,,,,,,,,,,,,,,,,,,,,,,,,,,,,,,,,,,,,,,,,,,,,,,,,,,,,,,
15923,1716156543508,0.2654,,-0.01,0.03,-0.04,-0,1,-0,0.05,0.05,96,0,0,0,0,32,0,0,1,0,0,0,0,0,9,7,12,0.3,0,96,0,0,138,21,21,0,0,0,0,1,3,1,1,0,77,75,73,0,0,0,0,0,0,0,3,1,1,0,78,77,73,0,0,0,0,0,0,0,0,0,0,0,0,0,0,0,3,3,3,1,349,349,0,0,0,0,0,0,0,0,0,0,0,0,0,0,0,0,0,0,0,0,0,0,0,0,0,0,0,0,0,48.466175,-122.439003,0.02,89.0,24,2,1.0,0,0.0,-1,0.0,0.0,0,0.0,0.2654
15963,1716156543548,0.266,,-0.01,0.03,-0.04,-0,0,0,0.05,0.05,95,,,,,,,,,,,,,,,,,,,,,,,,,,,,,,,,,,,,,,,,,,,,,,,,,,,,,,,,,,,,,,,,,,,,,,,,,,,,,,,,,,,,,,,,,,,,,,,,,,,,,,,,,,,,,,,,,,,
16003,1716156543588,0.2667,,-0.01,0.03,-0.04,-0,0,-0,0.05,0.05,95,,,,,,,,,,,,,,,,,,,,,,,,,,,,,,,,,,,,,,,,,,,,,,,,,,,,,,,,,,,,,,,,,,,,,,,,,,,,,,,,,,,,,,,,,,,,,,,,,,,,,,,,,,,,,,,,,,,
16023,1716156543610,0.267,,,,,,,,,,,0,0,0,0,32,0,0,1,0,0,0,0,0,9,7,12,0.3,0,96,0,0,138,21,21,0,0,0,0,1,3,1,1,0,77,75,73,0,0,0,0,0,0,0,3,1,1,0,78,77,73,0,0,0,0,0,0,0,0,0,0,0,0,0,0,0,3,3,3,1,349,349,0,0,0,0,0,0,0,0,0,0,0,0,0,0,0,0,0,0,0,0,0,0,0,0,0,0,0,0,0,48.466175,-122.439003,0.05,88.9,24,2,1.0,0,0.0,-1,0.0,,0,0.0,0.267
16043,1716156543630,0.2674,,-0.01,0.03,-0.04,-0,0,-0,0.05,0.05,96,,,,,,,,,,,,,,,,,,,,,,,,,,,,,,,,,,,,,,,,,,,,,,,,,,,,,,,,,,,,,,,,,,,,,,,,,,,,,,,,,,,,,,,,,,,,,,,,,,,,,,,,,,,,,,,,,,,
16083,1716156543670,0.268,,-0.01,0.03,-0.04,-0,0,-0,0.05,0.05,97,,,,,,,,,,,,,,,,,,,,,,,,,,,,,,,,,,,,,,,,,,,,,,,,,,,,,,,,,,,,,,,,,,,,,,,,,,,,,,,,,,,,,,,,,,,,,,,,,,,,,,,,,,,,,,,,,,,
16123,1716156543708,0.2687,,-0.01,0.03,-0.04,-0,0,-0,0.05,0.05,97,0,0,0,0,32,0,0,1,0,0,0,0,0,9,7,12,0.4,0,96,0,0,138,21,21,0,0,0,0,1,3,1,1,0,77,75,73,0,0,0,0,0,0,0,3,1,1,0,78,77,73,0,0,0,0,0,0,0,0,0,0,0,0,0,0,0,3,3,3,1,349,349,0,0,0,0,0,0,0,0,0,0,0,0,0,0,0,0,0,0,0,0,0,0,0,0,0,0,0,0,0,48.466175,-122.439003,0.02,88.7,24,2,1.0,0,0.0,-1,0.0,0.0,0,0.0,0.2687
16163,1716156543748,0.2694,,-0.01,0.03,-0.02,-0,1,-0,0.04,0.05,71,,,,,,,,,,,,,,,,,,,,,,,,,,,,,,,,,,,,,,,,,,,,,,,,,,,,,,,,,,,,,,,,,,,,,,,,,,,,,,,,,,,,,,,,,,,,,,,,,,,,,,,,,,,,,,,,,,,
16203,1716156543788,0.27,,-0.01,0.03,-0.02,-0,1,-0,0.04,0.05,74,,,,,,,,,,,,,,,,,,,,,,,,,,,,,,,,,,,,,,,,,,,,,,,,,,,,,,,,,,,,,,,,,,,,,,,,,,,,,,,,,,,,,,,,,,,,,,,,,,,,,,,,,,,,,,,,,,,
16223,1716156543809,0.2704,,,,,,,,,,,0,0,0,0,32,0,0,1,0,0,0,0,0,9,7,12,0.4,0,96,0,0,138,21,21,0,0,0,0,1,3,1,1,0,77,75,73,0,0,0,0,0,0,0,3,1,1,0,78,77,73,0,0,0,0,0,0,0,0,0,0,0,0,0,0,0,3,3,3,1,349,349,0,0,0,0,0,0,0,0,0,0,0,0,0,0,0,0,0,0,0,0,0,0,0,0,0,0,0,0,0,48.466175,-122.439003,0.17,88.9,24,2,1.0,0,0.0,-1,0.0,,0,0.0,0.2704
16243,1716156543829,0.2707,,-0.01,0.03,-0.03,-0,1,-0,0.04,0.05,78,,,,,,,,,,,,,,,,,,,,,,,,,,,,,,,,,,,,,,,,,,,,,,,,,,,,,,,,,,,,,,,,,,,,,,,,,,,,,,,,,,,,,,,,,,,,,,,,,,,,,,,,,,,,,,,,,,,
16283,1716156543869,0.2714,,-0.01,0.03,-0.03,-0,1,-0,0.04,0.05,81,,,,,,,,,,,,,,,,,,,,,,,,,,,,,,,,,,,,,,,,,,,,,,,,,,,,,,,,,,,,,,,,,,,,,,,,,,,,,,,,,,,,,,,,,,,,,,,,,,,,,,,,,,,,,,,,,,,
16323,1716156543911,0.272,,-0.01,0.03,-0.03,-0,1,-0,0.05,0.05,84,0,0,0,0,32,0,0,1,0,0,0,0,0,9,7,12,0.4,0,96,0,0,138,21,21,0,0,0,0,1,3,1,1,0,77,75,73,0,0,0,0,0,0,0,3,1,1,0,78,77,73,0,0,0,0,0,0,0,0,0,0,0,0,0,0,0,3,3,3,1,349,349,0,0,0,0,0,0,0,0,0,0,0,0,0,0,0,0,0,0,0,0,0,0,0,0,0,0,0,0,0,48.466175,-122.439003,0.21,89.3,24,2,1.0,0,0.0,-1,0.0,0.0,0,0.0,0.272
16363,1716156543951,0.2727,,-0.01,0.03,-0.03,-0,1,-0,0.05,0.05,88,,,,,,,,,,,,,,,,,,,,,,,,,,,,,,,,,,,,,,,,,,,,,,,,,,,,,,,,,,,,,,,,,,,,,,,,,,,,,,,,,,,,,,,,,,,,,,,,,,,,,,,,,,,,,,,,,,,
16403,1716156543991,0.2734,,-0.01,0.03,-0.03,-0,1,-0,0.05,0.05,90,,,,,,,,,,,,,,,,,,,,,,,,,,,,,,,,,,,,,,,,,,,,,,,,,,,,,,,,,,,,,,,,,,,,,,,,,,,,,,,,,,,,,,,,,,,,,,,,,,,,,,,,,,,,,,,,,,,
16423,1716156544006,0.2737,,,,,,,,,,,0,0,0,0,32,0,0,1,0,0,0,0,0,9,7,12,0.3,0,96,0,0,138,21,21,0,0,0,0,1,3,1,1,0,77,75,73,0,0,0,0,0,0,0,3,1,1,0,78,77,73,0,0,0,0,0,0,0,0,0,0,0,0,0,0,0,3,3,3,1,349,349,0,0,0,0,0,0,0,0,0,0,0,0,0,0,0,0,0,0,0,0,0,0,0,0,0,0,0,0,0,48.466175,-122.439003,0.02,89.7,24,2,1.0,0,0.0,-1,0.0,,0,0.0,0.2737
16443,1716156544026,0.274,,-0.01,0.03,-0.03,-0,1,-0,0.05,0.05,91,,,,,,,,,,,,,,,,,,,,,,,,,,,,,,,,,,,,,,,,,,,,,,,,,,,,,,,,,,,,,,,,,,,,,,,,,,,,,,,,,,,,,,,,,,,,,,,,,,,,,,,,,,,,,,,,,,,
16483,1716156544066,0.2747,,-0.01,0.03,-0.04,-0,1,-0,0.05,0.05,92,,,,,,,,,,,,,,,,,,,,,,,,,,,,,,,,,,,,,,,,,,,,,,,,,,,,,,,,,,,,,,,,,,,,,,,,,,,,,,,,,,,,,,,,,,,,,,,,,,,,,,,,,,,,,,,,,,,
16523,1716156544107,0.2754,,-0.01,0.03,-0.04,-0,1,-0,0.05,0.05,93,0,0,0,0,32,0,0,1,0,0,0,0,0,9,7,12,0.3,0,96,0,0,138,21,21,0,0,0,0,1,3,1,1,0,77,75,73,0,0,0,0,0,0,0,3,1,1,0,78,77,73,0,0,0,0,0,0,0,0,0,0,0,0,0,0,0,3,3,3,1,349,349,0,0,0,0,0,0,0,0,0,0,0,0,0,0,0,0,0,0,0,0,0,0,0,0,0,0,0,0,0,48.466175,-122.439003,0.05,89.9,24,2,1.0,0,0.0,-1,0.0,0.0,0,0.0,0.2754
16563,1716156544147,0.276,,-0.01,0.03,-0.04,-0,1,-0,0.05,0.05,94,,,,,,,,,,,,,,,,,,,,,,,,,,,,,,,,,,,,,,,,,,,,,,,,,,,,,,,,,,,,,,,,,,,,,,,,,,,,,,,,,,,,,,,,,,,,,,,,,,,,,,,,,,,,,,,,,,,
16603,1716156544191,0.2767,,-0.01,0.03,-0.04,-0,1,-0,0.05,0.05,96,,,,,,,,,,,,,,,,,,,,,,,,,,,,,,,,,,,,,,,,,,,,,,,,,,,,,,,,,,,,,,,,,,,,,,,,,,,,,,,,,,,,,,,,,,,,,,,,,,,,,,,,,,,,,,,,,,,
16623,1716156544211,0.277,,,,,,,,,,,0,0,0,0,32,0,0,1,0,0,0,0,0,9,7,12,0.3,0,96,0,0,138,21,21,0,0,0,0,1,3,1,1,0,77,75,73,0,0,0,0,0,0,0,3,1,1,0,78,77,73,0,0,0,0,0,0,0,0,0,0,0,0,0,0,0,3,3,3,1,349,349,0,0,0,0,0,0,0,0,0,0,0,0,0,0,0,0,0,0,0,0,0,0,0,0,0,0,0,0,0,48.466175,-122.439003,0.09,90.0,24,2,1.0,0,0.0,-1,0.0,,0,0.0,0.277
16643,1716156544231,0.2774,,-0.01,0.03,-0.04,-0,1,-0,0.05,0.05,94,,,,,,,,,,,,,,,,,,,,,,,,,,,,,,,,,,,,,,,,,,,,,,,,,,,,,,,,,,,,,,,,,,,,,,,,,,,,,,,,,,,,,,,,,,,,,,,,,,,,,,,,,,,,,,,,,,,
16683,1716156544271,0.278,,-0.02,0.03,-0.04,-0,1,-0,0.05,0.05,98,,,,,,,,,,,,,,,,,,,,,,,,,,,,,,,,,,,,,,,,,,,,,,,,,,,,,,,,,,,,,,,,,,,,,,,,,,,,,,,,,,,,,,,,,,,,,,,,,,,,,,,,,,,,,,,,,,,
16723,1716156544311,0.2787,12.5,-0.01,0.03,-0.04,-0,1,-0,0.05,0.05,99,0,0,0,0,32,0,0,1,0,0,0,0,0,9,7,12,0.3,0,96,0,0,138,21,21,0,0,0,0,1,3,1,1,0,77,75,73,0,0,0,0,0,0,0,3,1,1,0,78,77,73,0,0,0,0,0,0,0,0,0,0,0,0,0,0,0,3,3,3,1,349,349,0,0,0,0,0,0,0,0,0,0,0,0,0,0,0,0,0,0,0,0,0,0,0,0,0,0,0,0,0,48.466175,-122.439003,0.02,89.9,24,2,1.0,0,0.0,-1,0.0,0.0,0,0.0,0.2787
16763,1716156544351,0.2794,,-0.01,0.03,-0.04,-0,1,-0,0.05,0.05,100,,,,,,,,,,,,,,,,,,,,,,,,,,,,,,,,,,,,,,,,,,,,,,,,,,,,,,,,,,,,,,,,,,,,,,,,,,,,,,,,,,,,,,,,,,,,,,,,,,,,,,,,,,,,,,,,,,,
16803,1716156544391,0.28,,-0.01,0.03,-0.04,-0,1,-0,0.05,0.05,100,,,,,,,,,,,,,,,,,,,,,,,,,,,,,,,,,,,,,,,,,,,,,,,,,,,,,,,,,,,,,,,,,,,,,,,,,,,,,,,,,,,,,,,,,,,,,,,,,,,,,,,,,,,,,,,,,,,
16823,1716156544411,0.2804,,,,,,,,,,,0,0,0,0,32,0,0,1,0,0,0,0,0,9,7,12,0.3,0,96,0,0,138,21,21,0,0,0,0,1,3,1,1,0,77,75,73,0,0,0,0,0,0,0,3,1,1,0,78,77,73,0,0,0,0,0,0,0,0,0,0,0,0,0,0,0,3,3,3,1,349,349,0,0,0,0,0,0,0,0,0,0,0,0,0,0,0,0,0,0,0,0,0,0,0,0,0,0,0,0,0,48.466171,-122.439003,0.05,89.8,24,2,1.0,0,0.0,-1,0.0,,0,0.0,0.2804
16843,1716156544431,0.2807,,-0.02,0.03,-0.04,-0,1,-0,0.05,0.05,99,,,,,,,,,,,,,,,,,,,,,,,,,,,,,,,,,,,,,,,,,,,,,,,,,,,,,,,,,,,,,,,,,,,,,,,,,,,,,,,,,,,,,,,,,,,,,,,,,,,,,,,,,,,,,,,,,,,
16883,1716156544471,0.2814,,-0.01,0.03,-0.04,-0,1,-0,0.05,0.05,98,,,,,,,,,,,,,,,,,,,,,,,,,,,,,,,,,,,,,,,,,,,,,,,,,,,,,,,,,,,,,,,,,,,,,,,,,,,,,,,,,,,,,,,,,,,,,,,,,,,,,,,,,,,,,,,,,,,
16923,1716156544509,0.2821,,-0.01,0.03,-0.04,-0,1,-0,0.05,0.05,99,0,0,0,0,32,0,0,1,0,0,0,0,0,9,7,12,0.3,0,96,0,0,138,21,21,0,0,0,0,1,3,1,1,0,77,75,73,0,0,0,0,0,0,0,3,1,1,0,78,77,73,0,0,0,0,0,0,0,0,0,0,0,0,0,0,3,1,1,0,78,77,77,0,0,0,0,0,0,0,0,0,0,0,0,0,0,0,0,0,0,0,0,0,0,0,0,0,0,0,0,0,48.466171,-122.439003,0.12,89.9,24,2,1.0,0,0.0,-1,0.0,0.0,0,0.0,0.2821
16963,1716156544549,0.2827,,-0.01,0.03,-0.04,-0,1,-0,0.05,0.05,97,,,,,,,,,,,,,,,,,,,,,,,,,,,,,,,,,,,,,,,,,,,,,,,,,,,,,,,,,,,,,,,,,,,,,,,,,,,,,,,,,,,,,,,,,,,,,,,,,,,,,,,,,,,,,,,,,,,
17003,1716156544589,0.2834,,-0.01,0.03,-0.04,-0,1,-0,0.05,0.05,97,,,,,,,,,,,,,,,,,,,,,,,,,,,,,,,,,,,,,,,,,,,,,,,,,,,,,,,,,,,,,,,,,,,,,,,,,,,,,,,,,,,,,,,,,,,,,,,,,,,,,,,,,,,,,,,,,,,
17023,1716156544609,0.2837,,,,,,,,,,,0,0,0,0,32,0,0,1,0,0,0,0,0,9,7,12,0.3,0,96,0,0,138,21,21,0,0,0,0,1,3,1,1,0,77,75,73,0,0,0,0,0,0,0,3,1,1,0,78,77,73,0,0,0,0,0,0,0,0,0,0,0,0,0,0,3,1,1,0,78,77,77,0,0,0,0,0,0,0,0,0,0,0,0,0,0,0,0,0,0,0,0,0,0,0,0,0,0,0,0,0,48.466171,-122.439003,0.11,89.8,24,2,1.0,0,0.0,-1,0.0,,0,0.0,0.2837
17043,1716156544629,0.284,,-0.01,0.03,-0.04,-0,1,-0,0.05,0.05,98,,,,,,,,,,,,,,,,,,,,,,,,,,,,,,,,,,,,,,,,,,,,,,,,,,,,,,,,,,,,,,,,,,,,,,,,,,,,,,,,,,,,,,,,,,,,,,,,,,,,,,,,,,,,,,,,,,,
17083,1716156544669,0.2847,,-0.01,0.03,-0.04,-0,1,-0,0.05,0.05,96,,,,,,,,,,,,,,,,,,,,,,,,,,,,,,,,,,,,,,,,,,,,,,,,,,,,,,,,,,,,,,,,,,,,,,,,,,,,,,,,,,,,,,,,,,,,,,,,,,,,,,,,,,,,,,,,,,,
17123,1716156544709,0.2854,,-0.01,0.03,-0.04,-0,1,-0,0.05,0.05,95,0,0,0,0,32,0,0,1,0,0,0,0,0,9,7,12,0.3,0,96,0,0,138,21,21,0,0,0,0,1,3,1,1,0,77,75,73,0,0,0,0,0,0,0,3,1,1,0,78,77,73,0,0,0,0,0,0,0,0,0,0,0,0,0,0,3,1,1,0,78,77,77,0,0,0,0,0,0,0,0,0,0,0,0,0,0,0,0,0,0,0,0,0,0,0,0,0,0,0,0,0,48.466171,-122.439003,0.08,90.0,24,2,1.0,0,0.0,-1,0.0,0.0,0,0.0,0.2854
17163,1716156544749,0.286,,-0.01,0.03,-0.04,-0,1,-0,0.05,0.05,95,,,,,,,,,,,,,,,,,,,,,,,,,,,,,,,,,,,,,,,,,,,,,,,,,,,,,,,,,,,,,,,,,,,,,,,,,,,,,,,,,,,,,,,,,,,,,,,,,,,,,,,,,,,,,,,,,,,
17203,1716156544789,0.2867,,-0.01,0.03,-0.04,-0,1,-0,0.05,0.05,94,,,,,,,,,,,,,,,,,,,,,,,,,,,,,,,,,,,,,,,,,,,,,,,,,,,,,,,,,,,,,,,,,,,,,,,,,,,,,,,,,,,,,,,,,,,,,,,,,,,,,,,,,,,,,,,,,,,
17223,1716156544809,0.287,,,,,,,,,,,0,0,0,0,32,0,0,1,0,0,0,0,0,9,7,12,0.3,0,96,0,0,138,21,21,0,0,0,0,1,3,1,1,0,77,75,73,0,0,0,0,0,0,0,3,1,1,0,78,77,73,0,0,0,0,0,0,0,0,0,0,0,0,0,0,3,1,1,0,78,77,77,0,0,0,0,0,0,0,0,0,0,0,0,0,0,0,0,0,0,0,0,0,0,0,0,0,0,0,0,0,48.466171,-122.439003,0.05,90.1,24,2,1.0,0,0.0,-1,0.0,,0,0.0,0.287
17243,1716156544829,0.2874,,-0.01,0.03,-0.04,-0,1,-0,0.05,0.05,96,,,,,,,,,,,,,,,,,,,,,,,,,,,,,,,,,,,,,,,,,,,,,,,,,,,,,,,,,,,,,,,,,,,,,,,,,,,,,,,,,,,,,,,,,,,,,,,,,,,,,,,,,,,,,,,,,,,
17283,1716156544869,0.288,,-0.01,0.03,-0.04,-0,0,-0,0.05,0.05,96,,,,,,,,,,,,,,,,,,,,,,,,,,,,,,,,,,,,,,,,,,,,,,,,,,,,,,,,,,,,,,,,,,,,,,,,,,,,,,,,,,,,,,,,,,,,,,,,,,,,,,,,,,,,,,,,,,,
