"Interval"|"ms"|0|0|1,"Utc"|"ms"|0|0|1,"ElapsedTime"|"Min"|0.0|0.0|10,"Battery"|"Volts"|0.0|20.0|1,"AccelX"|"G"|-3.0|3.0|25,"AccelY"|"G"|-3.0|3.0|25,"AccelZ"|"G"|-3.0|3.0|25,"Yaw"|"Deg/Sec"|-120|120|25,"Pitch"|"Deg/Sec"|-120|120|25,"Roll"|"Deg/Sec"|-120|120|25,"Gsum"|"G"|0.0|3.0|25,"GsumMax"|"G"|0.0|3.0|25,"GsumPct"|"%"|0|100|25,"INV_CmdedTo"|""|-3277|3277|10,"VCU_Inv_Ena"|""|0|1|10,"VCU_Torque_"|""|-3277|3277|10,"INVHiRunFau"|""|0|65535|10,"INVHiPostFa"|""|0|65535|10,"INVLoRunFau"|""|0|65535|10,"INVLoPostFa"|""|0|65535|10,"InvDirCom"|""|0|1|10,"InverterEna"|""|0|1|10,"AirStatus"|""|0|1|10,"Inv_RunMode"|""|0|1|10,"Inv_CmdMode"|""|0|1|10,"PrechargeSt"|""|0|1|10,"InvState"|""|0|255|10,"VSMState"|""|0|15|10,"PWM_Frequen"|""|0|255|10,"DCBusV"|""|-3277|3277|10,"DCBusI"|""|-3277|3277|10,"Delta_Resol"|""|-3277|3277|10,"Motor_Speed"|""|-32768|32767|10,"Torque_Shud"|""|-3277|3277|10,"MotorTemp"|""|-3277|3277|10,"INV_HotSpot"|""|-3277|3277|10,"INV_Coolant"|""|-3277|3277|10,"APPS1"|""|-32768|32767|10,"APPS2"|""|-32768|32767|10,"c_apps"|""|-32768|32767|10,"Faultcode"|""|0|4|10,"BMS2_Vmax"|""|0|5000|10,"BMS2_Vavg"|""|0|5000|10,"BMS2_Vmin"|""|0|5000|10,"BMS2_Tmax"|""|0|5000|10,"BMS6_Vmax"|""|0|5000|10,"BMS6_Vavg"|""|0|5000|10,"BMS6_Vmin"|""|0|5000|10,"BMS6_Tmax"|""|0|5000|10,"BMS6_Tmax"|""|0|5000|10,"BMS6_Vmax"|""|0|5000|10,"BMS6_Vavg"|""|0|5000|10,"BMS6_Vmin"|""|0|5000|10,"Latitude"|"Degrees"|-180.0|180.0|10,"Longitude"|"Degrees"|-180.0|180.0|10,"Speed"|"mph"|0.0|150.0|10,"Altitude"|"ft"|0.0|4000.0|10,"GPSSats"|""|0|20|10,"GPSQual"|""|0|5|10,"GPSDOP"|""|0.0|20.0|10,"LapCount"|""|0|0|10,"LapTime"|"Min"|0.0|0.0|10,"Sector"|""|0|0|10,"SectorTime"|"Min"|0.0|0.0|10,"PredTime"|"Min"|0.0|0.0|5,"CurrentLap"|""|0|0|10,"Distance"|"mi"|0.0|0.0|10,"SessionTime"|"Min"|0.0|0.0|10
1865,0,0.0311,,-0.01,0.03,-0.04,0,1,0,0.05,0.05,90,,,,,,,,,,,,,,,,,,,,,,,,,,,,,,,,,,,,,,,,,,,,,,,,,,,,,,,
1905,0,0.0318,,-0.01,0.03,-0.04,0,1,0,0.05,0.05,91,,,,,,,,,,,,,,,,,,,,,,,,,,,,,,,,,,,,,,,,,,,,,,,,,,,,,,,
1925,0,0.0321,,,,,,,,,,,0,0,0,0,0,0,0,1,0,0,0,0,1,9,2,12,0,0,118,0,0,138,4,4,0,0,0,0,0,0,0,0,0,0,0,0,0,0,0,0,0.0,0.0,0.0,0.0,0,0,0.0,0,0.0,-1,0.0,,0,0.0,0.0321
1945,0,0.0324,,-0.01,0.03,-0.04,0,1,0,0.05,0.05,92,,,,,,,,,,,,,,,,,,,,,,,,,,,,,,,,,,,,,,,,,,,,,,,,,,,,,,,
1985,0,0.0331,,-0.01,0.03,-0.04,-0,1,0,0.05,0.05,93,,,,,,,,,,,,,,,,,,,,,,,,,,,,,,,,,,,,,,,,,,,,,,,,,,,,,,,
2025,0,0.0338,,-0.01,0.03,-0.04,0,1,0,0.05,0.05,94,0,0,0,0,0,0,0,1,0,0,0,0,1,9,2,12,0,0,118,0,0,138,4,4,0,0,0,0,0,0,0,0,0,0,0,0,0,0,0,0,0.0,0.0,0.0,0.0,0,0,0.0,0,0.0,-1,0.0,0.0,0,0.0,0.0338
2065,0,0.0344,,-0.01,0.03,-0.04,-0,1,0,0.05,0.05,93,,,,,,,,,,,,,,,,,,,,,,,,,,,,,,,,,,,,,,,,,,,,,,,,,,,,,,,
2105,0,0.0351,,-0.01,0.03,-0.04,-0,1,0,0.05,0.05,95,,,,,,,,,,,,,,,,,,,,,,,,,,,,,,,,,,,,,,,,,,,,,,,,,,,,,,,
2125,0,0.0354,,,,,,,,,,,0,0,0,0,0,0,0,1,0,0,0,0,1,9,2,12,0,0,118,0,0,138,4,4,0,0,0,0,0,0,0,0,0,0,0,0,0,0,0,0,0.0,0.0,0.0,0.0,0,0,0.0,0,0.0,-1,0.0,,0,0.0,0.0354
2145,0,0.0358,,-0.01,0.03,-0.04,-0,1,0,0.05,0.05,95,,,,,,,,,,,,,,,,,,,,,,,,,,,,,,,,,,,,,,,,,,,,,,,,,,,,,,,
2185,0,0.0364,,-0.01,0.03,-0.04,0,1,0,0.05,0.05,94,,,,,,,,,,,,,,,,,,,,,,,,,,,,,,,,,,,,,,,,,,,,,,,,,,,,,,,
2225,0,0.0371,,-0.01,0.03,-0.04,0,1,0,0.05,0.05,94,0,0,0,0,0,0,0,1,0,0,0,0,1,9,2,12,0,0,118,0,0,138,4,4,0,0,0,0,0,0,0,0,0,0,0,0,0,0,0,0,0.0,0.0,0.0,0.0,0,0,0.0,0,0.0,-1,0.0,0.0,0,0.0,0.0371
2265,0,0.0377,,-0.01,0.03,-0.04,0,1,0,0.05,0.05,94,,,,,,,,,,,,,,,,,,,,,,,,,,,,,,,,,,,,,,,,,,,,,,,,,,,,,,,
2305,0,0.0384,,-0.01,0.03,-0.04,0,1,0,0.05,0.05,95,,,,,,,,,,,,,,,,,,,,,,,,,,,,,,,,,,,,,,,,,,,,,,,,,,,,,,,
2325,0,0.0388,,,,,,,,,,,0,0,0,0,0,0,0,1,0,0,0,0,1,9,2,12,0,0,118,0,0,138,4,4,0,0,0,0,0,0,0,0,0,0,0,0,0,0,0,0,0.0,0.0,0.0,0.0,0,0,0.0,0,0.0,-1,0.0,,0,0.0,0.0388
2345,0,0.0391,,-0.01,0.03,-0.04,0,1,0,0.05,0.05,94,,,,,,,,,,,,,,,,,,,,,,,,,,,,,,,,,,,,,,,,,,,,,,,,,,,,,,,
2385,0,0.0398,,-0.01,0.03,-0.04,0,1,0,0.05,0.05,94,,,,,,,,,,,,,,,,,,,,,,,,,,,,,,,,,,,,,,,,,,,,,,,,,,,,,,,
2425,0,0.0404,,-0.01,0.03,-0.04,0,1,0,0.05,0.05,93,0,0,0,0,0,0,0,1,0,0,0,0,1,9,2,12,0,0,118,0,0,138,5,5,0,0,0,0,0,0,0,0,0,0,0,0,0,0,0,0,0.0,0.0,0.0,0.0,0,0,0.0,0,0.0,-1,0.0,0.0,0,0.0,0.0404
2465,0,0.0411,,-0.01,0.03,-0.04,0,1,0,0.05,0.05,94,,,,,,,,,,,,,,,,,,,,,,,,,,,,,,,,,,,,,,,,,,,,,,,,,,,,,,,
2505,0,0.0418,,-0.01,0.03,-0.04,-0,1,0,0.05,0.05,94,,,,,,,,,,,,,,,,,,,,,,,,,,,,,,,,,,,,,,,,,,,,,,,,,,,,,,,
2525,0,0.0421,,,,,,,,,,,0,0,0,0,0,0,0,1,0,0,0,0,1,9,2,12,0,0,118,0,0,138,5,5,0,0,0,0,0,0,0,0,0,0,0,0,0,0,0,0,0.0,0.0,0.0,0.0,0,0,0.0,0,0.0,-1,0.0,,0,0.0,0.0421
2545,0,0.0424,,-0.01,0.03,-0.04,-0,1,0,0.05,0.05,95,,,,,,,,,,,,,,,,,,,,,,,,,,,,,,,,,,,,,,,,,,,,,,,,,,,,,,,
2585,0,0.0431,,-0.01,0.03,-0.04,-0,1,-0,0.05,0.05,95,,,,,,,,,,,,,,,,,,,,,,,,,,,,,,,,,,,,,,,,,,,,,,,,,,,,,,,
2625,0,0.0438,12.12,-0.01,0.03,-0.04,-0,1,-0,0.05,0.05,93,0,0,0,0,0,0,0,1,0,0,0,0,1,9,2,12,0,0,118,0,0,138,5,5,0,0,0,0,0,0,0,0,0,0,0,0,0,0,0,0,0.0,0.0,0.0,0.0,0,0,0.0,0,0.0,-1,0.0,0.0,0,0.0,0.0438
2665,0,0.0444,,-0.01,0.03,-0.04,-0,1,0,0.05,0.05,94,,,,,,,,,,,,,,,,,,,,,,,,,,,,,,,,,,,,,,,,,,,,,,,,,,,,,,,
2705,0,0.0451,,-0.01,0.03,-0.04,-0,1,0,0.05,0.05,95,,,,,,,,,,,,,,,,,,,,,,,,,,,,,,,,,,,,,,,,,,,,,,,,,,,,,,,
2725,0,0.0454,,,,,,,,,,,0,0,0,0,0,0,0,1,0,0,0,0,1,9,2,12,0,0,118,0,0,138,5,5,0,0,0,0,0,0,0,0,0,0,0,0,0,0,0,0,0.0,0.0,0.0,0.0,0,0,0.0,0,0.0,-1,0.0,,0,0.0,0.0454
2745,0,0.0458,,-0.01,0.03,-0.04,-0,1,0,0.05,0.05,94,,,,,,,,,,,,,,,,,,,,,,,,,,,,,,,,,,,,,,,,,,,,,,,,,,,,,,,
2785,0,0.0464,,-0.01,0.03,-0.04,-0,1,0,0.05,0.05,94,,,,,,,,,,,,,,,,,,,,,,,,,,,,,,,,,,,,,,,,,,,,,,,,,,,,,,,
2825,0,0.0471,,-0.01,0.03,-0.04,-0,1,-0,0.05,0.05,92,0,0,0,0,0,0,0,1,0,0,0,0,1,9,2,12,0,0,118,0,0,138,6,6,0,0,0,0,0,0,0,0,0,0,0,0,0,0,0,0,0.0,0.0,0.0,0.0,0,0,0.0,0,0.0,-1,0.0,0.0,0,0.0,0.0471
2865,0,0.0478,,-0.01,0.03,-0.04,-0,1,-0,0.05,0.05,91,,,,,,,,,,,,,,,,,,,,,,,,,,,,,,,,,,,,,,,,,,,,,,,,,,,,,,,
2905,0,0.0484,,-0.01,0.03,-0.04,0,1,-0,0.05,0.05,91,,,,,,,,,,,,,,,,,,,,,,,,,,,,,,,,,,,,,,,,,,,,,,,,,,,,,,,
2925,0,0.0487,,,,,,,,,,,0,0,0,0,0,0,0,1,0,0,0,0,1,9,2,12,0,0,118,0,0,138,6,6,0,0,0,0,0,0,0,0,0,0,0,0,0,0,0,0,0.0,0.0,0.0,0.0,0,0,0.0,0,0.0,-1,0.0,,0,0.0,0.0487
2945,0,0.0491,,-0.01,0.03,-0.04,0,1,-0,0.05,0.05,93,,,,,,,,,,,,,,,,,,,,,,,,,,,,,,,,,,,,,,,,,,,,,,,,,,,,,,,
2985,0,0.0498,,-0.01,0.03,-0.04,-0,1,-0,0.05,0.05,93,,,,,,,,,,,,,,,,,,,,,,,,,,,,,,,,,,,,,,,,,,,,,,,,,,,,,,,
3025,0,0.0504,,-0.01,0.03,-0.04,-0,1,-0,0.05,0.05,91,0,0,0,0,0,0,0,1,0,0,0,0,1,9,2,12,0,0,118,0,0,138,6,6,0,0,0,0,0,0,0,0,0,0,0,0,0,0,0,0,0.0,0.0,0.0,0.0,0,0,0.0,0,0.0,-1,0.0,0.0,0,0.0,0.0504
3065,0,0.0511,,-0.01,0.03,-0.04,-0,1,0,0.05,0.05,92,,,,,,,,,,,,,,,,,,,,,,,,,,,,,,,,,,,,,,,,,,,,,,,,,,,,,,,
3105,0,0.0518,,-0.01,0.03,-0.04,-0,1,0,0.05,0.05,92,,,,,,,,,,,,,,,,,,,,,,,,,,,,,,,,,,,,,,,,,,,,,,,,,,,,,,,
3125,0,0.0521,,,,,,,,,,,0,0,0,0,0,0,0,1,0,0,0,0,1,9,2,12,0,0,118,0,0,138,6,6,0,0,0,0,0,0,0,0,0,0,0,0,0,0,0,0,0.0,0.0,0.0,0.0,0,0,0.0,0,0.0,-1,0.0,,0,0.0,0.0521
3145,0,0.0524,,-0.01,0.03,-0.04,-0,1,0,0.05,0.05,93,,,,,,,,,,,,,,,,,,,,,,,,,,,,,,,,,,,,,,,,,,,,,,,,,,,,,,,
3185,0,0.0531,,-0.01,0.03,-0.04,0,1,0,0.05,0.05,93,,,,,,,,,,,,,,,,,,,,,,,,,,,,,,,,,,,,,,,,,,,,,,,,,,,,,,,
3225,0,0.0538,,-0.01,0.03,-0.04,0,1,0,0.05,0.05,93,0,0,0,0,32,0,0,1,0,0,0,0,0,9,7,12,0,0,118,0,0,138,6,6,0,0,0,0,0,0,0,0,0,0,0,0,0,0,0,0,0.0,0.0,0.0,0.0,0,0,0.0,0,0.0,-1,0.0,0.0,0,0.0,0.0538
3265,0,0.0544,,-0.01,0.03,-0.04,0,1,0,0.05,0.05,92,,,,,,,,,,,,,,,,,,,,,,,,,,,,,,,,,,,,,,,,,,,,,,,,,,,,,,,
3305,0,0.0551,,-0.01,0.03,-0.04,0,1,0,0.05,0.05,92,,,,,,,,,,,,,,,,,,,,,,,,,,,,,,,,,,,,,,,,,,,,,,,,,,,,,,,
3325,0,0.0554,,,,,,,,,,,0,0,0,0,32,0,0,1,0,0,0,0,0,9,7,12,0,0,118,0,0,138,7,7,0,0,0,0,0,0,0,0,0,0,0,0,0,0,0,0,0.0,0.0,0.0,0.0,0,0,0.0,0,0.0,-1,0.0,,0,0.0,0.0554
3345,0,0.0558,,-0.01,0.03,-0.04,0,1,0,0.05,0.05,93,,,,,,,,,,,,,,,,,,,,,,,,,,,,,,,,,,,,,,,,,,,,,,,,,,,,,,,
3385,0,0.0564,,-0.01,0.03,-0.04,-0,1,0,0.05,0.05,91,,,,,,,,,,,,,,,,,,,,,,,,,,,,,,,,,,,,,,,,,,,,,,,,,,,,,,,
3425,0,0.0571,,-0.01,0.03,-0.04,-0,1,0,0.05,0.05,91,0,0,0,0,32,0,0,1,0,0,0,0,0,9,7,12,0,0,118,0,0,138,7,7,0,0,0,0,0,0,0,0,0,0,0,0,0,0,0,0,0.0,0.0,0.0,0.0,0,0,0.0,0,0.0,-1,0.0,0.0,0,0.0,0.0571
3465,0,0.0578,,-0.01,0.03,-0.04,-0,1,0,0.05,0.05,93,,,,,,,,,,,,,,,,,,,,,,,,,,,,,,,,,,,,,,,,,,,,,,,,,,,,,,,
3505,0,0.0584,,-0.01,0.03,-0.04,0,1,0,0.05,0.05,93,,,,,,,,,,,,,,,,,,,,,,,,,,,,,,,,,,,,,,,,,,,,,,,,,,,,,,,
3525,0,0.0588,,,,,,,,,,,0,0,0,0,32,0,0,1,0,0,0,0,0,9,7,12,0,0,118,0,0,138,7,7,0,0,0,0,0,0,0,0,0,0,0,0,0,0,0,0,0.0,0.0,0.0,0.0,0,0,0.0,0,0.0,-1,0.0,,0,0.0,0.0588
3545,0,0.0591,,-0.01,0.03,-0.04,-0,1,0,0.05,0.05,92,,,,,,,,,,,,,,,,,,,,,,,,,,,,,,,,,,,,,,,,,,,,,,,,,,,,,,,
3585,0,0.0598,,-0.01,0.03,-0.04,-0,1,0,0.05,0.05,93,,,,,,,,,,,,,,,,,,,,,,,,,,,,,,,,,,,,,,,,,,,,,,,,,,,,,,,
3625,0,0.0604,12.25,-0.01,0.03,-0.04,-0,1,0,0.05,0.05,92,0,0,0,0,32,0,0,1,0,0,0,0,0,9,7,12,0,0,118,0,0,138,7,7,0,0,0,0,0,0,0,0,0,0,0,0,0,0,0,0,0.0,0.0,0.0,0.0,0,0,0.0,0,0.0,-1,0.0,0.0,0,0.0,0.0604
3665,0,0.0611,,-0.01,0.03,-0.04,-0,1,0,0.05,0.05,94,,,,,,,,,,,,,,,,,,,,,,,,,,,,,,,,,,,,,,,,,,,,,,,,,,,,,,,
3705,0,0.0618,,-0.01,0.03,-0.04,-0,1,0,0.05,0.05,93,,,,,,,,,,,,,,,,,,,,,,,,,,,,,,,,,,,,,,,,,,,,,,,,,,,,,,,
3725,0,0.0621,,,,,,,,,,,0,0,0,0,32,0,0,1,0,0,0,0,0,9,7,12,0,0,118,0,0,138,8,8,0,0,0,0,0,0,0,0,0,0,0,0,0,0,0,0,0.0,0.0,0.0,0.0,0,0,0.0,0,0.0,-1,0.0,,0,0.0,0.0621
3745,0,0.0624,,-0.01,0.03,-0.04,-0,1,0,0.05,0.05,93,,,,,,,,,,,,,,,,,,,,,,,,,,,,,,,,,,,,,,,,,,,,,,,,,,,,,,,
3785,0,0.0631,,-0.01,0.03,-0.04,-0,1,0,0.05,0.05,95,,,,,,,,,,,,,,,,,,,,,,,,,,,,,,,,,,,,,,,,,,,,,,,,,,,,,,,
3825,0,0.0638,,-0.01,0.03,-0.04,-0,1,0,0.05,0.05,94,0,0,0,0,32,0,0,1,0,0,0,0,0,9,7,12,0,0,118,0,0,138,8,8,0,0,0,0,0,0,0,0,0,0,0,0,0,0,0,0,0.0,0.0,0.0,0.0,0,0,0.0,0,0.0,-1,0.0,0.0,0,0.0,0.0638
3865,0,0.0644,,-0.01,0.03,-0.04,-0,1,-0,0.05,0.05,94,,,,,,,,,,,,,,,,,,,,,,,,,,,,,,,,,,,,,,,,,,,,,,,,,,,,,,,
3905,0,0.0651,,-0.01,0.03,-0.04,-0,1,-0,0.05,0.05,92,,,,,,,,,,,,,,,,,,,,,,,,,,,,,,,,,,,,,,,,,,,,,,,,,,,,,,,
3925,0,0.0654,,,,,,,,,,,0,0,0,0,32,0,0,1,0,0,0,0,0,9,7,12,0,0,118,0,0,138,8,8,0,0,0,0,0,0,0,0,0,0,0,0,0,0,0,0,0.0,0.0,0.0,0.0,0,0,0.0,0,0.0,-1,0.0,,0,0.0,0.0654
3945,0,0.0658,,-0.01,0.03,-0.04,0,0,-0,0.05,0.05,94,,,,,,,,,,,,,,,,,,,,,,,,,,,,,,,,,,,,,,,,,,,,,,,,,,,,,,,
3985,0,0.0664,,-0.01,0.03,-0.04,-0,1,-0,0.05,0.05,93,,,,,,,,,,,,,,,,,,,,,,,,,,,,,,,,,,,,,,,,,,,,,,,,,,,,,,,
4025,0,0.0671,,-0.01,0.03,-0.04,-0,1,0,0.05,0.05,93,0,0,0,0,0,0,0,1,0,0,0,0,0,9,0,12,0,0,118,0,0,138,8,8,0,0,0,0,0,0,0,0,0,0,0,0,0,0,0,0,0.0,0.0,0.0,0.0,0,0,0.0,0,0.0,-1,0.0,0.0,0,0.0,0.0671
4065,0,0.0678,,-0.01,0.03,-0.04,0,1,0,0.05,0.05,96,,,,,,,,,,,,,,,,,,,,,,,,,,,,,,,,,,,,,,,,,,,,,,,,,,,,,,,
4105,0,0.0684,,-0.01,0.03,-0.04,0,1,-0,0.05,0.05,96,,,,,,,,,,,,,,,,,,,,,,,,,,,,,,,,,,,,,,,,,,,,,,,,,,,,,,,
4125,0,0.0688,,,,,,,,,,,0,0,0,0,0,0,0,1,0,0,0,0,1,9,2,12,4,0,118,0,0,138,8,8,0,0,0,0,0,0,0,0,0,0,0,0,0,0,0,0,0.0,0.0,0.0,0.0,0,0,0.0,0,0.0,-1,0.0,,0,0.0,0.0688
4145,0,0.0691,,-0.01,0.03,-0.04,0,1,-0,0.05,0.05,96,,,,,,,,,,,,,,,,,,,,,,,,,,,,,,,,,,,,,,,,,,,,,,,,,,,,,,,
4185,0,0.0698,,-0.01,0.03,-0.04,0,1,0,0.05,0.05,95,,,,,,,,,,,,,,,,,,,,,,,,,,,,,,,,,,,,,,,,,,,,,,,,,,,,,,,
4225,0,0.0704,,-0.01,0.03,-0.04,0,1,0,0.05,0.05,94,0,0,0,0,0,0,0,1,0,0,0,0,1,9,2,12,107,0,118,0,0,138,8,8,0,0,0,0,0,0,0,0,0,0,0,0,0,0,0,0,0.0,0.0,0.0,0.0,0,0,0.0,0,0.0,-1,0.0,0.0,0,0.0,0.0704
4265,0,0.0711,,-0.01,0.03,-0.04,0,1,0,0.05,0.05,94,,,,,,,,,,,,,,,,,,,,,,,,,,,,,,,,,,,,,,,,,,,,,,,,,,,,,,,
4305,0,0.0718,,-0.01,0.03,-0.04,0,1,0,0.05,0.05,95,,,,,,,,,,,,,,,,,,,,,,,,,,,,,,,,,,,,,,,,,,,,,,,,,,,,,,,
4325,0,0.0721,,,,,,,,,,,0,0,0,0,0,0,0,1,0,0,0,0,1,9,2,12,185,0,118,0,0,138,9,9,0,0,0,0,0,0,0,0,0,0,0,0,0,0,0,0,0.0,0.0,0.0,0.0,0,0,0.0,0,0.0,-1,0.0,,0,0.0,0.0721
4345,0,0.0724,,-0.01,0.03,-0.04,0,1,0,0.05,0.05,96,,,,,,,,,,,,,,,,,,,,,,,,,,,,,,,,,,,,,,,,,,,,,,,,,,,,,,,
4385,0,0.0731,,-0.01,0.03,-0.04,0,1,0,0.05,0.05,93,,,,,,,,,,,,,,,,,,,,,,,,,,,,,,,,,,,,,,,,,,,,,,,,,,,,,,,
4425,0,0.0737,,-0.01,0.03,-0.04,0,1,0,0.05,0.05,94,0,0,0,0,0,0,0,1,0,0,0,0,1,9,2,12,244,0,118,0,0,138,9,9,0,0,0,0,0,0,0,0,0,0,0,0,0,0,0,0,0.0,0.0,0.0,0.0,0,0,0.0,0,0.0,-1,0.0,0.0,0,0.0,0.0737
4465,0,0.0744,,-0.01,0.03,-0.04,0,1,0,0.05,0.05,95,,,,,,,,,,,,,,,,,,,,,,,,,,,,,,,,,,,,,,,,,,,,,,,,,,,,,,,
4505,0,0.0751,,-0.01,0.03,-0.04,0,1,0,0.05,0.05,96,,,,,,,,,,,,,,,,,,,,,,,,,,,,,,,,,,,,,,,,,,,,,,,,,,,,,,,
4525,0,0.0754,,,,,,,,,,,0,0,0,0,0,0,0,1,0,0,0,0,1,9,2,12,288,0,118,0,0,138,9,9,0,0,0,0,0,0,0,0,0,0,0,0,0,0,0,0,0.0,0.0,0.0,0.0,0,0,0.0,0,0.0,-1,0.0,,0,0.0,0.0754
4545,0,0.0758,,-0.01,0.03,-0.04,0,1,0,0.05,0.05,95,,,,,,,,,,,,,,,,,,,,,,,,,,,,,,,,,,,,,,,,,,,,,,,,,,,,,,,
4585,0,0.0764,,-0.01,0.03,-0.04,0,1,0,0.05,0.05,95,,,,,,,,,,,,,,,,,,,,,,,,,,,,,,,,,,,,,,,,,,,,,,,,,,,,,,,
4625,0,0.0771,12.16,-0.01,0.03,-0.04,0,1,0,0.05,0.05,95,0,0,0,0,0,0,0,1,0,0,0,0,1,9,2,12,316,0,118,0,0,138,9,9,0,0,0,0,0,0,0,0,0,0,0,0,0,0,0,0,0.0,0.0,0.0,0.0,0,0,0.0,0,0.0,-1,0.0,0.0,0,0.0,0.0771
4665,0,0.0778,,-0.01,0.03,-0.04,0,1,0,0.05,0.05,96,,,,,,,,,,,,,,,,,,,,,,,,,,,,,,,,,,,,,,,,,,,,,,,,,,,,,,,
4705,0,0.0784,,-0.01,0.03,-0.04,0,1,0,0.05,0.05,96,,,,,,,,,,,,,,,,,,,,,,,,,,,,,,,,,,,,,,,,,,,,,,,,,,,,,,,
4725,0,0.0788,,,,,,,,,,,0,0,0,0,0,0,0,1,0,0,0,0,1,9,2,12,343,0,118,0,0,138,9,9,0,0,0,0,0,0,0,0,0,0,0,0,0,0,0,0,0.0,0.0,0.0,0.0,0,0,0.0,0,0.0,-1,0.0,,0,0.0,0.0788
4745,0,0.0791,,-0.01,0.03,-0.04,0,1,0,0.05,0.05,94,,,,,,,,,,,,,,,,,,,,,,,,,,,,,,,,,,,,,,,,,,,,,,,,,,,,,,,
4785,0,0.0798,,-0.01,0.03,-0.04,0,1,0,0.05,0.05,95,,,,,,,,,,,,,,,,,,,,,,,,,,,,,,,,,,,,,,,,,,,,,,,,,,,,,,,
4825,0,0.0804,,-0.01,0.03,-0.04,0,1,0,0.05,0.05,93,0,0,0,0,0,0,0,1,0,0,0,0,1,9,2,12,364,0,118,0,0,138,9,9,0,0,0,0,0,0,0,0,0,0,0,0,0,0,0,0,0.0,0.0,0.0,0.0,0,0,0.0,0,0.0,-1,0.0,0.0,0,0.0,0.0804
4865,0,0.0811,,-0.01,0.03,-0.04,0,1,0,0.05,0.05,93,,,,,,,,,,,,,,,,,,,,,,,,,,,,,,,,,,,,,,,,,,,,,,,,,,,,,,,
4905,0,0.0818,,-0.01,0.03,-0.04,0,1,0,0.05,0.05,94,,,,,,,,,,,,,,,,,,,,,,,,,,,,,,,,,,,,,,,,,,,,,,,,,,,,,,,
4925,0,0.0821,,,,,,,,,,,0,0,0,0,0,0,0,1,0,0,0,0,1,9,2,12,379,0,118,0,0,138,9,9,0,0,0,0,0,0,0,0,0,0,0,0,0,0,0,0,0.0,0.0,0.0,0.0,0,0,0.0,0,0.0,-1,0.0,,0,0.0,0.0821
4945,0,0.0824,,-0.01,0.03,-0.04,0,1,0,0.05,0.05,94,,,,,,,,,,,,,,,,,,,,,,,,,,,,,,,,,,,,,,,,,,,,,,,,,,,,,,,
4985,0,0.0831,,-0.01,0.03,-0.04,0,1,0,0.05,0.05,94,,,,,,,,,,,,,,,,,,,,,,,,,,,,,,,,,,,,,,,,,,,,,,,,,,,,,,,
5025,0,0.0838,,-0.01,0.03,-0.04,0,1,0,0.05,0.05,94,0,0,0,0,0,0,0,1,0,0,0,0,1,9,2,12,389,0,118,0,0,138,10,10,0,0,0,0,0,0,0,0,0,0,0,0,0,0,0,0,0.0,0.0,0.0,0.0,0,0,0.0,0,0.0,-1,0.0,0.0,0,0.0,0.0838
5065,0,0.0844,,-0.01,0.03,-0.04,0,1,0,0.05,0.05,93,,,,,,,,,,,,,,,,,,,,,,,,,,,,,,,,,,,,,,,,,,,,,,,,,,,,,,,
5105,0,0.0851,,-0.01,0.03,-0.04,-0,1,0,0.05,0.05,91,,,,,,,,,,,,,,,,,,,,,,,,,,,,,,,,,,,,,,,,,,,,,,,,,,,,,,,
5125,0,0.0854,,,,,,,,,,,0,0,0,0,0,0,0,1,0,0,0,0,1,9,2,12,398,0,118,0,0,138,10,10,0,0,0,0,0,0,0,0,0,0,0,0,0,0,0,0,0.0,0.0,0.0,0.0,0,0,0.0,0,0.0,-1,0.0,,0,0.0,0.0854
5145,0,0.0858,,-0.01,0.03,-0.04,-0,1,0,0.05,0.05,91,,,,,,,,,,,,,,,,,,,,,,,,,,,,,,,,,,,,,,,,,,,,,,,,,,,,,,,
5185,0,0.0864,,-0.01,0.03,-0.04,-0,1,0,0.05,0.05,93,,,,,,,,,,,,,,,,,,,,,,,,,,,,,,,,,,,,,,,,,,,,,,,,,,,,,,,
5225,0,0.0871,,-0.01,0.03,-0.04,-0,1,0,0.05,0.05,93,0,0,0,0,0,0,0,1,0,0,0,0,1,9,2,12,405,0,118,0,0,138,10,10,0,0,0,0,0,0,0,0,0,0,0,0,0,0,0,0,0.0,0.0,0.0,0.0,0,0,0.0,0,0.0,-1,0.0,0.0,0,0.0,0.0871
5265,0,0.0878,,-0.01,0.03,-0.04,-0,1,0,0.05,0.05,91,,,,,,,,,,,,,,,,,,,,,,,,,,,,,,,,,,,,,,,,,,,,,,,,,,,,,,,
5305,0,0.0884,,-0.01,0.03,-0.04,-0,1,0,0.05,0.05,93,,,,,,,,,,,,,,,,,,,,,,,,,,,,,,,,,,,,,,,,,,,,,,,,,,,,,,,
5325,0,0.0888,,,,,,,,,,,0,0,0,0,0,0,0,1,0,1,0,0,0,9,3,12,410,0,118,0,0,138,10,10,0,0,0,0,0,0,0,0,0,0,0,0,0,0,0,0,0.0,0.0,0.0,0.0,0,0,0.0,0,0.0,-1,0.0,,0,0.0,0.0888
5345,0,0.0891,,-0.01,0.03,-0.04,-0,1,0,0.05,0.05,93,,,,,,,,,,,,,,,,,,,,,,,,,,,,,,,,,,,,,,,,,,,,,,,,,,,,,,,
5385,0,0.0898,,-0.01,0.03,-0.04,-0,1,0,0.05,0.05,91,,,,,,,,,,,,,,,,,,,,,,,,,,,,,,,,,,,,,,,,,,,,,,,,,,,,,,,
5425,0,0.0904,,-0.01,0.03,-0.04,-0,1,0,0.05,0.05,91,0,0,0,0,0,0,0,1,0,1,0,0,0,9,4,12,432,0,118,0,0,138,10,10,0,0,0,0,0,0,0,0,0,0,0,0,0,0,0,0,0.0,0.0,0.0,0.0,0,0,0.0,0,0.0,-1,0.0,0.0,0,0.0,0.0904
5465,0,0.0911,,-0.01,0.03,-0.04,-0,1,0,0.05,0.05,91,,,,,,,,,,,,,,,,,,,,,,,,,,,,,,,,,,,,,,,,,,,,,,,,,,,,,,,
5505,0,0.0918,,-0.01,0.03,-0.04,-0,1,0,0.05,0.05,92,,,,,,,,,,,,,,,,,,,,,,,,,,,,,,,,,,,,,,,,,,,,,,,,,,,,,,,
5525,0,0.0921,,,,,,,,,,,0,0,0,0,0,0,0,1,0,1,0,0,0,9,4,12,432,0,118,0,0,138,10,10,0,0,0,0,0,0,0,0,0,0,0,0,0,0,0,0,0.0,0.0,0.0,0.0,0,0,0.0,0,0.0,-1,0.0,,0,0.0,0.0921
5545,0,0.0924,,-0.01,0.03,-0.04,-0,1,0,0.05,0.05,93,,,,,,,,,,,,,,,,,,,,,,,,,,,,,,,,,,,,,,,,,,,,,,,,,,,,,,,
5585,0,0.0931,,-0.01,0.03,-0.04,-0,1,0,0.05,0.05,92,,,,,,,,,,,,,,,,,,,,,,,,,,,,,,,,,,,,,,,,,,,,,,,,,,,,,,,
5625,0,0.0938,12.12,-0.01,0.03,-0.04,-0,1,0,0.05,0.05,92,0,0,0,0,0,0,0,1,0,1,0,0,0,9,4,12,432,0,118,0,0,138,10,10,0,0,0,0,0,0,0,0,0,0,0,0,0,0,0,0,0.0,0.0,0.0,0.0,0,0,0.0,0,0.0,-1,0.0,0.0,0,0.0,0.0938
5665,0,0.0944,,-0.01,0.03,-0.04,-0,1,0,0.05,0.05,92,,,,,,,,,,,,,,,,,,,,,,,,,,,,,,,,,,,,,,,,,,,,,,,,,,,,,,,
5705,0,0.0951,,-0.01,0.03,-0.04,-0,1,0,0.05,0.05,91,,,,,,,,,,,,,,,,,,,,,,,,,,,,,,,,,,,,,,,,,,,,,,,,,,,,,,,
5725,0,0.0954,,,,,,,,,,,0,0,0,0,0,0,0,1,0,1,0,0,0,9,4,12,432,0,118,0,0,138,11,11,0,0,0,0,0,0,0,0,0,0,0,0,0,0,0,0,0.0,0.0,0.0,0.0,0,0,0.0,0,0.0,-1,0.0,,0,0.0,0.0954
5745,0,0.0957,,-0.01,0.03,-0.04,-0,1,0,0.05,0.05,89,,,,,,,,,,,,,,,,,,,,,,,,,,,,,,,,,,,,,,,,,,,,,,,,,,,,,,,
5785,0,0.0964,,-0.01,0.03,-0.04,-0,1,0,0.05,0.05,89,,,,,,,,,,,,,,,,,,,,,,,,,,,,,,,,,,,,,,,,,,,,,,,,,,,,,,,
5825,0,0.0971,,-0.01,0.03,-0.04,-0,1,0,0.05,0.05,90,0,0,0,0,0,0,0,1,0,1,0,0,0,9,4,12,432,0,118,0,0,138,11,11,0,0,0,0,0,0,0,0,0,0,0,0,0,0,0,0,0.0,0.0,0.0,0.0,0,0,0.0,0,0.0,-1,0.0,0.0,0,0.0,0.0971
5865,0,0.0978,,-0.01,0.03,-0.04,-0,1,0,0.05,0.05,91,,,,,,,,,,,,,,,,,,,,,,,,,,,,,,,,,,,,,,,,,,,,,,,,,,,,,,,
5905,0,0.0984,,-0.01,0.03,-0.04,-0,1,0,0.05,0.05,93,,,,,,,,,,,,,,,,,,,,,,,,,,,,,,,,,,,,,,,,,,,,,,,,,,,,,,,
5925,0,0.0988,,,,,,,,,,,0,0,0,0,0,0,0,1,0,1,0,0,0,9,4,12,432,0,118,0,0,138,11,11,0,0,0,0,0,0,0,0,0,0,0,0,0,0,0,0,0.0,0.0,0.0,0.0,0,0,0.0,0,0.0,-1,0.0,,0,0.0,0.0988
5945,0,0.0991,,-0.01,0.03,-0.04,-0,1,0,0.05,0.05,93,,,,,,,,,,,,,,,,,,,,,,,,,,,,,,,,,,,,,,,,,,,,,,,,,,,,,,,
5985,0,0.0998,,-0.01,0.03,-0.04,-0,1,0,0.05,0.05,94,,,,,,,,,,,,,,,,,,,,,,,,,,,,,,,,,,,,,,,,,,,,,,,,,,,,,,,
6025,0,0.1004,,-0.01,0.03,-0.04,-0,1,-0,0.05,0.05,94,0,0,0,0,0,0,0,1,0,1,0,0,0,9,4,12,432,0,118,0,0,138,11,11,0,0,0,0,0,0,0,0,0,0,0,0,0,0,0,0,0.0,0.0,0.0,0.0,0,0,0.0,0,0.0,-1,0.0,0.0,0,0.0,0.1004
6065,0,0.1011,,-0.01,0.03,-0.04,-0,1,-0,0.05,0.05,94,,,,,,,,,,,,,,,,,,,,,,,,,,,,,,,,,,,,,,,,,,,,,,,,,,,,,,,
6105,0,0.1018,,-0.01,0.03,-0.04,-0,1,0,0.05,0.05,94,,,,,,,,,,,,,,,,,,,,,,,,,,,,,,,,,,,,,,,,,,,,,,,,,,,,,,,
6125,0,0.1021,,,,,,,,,,,0,0,0,0,0,0,0,1,0,1,0,0,0,9,4,12,432,0,118,0,0,138,11,11,0,0,0,0,0,0,0,0,0,0,0,0,0,0,0,0,0.0,0.0,0.0,0.0,0,0,0.0,0,0.0,-1,0.0,,0,0.0,0.1021
6145,0,0.1024,,-0.01,0.03,-0.04,-0,1,-0,0.05,0.05,93,,,,,,,,,,,,,,,,,,,,,,,,,,,,,,,,,,,,,,,,,,,,,,,,,,,,,,,
6185,0,0.1031,,-0.01,0.03,-0.04,-0,1,-0,0.05,0.05,93,,,,,,,,,,,,,,,,,,,,,,,,,,,,,,,,,,,,,,,,,,,,,,,,,,,,,,,
6225,0,0.1038,,-0.01,0.03,-0.04,-0,1,0,0.05,0.05,93,0,0,0,0,0,0,0,1,0,1,0,0,0,9,4,12,432,0,118,0,0,138,11,11,0,0,0,0,0,0,0,0,0,0,0,0,0,0,0,0,0.0,0.0,0.0,0.0,0,0,0.0,0,0.0,-1,0.0,0.0,0,0.0,0.1038
6265,0,0.1044,,-0.01,0.03,-0.04,-0,1,0,0.05,0.05,93,,,,,,,,,,,,,,,,,,,,,,,,,,,,,,,,,,,,,,,,,,,,,,,,,,,,,,,
6305,0,0.1051,,-0.01,0.03,-0.04,0,1,0,0.05,0.05,93,,,,,,,,,,,,,,,,,,,,,,,,,,,,,,,,,,,,,,,,,,,,,,,,,,,,,,,
6325,0,0.1054,,,,,,,,,,,0,0,0,0,0,0,0,1,0,1,0,0,0,9,4,12,432,0,118,0,0,138,12,12,0,0,0,0,0,0,0,0,0,0,0,0,0,0,0,0,0.0,0.0,0.0,0.0,0,0,0.0,0,0.0,-1,0.0,,0,0.0,0.1054
6345,0,0.1058,,-0.01,0.03,-0.04,-0,1,0,0.05,0.05,93,,,,,,,,,,,,,,,,,,,,,,,,,,,,,,,,,,,,,,,,,,,,,,,,,,,,,,,
6385,0,0.1064,,-0.01,0.03,-0.04,0,1,0,0.05,0.05,92,,,,,,,,,,,,,,,,,,,,,,,,,,,,,,,,,,,,,,,,,,,,,,,,,,,,,,,
6425,0,0.1071,,-0.01,0.03,-0.04,0,1,-0,0.05,0.05,91,0,0,0,0,0,0,0,1,0,1,0,0,0,9,4,12,432,0,118,0,0,138,12,12,0,0,0,0,0,0,0,0,0,0,0,0,0,0,0,0,0.0,0.0,0.0,0.0,0,0,0.0,0,0.0,-1,0.0,0.0,0,0.0,0.1071
6465,0,0.1078,,-0.01,0.03,-0.04,-0,1,-0,0.05,0.05,93,,,,,,,,,,,,,,,,,,,,,,,,,,,,,,,,,,,,,,,,,,,,,,,,,,,,,,,
6505,0,0.1084,,-0.01,0.03,-0.04,-0,1,-0,0.05,0.05,93,,,,,,,,,,,,,,,,,,,,,,,,,,,,,,,,,,,,,,,,,,,,,,,,,,,,,,,
6525,0,0.1088,,,,,,,,,,,0,0,0,0,0,0,0,1,0,1,0,0,0,9,4,12,432,0,118,0,0,138,12,12,0,0,0,0,0,0,0,0,0,0,0,0,0,0,0,0,0.0,0.0,0.0,0.0,0,0,0.0,0,0.0,-1,0.0,,0,0.0,0.1088
6545,0,0.1091,,-0.01,0.03,-0.04,-0,1,0,0.05,0.05,92,,,,,,,,,,,,,,,,,,,,,,,,,,,,,,,,,,,,,,,,,,,,,,,,,,,,,,,
6585,0,0.1098,,-0.01,0.03,-0.04,-0,1,0,0.05,0.05,93,,,,,,,,,,,,,,,,,,,,,,,,,,,,,,,,,,,,,,,,,,,,,,,,,,,,,,,
6625,0,0.1104,12.16,-0.01,0.03,-0.04,-0,1,-0,0.05,0.05,93,0,0,0,0,0,0,0,1,0,1,0,0,0,9,4,12,432,0,118,0,0,138,12,12,0,0,0,0,0,0,0,0,0,0,0,0,0,0,0,0,0.0,0.0,0.0,0.0,0,0,0.0,0,0.0,-1,0.0,0.0,0,0.0,0.1104
6665,0,0.1111,,-0.01,0.03,-0.04,-0,1,0,0.05,0.05,94,,,,,,,,,,,,,,,,,,,,,,,,,,,,,,,,,,,,,,,,,,,,,,,,,,,,,,,
6705,0,0.1118,,-0.01,0.03,-0.04,-0,1,0,0.05,0.05,95,,,,,,,,,,,,,,,,,,,,,,,,,,,,,,,,,,,,,,,,,,,,,,,,,,,,,,,
6725,0,0.1121,,,,,,,,,,,0,0,0,0,0,0,0,1,0,1,0,0,0,9,4,12,432,0,118,0,0,138,12,12,0,0,0,0,0,0,0,0,0,0,0,0,0,0,0,0,0.0,0.0,0.0,0.0,0,0,0.0,0,0.0,-1,0.0,,0,0.0,0.1121
6745,0,0.1124,,-0.01,0.03,-0.04,-0,1,0,0.05,0.05,94,,,,,,,,,,,,,,,,,,,,,,,,,,,,,,,,,,,,,,,,,,,,,,,,,,,,,,,
6785,0,0.1131,,-0.01,0.03,-0.04,-0,1,0,0.05,0.05,94,,,,,,,,,,,,,,,,,,,,,,,,,,,,,,,,,,,,,,,,,,,,,,,,,,,,,,,
6825,0,0.1138,,-0.01,0.03,-0.04,-0,1,0,0.05,0.05,95,0,0,0,0,0,0,0,1,0,1,0,0,0,9,4,12,432,0,118,0,0,138,12,12,0,0,0,0,0,0,0,0,0,0,0,0,0,0,0,0,0.0,0.0,0.0,0.0,0,0,0.0,0,0.0,-1,0.0,0.0,0,0.0,0.1138
6865,0,0.1144,,-0.01,0.03,-0.04,-0,1,0,0.05,0.05,95,,,,,,,,,,,,,,,,,,,,,,,,,,,,,,,,,,,,,,,,,,,,,,,,,,,,,,,
6905,0,0.1151,,-0.01,0.03,-0.04,-0,1,0,0.05,0.05,94,,,,,,,,,,,,,,,,,,,,,,,,,,,,,,,,,,,,,,,,,,,,,,,,,,,,,,,
6925,0,0.1154,,,,,,,,,,,0,0,0,0,0,0,0,1,0,1,0,0,0,9,4,12,432,0,118,0,0,138,12,12,0,0,0,0,0,0,0,0,0,0,0,0,0,0,0,0,0.0,0.0,0.0,0.0,0,0,0.0,0,0.0,-1,0.0,,0,0.0,0.1154
6945,0,0.1158,,-0.01,0.03,-0.04,-0,1,0,0.05,0.05,92,,,,,,,,,,,,,,,,,,,,,,,,,,,,,,,,,,,,,,,,,,,,,,,,,,,,,,,
6985,0,0.1164,,-0.01,0.03,-0.04,-0,1,0,0.05,0.05,91,,,,,,,,,,,,,,,,,,,,,,,,,,,,,,,,,,,,,,,,,,,,,,,,,,,,,,,
7025,0,0.1171,,-0.01,0.03,-0.04,-0,1,0,0.05,0.05,92,0,0,0,0,0,0,0,1,0,1,0,0,0,9,4,12,432,0,118,0,0,138,12,12,0,0,0,0,0,0,0,0,0,0,0,0,0,0,0,0,0.0,0.0,0.0,0.0,0,0,0.0,0,0.0,-1,0.0,0.0,0,0.0,0.1171
7065,0,0.1178,,-0.01,0.03,-0.04,-0,1,0,0.05,0.05,91,,,,,,,,,,,,,,,,,,,,,,,,,,,,,,,,,,,,,,,,,,,,,,,,,,,,,,,
7105,0,0.1184,,-0.01,0.03,-0.04,-0,1,0,0.05,0.05,92,,,,,,,,,,,,,,,,,,,,,,,,,,,,,,,,,,,,,,,,,,,,,,,,,,,,,,,
7125,0,0.1188,,,,,,,,,,,0,0,0,0,0,0,0,1,0,1,0,0,0,9,4,12,432,0,118,0,0,138,12,12,0,0,0,0,0,0,0,0,0,0,0,0,0,0,0,0,0.0,0.0,0.0,0.0,0,0,0.0,0,0.0,-1,0.0,,0,0.0,0.1188
7145,0,0.1191,,-0.01,0.03,-0.04,-0,1,0,0.05,0.05,92,,,,,,,,,,,,,,,,,,,,,,,,,,,,,,,,,,,,,,,,,,,,,,,,,,,,,,,
7185,0,0.1198,,-0.01,0.03,-0.04,-0,1,0,0.05,0.05,93,,,,,,,,,,,,,,,,,,,,,,,,,,,,,,,,,,,,,,,,,,,,,,,,,,,,,,,
7225,0,0.1204,,-0.01,0.03,-0.04,-0,1,0,0.05,0.05,93,0,0,0,0,0,0,0,1,0,1,0,0,0,9,4,12,432,0,118,0,0,138,13,13,0,0,0,0,0,0,0,0,0,0,0,0,0,0,0,0,0.0,0.0,0.0,0.0,0,0,0.0,0,0.0,-1,0.0,0.0,0,0.0,0.1204
7265,0,0.1211,,-0.01,0.03,-0.04,-0,1,0,0.05,0.05,92,,,,,,,,,,,,,,,,,,,,,,,,,,,,,,,,,,,,,,,,,,,,,,,,,,,,,,,
7305,0,0.1218,,-0.01,0.03,-0.04,-0,1,0,0.05,0.05,92,,,,,,,,,,,,,,,,,,,,,,,,,,,,,,,,,,,,,,,,,,,,,,,,,,,,,,,
7325,0,0.1221,,,,,,,,,,,0,0,0,0,0,0,0,1,0,1,0,0,0,9,4,12,432,0,118,0,0,138,13,13,0,0,0,0,0,0,0,0,0,0,0,0,0,0,0,0,0.0,0.0,0.0,0.0,0,0,0.0,0,0.0,-1,0.0,,0,0.0,0.1221
7345,0,0.1224,,-0.01,0.03,-0.04,-0,1,0,0.05,0.05,94,,,,,,,,,,,,,,,,,,,,,,,,,,,,,,,,,,,,,,,,,,,,,,,,,,,,,,,
7385,0,0.1231,,-0.01,0.03,-0.04,-0,1,0,0.05,0.05,94,,,,,,,,,,,,,,,,,,,,,,,,,,,,,,,,,,,,,,,,,,,,,,,,,,,,,,,
7425,0,0.1238,,-0.01,0.03,-0.04,-0,1,0,0.05,0.05,93,0,0,0,0,0,0,0,1,0,1,0,0,0,9,4,12,432,0,118,0,0,138,13,13,0,0,0,0,0,0,0,0,0,0,0,0,0,0,0,0,0.0,0.0,0.0,0.0,0,0,0.0,0,0.0,-1,0.0,0.0,0,0.0,0.1238
7465,0,0.1244,,-0.01,0.03,-0.04,-0,1,0,0.05,0.05,94,,,,,,,,,,,,,,,,,,,,,,,,,,,,,,,,,,,,,,,,,,,,,,,,,,,,,,,
7505,0,0.1251,,-0.01,0.03,-0.04,-0,1,0,0.05,0.05,94,,,,,,,,,,,,,,,,,,,,,,,,,,,,,,,,,,,,,,,,,,,,,,,,,,,,,,,
7525,0,0.1254,,,,,,,,,,,0,0,0,0,0,0,0,1,0,1,0,0,0,9,4,12,432,0,118,0,0,138,13,13,0,0,0,0,0,0,0,0,0,0,0,0,0,0,0,0,0.0,0.0,0.0,0.0,0,0,0.0,0,0.0,-1,0.0,,0,0.0,0.1254
7545,0,0.1258,,-0.01,0.03,-0.04,-0,1,0,0.05,0.05,95,,,,,,,,,,,,,,,,,,,,,,,,,,,,,,,,,,,,,,,,,,,,,,,,,,,,,,,
7585,0,0.1264,,-0.01,0.03,-0.04,-0,1,0,0.05,0.05,93,,,,,,,,,,,,,,,,,,,,,,,,,,,,,,,,,,,,,,,,,,,,,,,,,,,,,,,
7625,0,0.1271,12.14,-0.01,0.03,-0.04,-0,1,0,0.05,0.05,92,0,0,0,0,0,0,0,1,0,1,0,0,0,9,4,12,432,0,118,0,0,138,13,13,0,0,0,0,0,0,0,0,0,0,0,0,0,0,0,0,0.0,0.0,0.0,0.0,0,0,0.0,0,0.0,-1,0.0,0.0,0,0.0,0.1271
7665,0,0.1278,,-0.01,0.03,-0.04,-0,1,0,0.05,0.05,92,,,,,,,,,,,,,,,,,,,,,,,,,,,,,,,,,,,,,,,,,,,,,,,,,,,,,,,
7705,0,0.1284,,-0.01,0.03,-0.04,-0,1,0,0.05,0.05,92,,,,,,,,,,,,,,,,,,,,,,,,,,,,,,,,,,,,,,,,,,,,,,,,,,,,,,,
7725,0,0.1288,,,,,,,,,,,0,0,0,0,0,0,0,1,0,1,0,0,0,9,4,12,432,0,118,0,0,138,13,13,0,0,0,0,0,0,0,0,0,0,0,0,0,0,0,0,0.0,0.0,0.0,0.0,0,0,0.0,0,0.0,-1,0.0,,0,0.0,0.1288
7745,0,0.1291,,-0.01,0.03,-0.04,-0,1,0,0.05,0.05,92,,,,,,,,,,,,,,,,,,,,,,,,,,,,,,,,,,,,,,,,,,,,,,,,,,,,,,,
7785,0,0.1298,,-0.01,0.03,-0.04,-0,1,0,0.05,0.05,92,,,,,,,,,,,,,,,,,,,,,,,,,,,,,,,,,,,,,,,,,,,,,,,,,,,,,,,
7825,0,0.1304,,-0.01,0.03,-0.04,-0,1,0,0.05,0.05,90,0,0,0,0,0,0,0,1,0,1,0,0,0,9,4,12,432,0,118,0,0,138,13,13,0,0,0,0,0,0,0,0,0,0,0,0,0,0,0,0,0.0,0.0,0.0,0.0,0,0,0.0,0,0.0,-1,0.0,0.0,0,0.0,0.1304
7865,0,0.1311,,-0.01,0.03,-0.04,-0,1,0,0.05,0.05,89,,,,,,,,,,,,,,,,,,,,,,,,,,,,,,,,,,,,,,,,,,,,,,,,,,,,,,,
7905,0,0.1318,,-0.01,0.03,-0.04,-0,1,0,0.05,0.05,89,,,,,,,,,,,,,,,,,,,,,,,,,,,,,,,,,,,,,,,,,,,,,,,,,,,,,,,
7925,0,0.1321,,,,,,,,,,,0,0,0,0,0,0,0,1,0,1,0,0,0,9,4,12,432,0,118,0,0,138,13,13,0,0,0,0,0,0,0,0,0,0,0,0,0,0,0,0,0.0,0.0,0.0,0.0,0,0,0.0,0,0.0,-1,0.0,,0,0.0,0.1321
7945,0,0.1324,,-0.01,0.03,-0.04,-0,1,0,0.05,0.05,90,,,,,,,,,,,,,,,,,,,,,,,,,,,,,,,,,,,,,,,,,,,,,,,,,,,,,,,
7985,0,0.1331,,-0.01,0.03,-0.04,-0,1,0,0.05,0.05,91,,,,,,,,,,,,,,,,,,,,,,,,,,,,,,,,,,,,,,,,,,,,,,,,,,,,,,,
8025,0,0.1338,,-0.01,0.03,-0.04,-0,1,0,0.05,0.05,90,0,0,0,0,0,0,0,1,0,1,0,0,0,9,4,12,432,0,118,0,0,138,14,14,0,0,0,0,0,0,0,0,0,0,0,0,0,0,0,0,0.0,0.0,0.0,0.0,0,0,0.0,0,0.0,-1,0.0,0.0,0,0.0,0.1338
8065,0,0.1344,,-0.01,0.03,-0.04,-0,1,0,0.05,0.05,92,,,,,,,,,,,,,,,,,,,,,,,,,,,,,,,,,,,,,,,,,,,,,,,,,,,,,,,
8105,0,0.1351,,-0.01,0.03,-0.04,-0,1,0,0.05,0.05,92,,,,,,,,,,,,,,,,,,,,,,,,,,,,,,,,,,,,,,,,,,,,,,,,,,,,,,,
8125,0,0.1354,,,,,,,,,,,0,0,0,0,0,0,0,1,0,1,0,0,0,9,4,12,432,0,118,0,0,138,14,14,0,0,0,0,0,0,0,0,0,0,0,0,0,0,0,0,0.0,0.0,0.0,0.0,0,0,0.0,0,0.0,-1,0.0,,0,0.0,0.1354
8145,0,0.1358,,-0.01,0.03,-0.04,-0,1,0,0.05,0.05,91,,,,,,,,,,,,,,,,,,,,,,,,,,,,,,,,,,,,,,,,,,,,,,,,,,,,,,,
8185,0,0.1364,,-0.01,0.03,-0.04,-0,1,0,0.05,0.05,91,,,,,,,,,,,,,,,,,,,,,,,,,,,,,,,,,,,,,,,,,,,,,,,,,,,,,,,
8225,0,0.1371,,-0.01,0.03,-0.04,-0,1,0,0.05,0.05,92,0,0,0,0,0,0,0,1,0,1,0,0,0,9,4,12,432,0,118,0,0,138,14,14,0,0,0,0,0,0,0,0,0,0,0,0,0,0,0,0,0.0,0.0,0.0,0.0,0,0,0.0,0,0.0,-1,0.0,0.0,0,0.0,0.1371
8265,0,0.1378,,-0.01,0.03,-0.04,-0,1,0,0.05,0.05,93,,,,,,,,,,,,,,,,,,,,,,,,,,,,,,,,,,,,,,,,,,,,,,,,,,,,,,,
8305,0,0.1384,,-0.01,0.03,-0.04,-0,1,0,0.05,0.05,93,,,,,,,,,,,,,,,,,,,,,,,,,,,,,,,,,,,,,,,,,,,,,,,,,,,,,,,
8325,0,0.1388,,,,,,,,,,,0,0,0,0,0,0,0,1,0,1,0,0,0,9,4,12,432,0,118,0,0,138,14,14,0,0,0,0,0,0,0,0,0,0,0,0,0,0,0,0,0.0,0.0,0.0,0.0,0,0,0.0,0,0.0,-1,0.0,,0,0.0,0.1388
8345,0,0.1391,,-0.01,0.03,-0.04,-0,1,0,0.05,0.05,93,,,,,,,,,,,,,,,,,,,,,,,,,,,,,,,,,,,,,,,,,,,,,,,,,,,,,,,
8385,0,0.1398,,-0.01,0.03,-0.04,-0,1,0,0.05,0.05,93,,,,,,,,,,,,,,,,,,,,,,,,,,,,,,,,,,,,,,,,,,,,,,,,,,,,,,,
8425,0,0.1404,,-0.01,0.03,-0.04,-0,1,0,0.05,0.05,94,0,0,0,0,0,0,0,1,0,1,0,0,0,9,4,12,432,0,118,0,0,138,14,14,0,0,0,0,0,0,0,0,0,0,0,0,0,0,0,0,0.0,0.0,0.0,0.0,0,0,0.0,0,0.0,-1,0.0,0.0,0,0.0,0.1404
8465,0,0.1411,,-0.01,0.03,-0.04,-0,1,0,0.05,0.05,93,,,,,,,,,,,,,,,,,,,,,,,,,,,,,,,,,,,,,,,,,,,,,,,,,,,,,,,
8505,0,0.1417,,-0.01,0.03,-0.04,-0,1,0,0.05,0.05,94,,,,,,,,,,,,,,,,,,,,,,,,,,,,,,,,,,,,,,,,,,,,,,,,,,,,,,,
8525,0,0.1421,,,,,,,,,,,0,0,0,0,0,0,0,1,0,1,0,0,0,9,4,12,432,0,118,0,0,138,14,14,0,0,0,0,0,0,0,0,0,0,0,0,0,0,0,0,0.0,0.0,0.0,0.0,0,0,0.0,0,0.0,-1,0.0,,0,0.0,0.1421
8545,0,0.1424,,-0.01,0.03,-0.04,-0,1,0,0.05,0.05,92,,,,,,,,,,,,,,,,,,,,,,,,,,,,,,,,,,,,,,,,,,,,,,,,,,,,,,,
8585,0,0.1431,,-0.01,0.03,-0.04,-0,1,0,0.05,0.05,92,,,,,,,,,,,,,,,,,,,,,,,,,,,,,,,,,,,,,,,,,,,,,,,,,,,,,,,
8625,0,0.1438,12.15,-0.01,0.03,-0.04,-0,1,0,0.05,0.05,93,0,0,0,0,0,0,0,1,0,1,0,0,0,9,4,12,432,0,118,0,0,138,14,14,0,0,0,0,0,0,0,0,0,0,0,0,0,0,0,0,0.0,0.0,0.0,0.0,0,0,0.0,0,0.0,-1,0.0,0.0,0,0.0,0.1438
8665,0,0.1444,,-0.01,0.03,-0.04,-0,1,0,0.05,0.05,93,,,,,,,,,,,,,,,,,,,,,,,,,,,,,,,,,,,,,,,,,,,,,,,,,,,,,,,
8705,0,0.1451,,-0.01,0.03,-0.04,-0,1,0,0.05,0.05,93,,,,,,,,,,,,,,,,,,,,,,,,,,,,,,,,,,,,,,,,,,,,,,,,,,,,,,,
8725,0,0.1454,,,,,,,,,,,0,0,0,0,0,0,0,1,0,1,0,0,0,9,4,12,432,0,118,0,0,138,14,14,0,0,0,0,0,0,0,0,0,0,0,0,0,0,0,0,0.0,0.0,0.0,0.0,0,0,0.0,0,0.0,-1,0.0,,0,0.0,0.1454
8745,0,0.1458,,-0.01,0.03,-0.04,-0,1,0,0.05,0.05,94,,,,,,,,,,,,,,,,,,,,,,,,,,,,,,,,,,,,,,,,,,,,,,,,,,,,,,,
8785,0,0.1464,,-0.01,0.03,-0.04,-0,1,0,0.05,0.05,94,,,,,,,,,,,,,,,,,,,,,,,,,,,,,,,,,,,,,,,,,,,,,,,,,,,,,,,
8825,0,0.1471,,-0.01,0.03,-0.04,-0,1,0,0.05,0.05,94,0,0,0,0,0,0,0,1,0,1,0,0,0,9,4,12,432,0,118,0,0,138,14,14,0,0,0,0,0,0,0,0,0,0,0,0,0,0,0,0,0.0,0.0,0.0,0.0,0,0,0.0,0,0.0,-1,0.0,0.0,0,0.0,0.1471
8865,0,0.1478,,-0.01,0.03,-0.04,-0,1,0,0.05,0.05,92,,,,,,,,,,,,,,,,,,,,,,,,,,,,,,,,,,,,,,,,,,,,,,,,,,,,,,,
8905,0,0.1484,,-0.01,0.03,-0.04,-0,1,0,0.05,0.05,92,,,,,,,,,,,,,,,,,,,,,,,,,,,,,,,,,,,,,,,,,,,,,,,,,,,,,,,
8925,0,0.1488,,,,,,,,,,,0,0,0,0,0,0,0,1,0,1,0,0,0,9,4,12,432,0,118,0,0,138,14,14,0,0,0,0,0,0,0,0,0,0,0,0,0,0,0,0,0.0,0.0,0.0,0.0,0,0,0.0,0,0.0,-1,0.0,,0,0.0,0.1488
8945,0,0.1491,,-0.01,0.03,-0.04,0,1,0,0.05,0.05,91,,,,,,,,,,,,,,,,,,,,,,,,,,,,,,,,,,,,,,,,,,,,,,,,,,,,,,,
8985,0,0.1498,,-0.01,0.03,-0.04,-0,1,-0,0.05,0.05,94,,,,,,,,,,,,,,,,,,,,,,,,,,,,,,,,,,,,,,,,,,,,,,,,,,,,,,,
9025,0,0.1504,,-0.01,0.03,-0.04,-0,1,0,0.05,0.05,95,0,0,0,0,0,0,0,1,0,1,0,0,0,9,4,12,432,0,118,0,0,138,14,14,0,0,0,0,0,0,0,0,0,0,0,0,0,0,0,0,0.0,0.0,0.0,0.0,0,0,0.0,0,0.0,-1,0.0,0.0,0,0.0,0.1504
9065,0,0.1511,,-0.01,0.03,-0.04,0,1,0,0.05,0.05,95,,,,,,,,,,,,,,,,,,,,,,,,,,,,,,,,,,,,,,,,,,,,,,,,,,,,,,,
9105,0,0.1518,,-0.01,0.03,-0.04,0,1,0,0.05,0.05,95,,,,,,,,,,,,,,,,,,,,,,,,,,,,,,,,,,,,,,,,,,,,,,,,,,,,,,,
9125,0,0.1521,,,,,,,,,,,0,0,0,0,0,0,0,1,0,1,0,0,0,9,4,12,432,0,118,0,0,138,14,14,0,0,0,0,0,0,0,0,0,0,0,0,0,0,0,0,0.0,0.0,0.0,0.0,0,0,0.0,0,0.0,-1,0.0,,0,0.0,0.1521
9145,0,0.1524,,-0.01,0.03,-0.04,-0,1,0,0.05,0.05,93,,,,,,,,,,,,,,,,,,,,,,,,,,,,,,,,,,,,,,,,,,,,,,,,,,,,,,,
9185,0,0.1531,,-0.01,0.03,-0.04,-0,1,0,0.05,0.05,94,,,,,,,,,,,,,,,,,,,,,,,,,,,,,,,,,,,,,,,,,,,,,,,,,,,,,,,
9225,0,0.1538,,-0.01,0.03,-0.04,-0,1,0,0.05,0.05,93,0,0,0,0,0,0,0,1,0,1,0,0,0,9,4,12,432,0,118,0,0,138,15,15,0,0,0,0,0,0,0,0,0,0,0,0,0,0,0,0,0.0,0.0,0.0,0.0,0,0,0.0,0,0.0,-1,0.0,0.0,0,0.0,0.1538
9265,0,0.1544,,-0.01,0.03,-0.04,-0,1,0,0.05,0.05,92,,,,,,,,,,,,,,,,,,,,,,,,,,,,,,,,,,,,,,,,,,,,,,,,,,,,,,,
9305,0,0.1551,,-0.01,0.03,-0.04,-0,1,0,0.05,0.05,92,,,,,,,,,,,,,,,,,,,,,,,,,,,,,,,,,,,,,,,,,,,,,,,,,,,,,,,
9325,0,0.1554,,,,,,,,,,,0,0,0,0,0,0,0,1,0,1,0,0,0,9,4,12,432,0,118,0,0,138,15,15,0,0,0,0,0,0,0,0,0,0,0,0,0,0,0,0,0.0,0.0,0.0,0.0,0,0,0.0,0,0.0,-1,0.0,,0,0.0,0.1554
9345,0,0.1558,,-0.01,0.03,-0.04,-0,1,0,0.05,0.05,93,,,,,,,,,,,,,,,,,,,,,,,,,,,,,,,,,,,,,,,,,,,,,,,,,,,,,,,
9385,0,0.1564,,-0.01,0.03,-0.04,-0,1,0,0.05,0.05,93,,,,,,,,,,,,,,,,,,,,,,,,,,,,,,,,,,,,,,,,,,,,,,,,,,,,,,,
9425,0,0.1571,,-0.01,0.03,-0.04,-0,1,0,0.05,0.05,94,0,0,0,0,0,0,0,1,0,1,0,0,0,9,4,12,432,0,118,0,0,138,15,15,0,0,0,0,0,0,0,0,0,0,0,0,0,0,0,0,0.0,0.0,0.0,0.0,0,0,0.0,0,0.0,-1,0.0,0.0,0,0.0,0.1571
9465,0,0.1578,,-0.01,0.03,-0.04,-0,1,0,0.05,0.05,95,,,,,,,,,,,,,,,,,,,,,,,,,,,,,,,,,,,,,,,,,,,,,,,,,,,,,,,
9505,0,0.1584,,-0.01,0.03,-0.04,-0,1,0,0.05,0.05,95,,,,,,,,,,,,,,,,,,,,,,,,,,,,,,,,,,,,,,,,,,,,,,,,,,,,,,,
9525,0,0.1588,,,,,,,,,,,0,0,0,0,0,0,0,1,0,1,0,0,0,9,4,12,432,0,118,0,0,138,15,15,0,0,0,0,0,0,0,0,0,0,0,0,0,0,0,0,0.0,0.0,0.0,0.0,0,0,0.0,0,0.0,-1,0.0,,0,0.0,0.1588
9545,0,0.1591,,-0.01,0.03,-0.04,-0,1,0,0.05,0.05,95,,,,,,,,,,,,,,,,,,,,,,,,,,,,,,,,,,,,,,,,,,,,,,,,,,,,,,,
9585,0,0.1598,,-0.01,0.03,-0.04,-0,1,0,0.05,0.05,94,,,,,,,,,,,,,,,,,,,,,,,,,,,,,,,,,,,,,,,,,,,,,,,,,,,,,,,
9625,0,0.1604,12.14,-0.01,0.03,-0.04,-0,1,0,0.05,0.05,95,0,0,0,0,0,0,0,1,0,1,0,0,0,9,4,12,432,0,118,0,0,138,15,15,0,0,0,0,0,0,0,0,0,0,0,0,0,0,0,0,0.0,0.0,0.0,0.0,0,0,0.0,0,0.0,-1,0.0,0.0,0,0.0,0.1604
9665,0,0.1611,,-0.01,0.03,-0.04,-0,1,0,0.05,0.05,94,,,,,,,,,,,,,,,,,,,,,,,,,,,,,,,,,,,,,,,,,,,,,,,,,,,,,,,
9705,0,0.1618,,-0.01,0.03,-0.04,-0,1,0,0.05,0.05,94,,,,,,,,,,,,,,,,,,,,,,,,,,,,,,,,,,,,,,,,,,,,,,,,,,,,,,,
9725,0,0.1621,,,,,,,,,,,0,0,0,0,0,0,0,1,0,1,0,0,0,9,4,12,432,0,118,0,0,138,15,15,0,0,0,0,0,0,0,0,0,0,0,0,0,0,0,0,0.0,0.0,0.0,0.0,0,0,0.0,0,0.0,-1,0.0,,0,0.0,0.1621
9745,0,0.1624,,-0.01,0.03,-0.04,-0,1,0,0.05,0.05,94,,,,,,,,,,,,,,,,,,,,,,,,,,,,,,,,,,,,,,,,,,,,,,,,,,,,,,,
9785,0,0.1631,,-0.01,0.03,-0.04,-0,1,0,0.05,0.05,94,,,,,,,,,,,,,,,,,,,,,,,,,,,,,,,,,,,,,,,,,,,,,,,,,,,,,,,
9825,0,0.1637,,-0.01,0.03,-0.04,-0,1,0,0.05,0.05,91,0,0,0,0,0,0,0,1,0,1,0,0,0,9,4,12,432,0,118,0,0,138,15,15,0,0,0,0,0,0,0,0,0,0,0,0,0,0,0,0,0.0,0.0,0.0,0.0,0,0,0.0,0,0.0,-1,0.0,0.0,0,0.0,0.1637
9865,0,0.1644,,-0.01,0.03,-0.04,-0,1,0,0.05,0.05,91,,,,,,,,,,,,,,,,,,,,,,,,,,,,,,,,,,,,,,,,,,,,,,,,,,,,,,,
9905,0,0.1651,,-0.01,0.03,-0.04,-0,1,0,0.05,0.05,92,,,,,,,,,,,,,,,,,,,,,,,,,,,,,,,,,,,,,,,,,,,,,,,,,,,,,,,
9925,0,0.1654,,,,,,,,,,,0,0,0,0,0,0,0,1,0,1,0,0,0,9,4,12,432,0,118,0,0,138,15,15,0,0,0,0,0,0,0,0,0,0,0,0,0,0,0,0,0.0,0.0,0.0,0.0,0,0,0.0,0,0.0,-1,0.0,,0,0.0,0.1654
9945,0,0.1658,,-0.01,0.03,-0.04,-0,1,0,0.05,0.05,92,,,,,,,,,,,,,,,,,,,,,,,,,,,,,,,,,,,,,,,,,,,,,,,,,,,,,,,
9985,0,0.1664,,-0.01,0.03,-0.04,-0,1,0,0.05,0.05,91,,,,,,,,,,,,,,,,,,,,,,,,,,,,,,,,,,,,,,,,,,,,,,,,,,,,,,,
10025,0,0.1671,,-0.01,0.03,-0.04,-0,1,0,0.05,0.05,92,0,0,0,0,0,0,0,1,0,1,0,0,0,9,4,12,432,0,118,0,0,138,15,15,0,0,0,0,0,0,0,0,0,0,0,0,0,0,0,0,0.0,0.0,0.0,0.0,0,0,0.0,0,0.0,-1,0.0,0.0,0,0.0,0.1671
10065,0,0.1678,,-0.01,0.03,-0.04,-0,1,0,0.05,0.05,92,,,,,,,,,,,,,,,,,,,,,,,,,,,,,,,,,,,,,,,,,,,,,,,,,,,,,,,
10105,0,0.1684,,-0.01,0.03,-0.04,-0,1,-0,0.05,0.05,93,,,,,,,,,,,,,,,,,,,,,,,,,,,,,,,,,,,,,,,,,,,,,,,,,,,,,,,
10125,0,0.1688,,,,,,,,,,,0,0,0,0,0,0,0,1,0,1,0,0,0,9,4,12,432,0,118,0,0,138,15,15,0,0,0,0,0,0,0,0,0,0,0,0,0,0,0,0,0.0,0.0,0.0,0.0,0,0,0.0,0,0.0,-1,0.0,,0,0.0,0.1688
10145,0,0.1691,,-0.01,0.03,-0.04,0,1,0,0.05,0.05,94,,,,,,,,,,,,,,,,,,,,,,,,,,,,,,,,,,,,,,,,,,,,,,,,,,,,,,,
10185,0,0.1698,,-0.01,0.03,-0.04,-0,1,-0,0.05,0.05,95,,,,,,,,,,,,,,,,,,,,,,,,,,,,,,,,,,,,,,,,,,,,,,,,,,,,,,,
10225,0,0.1704,,-0.01,0.03,-0.04,0,1,-0,0.05,0.05,92,0,0,0,0,0,0,0,1,0,1,0,0,0,9,4,12,432,0,118,0,0,138,16,16,0,0,0,0,0,0,0,0,0,0,0,0,0,0,0,0,0.0,0.0,0.0,0.0,0,0,0.0,0,0.0,-1,0.0,0.0,0,0.0,0.1704
10265,0,0.1711,,-0.01,0.03,-0.04,-0,1,-0,0.05,0.05,93,,,,,,,,,,,,,,,,,,,,,,,,,,,,,,,,,,,,,,,,,,,,,,,,,,,,,,,
10305,0,0.1718,,-0.01,0.03,-0.04,-0,1,0,0.05,0.05,93,,,,,,,,,,,,,,,,,,,,,,,,,,,,,,,,,,,,,,,,,,,,,,,,,,,,,,,
10325,0,0.1721,,,,,,,,,,,0,0,0,0,0,0,0,1,0,1,0,0,0,9,4,12,432,0,118,0,0,138,16,16,0,0,0,0,0,0,0,0,0,0,0,0,0,0,0,0,0.0,0.0,0.0,0.0,0,0,0.0,0,0.0,-1,0.0,,0,0.0,0.1721
10345,0,0.1724,,-0.01,0.03,-0.04,-0,1,-0,0.05,0.05,95,,,,,,,,,,,,,,,,,,,,,,,,,,,,,,,,,,,,,,,,,,,,,,,,,,,,,,,
10385,0,0.1731,,-0.01,0.03,-0.04,-0,1,0,0.05,0.05,94,,,,,,,,,,,,,,,,,,,,,,,,,,,,,,,,,,,,,,,,,,,,,,,,,,,,,,,
10425,0,0.1738,,-0.01,0.03,-0.04,-0,1,0,0.05,0.05,95,0,0,0,0,0,0,0,1,0,1,0,0,0,9,4,12,432,0,118,0,0,138,16,16,0,0,0,0,0,0,0,0,0,0,0,0,0,0,0,0,0.0,0.0,0.0,0.0,0,0,0.0,0,0.0,-1,0.0,0.0,0,0.0,0.1738
10465,0,0.1744,,-0.01,0.03,-0.04,-0,1,0,0.05,0.05,94,,,,,,,,,,,,,,,,,,,,,,,,,,,,,,,,,,,,,,,,,,,,,,,,,,,,,,,
10505,0,0.1751,,-0.01,0.03,-0.04,-0,1,0,0.05,0.05,94,,,,,,,,,,,,,,,,,,,,,,,,,,,,,,,,,,,,,,,,,,,,,,,,,,,,,,,
10525,0,0.1754,,,,,,,,,,,0,0,0,0,0,0,0,1,0,1,0,0,0,9,4,12,432,0,118,0,0,138,16,16,0,0,0,0,0,0,0,0,0,0,0,0,0,0,0,0,0.0,0.0,0.0,0.0,0,0,0.0,0,0.0,-1,0.0,,0,0.0,0.1754
10545,0,0.1758,,-0.01,0.03,-0.04,-0,1,0,0.05,0.05,94,,,,,,,,,,,,,,,,,,,,,,,,,,,,,,,,,,,,,,,,,,,,,,,,,,,,,,,
10585,0,0.1764,,-0.01,0.03,-0.04,-0,1,0,0.05,0.05,95,,,,,,,,,,,,,,,,,,,,,,,,,,,,,,,,,,,,,,,,,,,,,,,,,,,,,,,
10625,0,0.1771,12.09,-0.01,0.03,-0.04,-0,1,-0,0.05,0.05,94,0,0,0,0,0,0,0,1,0,1,0,0,0,9,4,12,432,0,118,0,0,138,16,16,0,0,0,0,0,0,0,0,0,0,0,0,0,0,0,0,0.0,0.0,0.0,0.0,0,0,0.0,0,0.0,-1,0.0,0.0,0,0.0,0.1771
10665,0,0.1778,,-0.01,0.03,-0.04,-0,1,0,0.05,0.05,94,,,,,,,,,,,,,,,,,,,,,,,,,,,,,,,,,,,,,,,,,,,,,,,,,,,,,,,
10705,0,0.1784,,-0.01,0.03,-0.04,-0,1,0,0.05,0.05,94,,,,,,,,,,,,,,,,,,,,,,,,,,,,,,,,,,,,,,,,,,,,,,,,,,,,,,,
10725,0,0.1787,,,,,,,,,,,0,0,0,0,0,0,0,1,0,1,0,0,0,9,4,12,432,0,118,0,0,138,16,16,0,0,0,0,0,0,0,0,0,0,0,0,0,0,0,0,0.0,0.0,0.0,0.0,0,0,0.0,0,0.0,-1,0.0,,0,0.0,0.1787
10745,0,0.1791,,-0.01,0.03,-0.04,-0,1,0,0.05,0.05,95,,,,,,,,,,,,,,,,,,,,,,,,,,,,,,,,,,,,,,,,,,,,,,,,,,,,,,,
10785,0,0.1798,,-0.01,0.03,-0.04,-0,1,0,0.05,0.05,95,,,,,,,,,,,,,,,,,,,,,,,,,,,,,,,,,,,,,,,,,,,,,,,,,,,,,,,
10825,0,0.1804,,-0.01,0.03,-0.04,-0,1,0,0.05,0.05,94,0,0,0,0,0,0,0,1,0,1,0,0,0,9,4,12,432,0,118,0,0,138,16,16,0,0,0,0,0,0,0,0,0,0,0,0,0,0,0,0,0.0,0.0,0.0,0.0,0,0,0.0,0,0.0,-1,0.0,0.0,0,0.0,0.1804
10865,0,0.1811,,-0.01,0.03,-0.04,-0,1,0,0.05,0.05,94,,,,,,,,,,,,,,,,,,,,,,,,,,,,,,,,,,,,,,,,,,,,,,,,,,,,,,,
10905,0,0.1818,,-0.01,0.03,-0.04,-0,1,0,0.05,0.05,95,,,,,,,,,,,,,,,,,,,,,,,,,,,,,,,,,,,,,,,,,,,,,,,,,,,,,,,
10925,0,0.1821,,,,,,,,,,,0,0,0,0,0,0,0,1,0,1,0,0,0,9,4,12,432,0,118,0,0,138,16,16,0,0,0,0,0,0,0,0,0,0,0,0,0,0,0,0,0.0,0.0,0.0,0.0,0,0,0.0,0,0.0,-1,0.0,,0,0.0,0.1821
10945,0,0.1824,,-0.01,0.03,-0.04,-0,1,0,0.05,0.05,95,,,,,,,,,,,,,,,,,,,,,,,,,,,,,,,,,,,,,,,,,,,,,,,,,,,,,,,
10985,0,0.1831,,-0.01,0.03,-0.04,-0,1,0,0.05,0.05,95,,,,,,,,,,,,,,,,,,,,,,,,,,,,,,,,,,,,,,,,,,,,,,,,,,,,,,,
11025,0,0.1838,,-0.01,0.03,-0.04,-0,1,0,0.05,0.05,94,0,0,0,0,0,0,0,1,0,1,0,0,0,9,4,12,432,0,118,0,0,138,16,16,0,0,0,0,0,0,0,0,0,0,0,0,0,0,0,0,0.0,0.0,0.0,0.0,0,0,0.0,0,0.0,-1,0.0,0.0,0,0.0,0.1838
11065,0,0.1844,,-0.01,0.03,-0.04,-0,1,0,0.05,0.05,95,,,,,,,,,,,,,,,,,,,,,,,,,,,,,,,,,,,,,,,,,,,,,,,,,,,,,,,
11105,0,0.1851,,-0.01,0.03,-0.04,-0,1,0,0.05,0.05,94,,,,,,,,,,,,,,,,,,,,,,,,,,,,,,,,,,,,,,,,,,,,,,,,,,,,,,,
11125,0,0.1854,,,,,,,,,,,0,0,0,0,0,0,0,1,0,1,0,0,0,9,4,12,432,0,118,0,0,138,16,16,0,0,0,0,0,0,0,0,0,0,0,0,0,0,0,0,0.0,0.0,0.0,0.0,0,0,0.0,0,0.0,-1,0.0,,0,0.0,0.1854
11145,0,0.1857,,-0.01,0.03,-0.04,-0,1,0,0.05,0.05,94,,,,,,,,,,,,,,,,,,,,,,,,,,,,,,,,,,,,,,,,,,,,,,,,,,,,,,,
11185,0,0.1864,,-0.01,0.03,-0.04,-0,1,0,0.05,0.05,93,,,,,,,,,,,,,,,,,,,,,,,,,,,,,,,,,,,,,,,,,,,,,,,,,,,,,,,
11225,0,0.1871,,-0.01,0.03,-0.04,-0,1,0,0.05,0.05,93,0,0,0,0,0,0,0,1,0,1,0,0,0,9,4,12,432,0,118,0,0,138,16,16,0,0,0,0,0,0,0,0,0,0,0,0,0,0,0,0,0.0,0.0,0.0,0.0,0,0,0.0,0,0.0,-1,0.0,0.0,0,0.0,0.1871
11265,0,0.1878,,-0.01,0.03,-0.04,-0,1,0,0.05,0.05,93,,,,,,,,,,,,,,,,,,,,,,,,,,,,,,,,,,,,,,,,,,,,,,,,,,,,,,,
11305,0,0.1884,,-0.01,0.03,-0.04,-0,1,0,0.05,0.05,93,,,,,,,,,,,,,,,,,,,,,,,,,,,,,,,,,,,,,,,,,,,,,,,,,,,,,,,
11325,0,0.1888,,,,,,,,,,,0,0,0,0,0,0,0,1,0,1,0,0,0,9,4,12,432,0,118,0,0,138,16,16,0,0,0,0,0,0,0,0,0,0,0,0,0,0,0,0,0.0,0.0,0.0,0.0,0,0,0.0,0,0.0,-1,0.0,,0,0.0,0.1888
11345,0,0.1891,,-0.01,0.03,-0.04,-0,1,0,0.05,0.05,94,,,,,,,,,,,,,,,,,,,,,,,,,,,,,,,,,,,,,,,,,,,,,,,,,,,,,,,
11385,0,0.1898,,-0.01,0.03,-0.04,-0,1,0,0.05,0.05,93,,,,,,,,,,,,,,,,,,,,,,,,,,,,,,,,,,,,,,,,,,,,,,,,,,,,,,,
11425,0,0.1904,,-0.01,0.03,-0.04,-0,1,0,0.05,0.05,92,0,0,0,0,0,0,0,1,0,1,0,0,0,9,4,12,432,0,118,0,0,138,16,16,0,0,0,0,0,0,0,0,0,0,0,0,0,0,0,0,0.0,0.0,0.0,0.0,0,0,0.0,0,0.0,-1,0.0,0.0,0,0.0,0.1904
11465,0,0.1911,,-0.01,0.03,-0.04,-0,1,0,0.05,0.05,92,,,,,,,,,,,,,,,,,,,,,,,,,,,,,,,,,,,,,,,,,,,,,,,,,,,,,,,
11505,0,0.1918,,-0.01,0.03,-0.04,-0,1,0,0.05,0.05,91,,,,,,,,,,,,,,,,,,,,,,,,,,,,,,,,,,,,,,,,,,,,,,,,,,,,,,,
11525,0,0.1921,,,,,,,,,,,0,0,0,0,0,0,0,1,0,1,0,0,0,9,4,12,432,0,118,0,0,138,17,17,0,0,0,0,0,0,0,0,0,0,0,0,0,0,0,0,0.0,0.0,0.0,0.0,0,0,0.0,0,0.0,-1,0.0,,0,0.0,0.1921
11545,0,0.1924,,-0.01,0.03,-0.04,-0,1,0,0.05,0.05,92,,,,,,,,,,,,,,,,,,,,,,,,,,,,,,,,,,,,,,,,,,,,,,,,,,,,,,,
11585,0,0.1931,,-0.01,0.03,-0.04,-0,1,0,0.05,0.05,94,,,,,,,,,,,,,,,,,,,,,,,,,,,,,,,,,,,,,,,,,,,,,,,,,,,,,,,
11625,0,0.1938,12.16,-0.01,0.03,-0.04,-0,1,0,0.05,0.05,95,0,0,0,0,0,0,0,1,0,1,0,0,0,9,4,12,432,0,118,0,0,138,17,17,0,0,0,0,0,0,0,0,0,0,0,0,0,0,0,0,0.0,0.0,0.0,0.0,0,0,0.0,0,0.0,-1,0.0,0.0,0,0.0,0.1938
11665,0,0.1944,,-0.01,0.03,-0.04,-0,1,0,0.05,0.05,95,,,,,,,,,,,,,,,,,,,,,,,,,,,,,,,,,,,,,,,,,,,,,,,,,,,,,,,
11705,0,0.1951,,-0.01,0.03,-0.04,-0,1,0,0.05,0.05,96,,,,,,,,,,,,,,,,,,,,,,,,,,,,,,,,,,,,,,,,,,,,,,,,,,,,,,,
11725,0,0.1954,,,,,,,,,,,0,0,0,0,0,0,0,1,0,1,0,0,0,9,4,12,432,0,118,0,0,138,17,17,0,0,0,0,0,0,0,0,0,0,0,0,0,0,0,0,0.0,0.0,0.0,0.0,0,0,0.0,0,0.0,-1,0.0,,0,0.0,0.1954
11745,0,0.1958,,-0.01,0.03,-0.04,-0,1,0,0.05,0.05,95,,,,,,,,,,,,,,,,,,,,,,,,,,,,,,,,,,,,,,,,,,,,,,,,,,,,,,,
11785,0,0.1964,,-0.01,0.03,-0.04,-0,1,0,0.05,0.05,95,,,,,,,,,,,,,,,,,,,,,,,,,,,,,,,,,,,,,,,,,,,,,,,,,,,,,,,
11825,0,0.1971,,-0.01,0.03,-0.04,-0,1,0,0.05,0.05,95,0,0,0,0,0,0,0,1,0,1,0,0,0,9,4,12,432,0,118,0,0,138,17,17,0,0,0,0,0,0,0,0,0,0,0,0,0,0,0,0,0.0,0.0,0.0,0.0,0,0,0.0,0,0.0,-1,0.0,0.0,0,0.0,0.1971
11865,0,0.1978,,-0.01,0.03,-0.04,-0,1,0,0.05,0.05,95,,,,,,,,,,,,,,,,,,,,,,,,,,,,,,,,,,,,,,,,,,,,,,,,,,,,,,,
11905,0,0.1984,,-0.01,0.03,-0.04,-0,1,-0,0.05,0.05,94,,,,,,,,,,,,,,,,,,,,,,,,,,,,,,,,,,,,,,,,,,,,,,,,,,,,,,,
11925,0,0.1988,,,,,,,,,,,0,0,0,0,0,0,0,1,0,1,0,0,0,9,4,12,432,0,118,0,0,138,17,17,0,0,0,0,0,0,0,0,0,0,0,0,0,0,0,0,0.0,0.0,0.0,0.0,0,0,0.0,0,0.0,-1,0.0,,0,0.0,0.1988
11945,0,0.1991,,-0.01,0.03,-0.04,-0,1,-0,0.05,0.05,94,,,,,,,,,,,,,,,,,,,,,,,,,,,,,,,,,,,,,,,,,,,,,,,,,,,,,,,
11985,0,0.1998,,-0.01,0.03,-0.04,-0,1,0,0.05,0.05,93,,,,,,,,,,,,,,,,,,,,,,,,,,,,,,,,,,,,,,,,,,,,,,,,,,,,,,,
12025,0,0.2004,,-0.01,0.03,-0.04,-0,1,0,0.05,0.05,93,0,0,0,0,0,0,0,1,0,1,0,0,0,9,4,12,432,0,118,0,0,138,17,17,0,0,0,0,0,0,0,0,0,0,0,0,0,0,0,0,0.0,0.0,0.0,0.0,0,0,0.0,0,0.0,-1,0.0,0.0,0,0.0,0.2004
12065,0,0.2011,,-0.01,0.03,-0.04,-0,1,0,0.05,0.05,94,,,,,,,,,,,,,,,,,,,,,,,,,,,,,,,,,,,,,,,,,,,,,,,,,,,,,,,
12105,0,0.2018,,-0.01,0.03,-0.04,-0,1,-0,0.05,0.05,94,,,,,,,,,,,,,,,,,,,,,,,,,,,,,,,,,,,,,,,,,,,,,,,,,,,,,,,
12125,0,0.2021,,,,,,,,,,,0,0,0,0,0,0,0,1,0,1,0,0,0,9,4,12,432,0,118,0,0,138,17,17,0,0,0,0,0,0,0,0,0,0,0,0,0,0,0,0,0.0,0.0,0.0,0.0,0,0,0.0,0,0.0,-1,0.0,,0,0.0,0.2021
12145,0,0.2024,,-0.01,0.03,-0.04,0,1,-0,0.05,0.05,93,,,,,,,,,,,,,,,,,,,,,,,,,,,,,,,,,,,,,,,,,,,,,,,,,,,,,,,
12185,0,0.2031,,-0.01,0.03,-0.04,-0,1,-0,0.05,0.05,92,,,,,,,,,,,,,,,,,,,,,,,,,,,,,,,,,,,,,,,,,,,,,,,,,,,,,,,
12225,0,0.2038,,-0.01,0.03,-0.04,-0,1,-0,0.05,0.05,92,0,0,0,0,0,0,0,1,0,1,0,0,0,9,4,12,432,0,118,0,0,138,17,17,0,0,0,0,0,0,0,0,0,0,0,0,0,0,0,0,0.0,0.0,0.0,0.0,0,0,0.0,0,0.0,-1,0.0,0.0,0,0.0,0.2038
12265,0,0.2044,,-0.01,0.03,-0.04,-0,1,-0,0.05,0.05,91,,,,,,,,,,,,,,,,,,,,,,,,,,,,,,,,,,,,,,,,,,,,,,,,,,,,,,,
12305,0,0.2051,,-0.01,0.03,-0.04,-0,1,-0,0.05,0.05,91,,,,,,,,,,,,,,,,,,,,,,,,,,,,,,,,,,,,,,,,,,,,,,,,,,,,,,,
12325,0,0.2054,,,,,,,,,,,0,0,0,0,0,0,0,1,0,1,0,0,0,9,4,12,432,0,118,0,0,138,17,17,0,0,0,0,0,0,0,0,0,0,0,0,0,0,0,0,0.0,0.0,0.0,0.0,0,0,0.0,0,0.0,-1,0.0,,0,0.0,0.2054
12345,0,0.2058,,-0.01,0.03,-0.04,-0,1,0,0.05,0.05,91,,,,,,,,,,,,,,,,,,,,,,,,,,,,,,,,,,,,,,,,,,,,,,,,,,,,,,,
12385,0,0.2064,,-0.01,0.03,-0.04,-0,1,-0,0.05,0.05,92,,,,,,,,,,,,,,,,,,,,,,,,,,,,,,,,,,,,,,,,,,,,,,,,,,,,,,,
12425,0,0.2071,,-0.01,0.03,-0.04,-0,1,-0,0.05,0.05,92,0,0,0,0,0,0,0,1,0,1,0,0,0,9,4,12,432,0,118,0,0,138,17,17,0,0,0,0,0,0,0,0,0,0,0,0,0,0,0,0,0.0,0.0,0.0,0.0,0,0,0.0,0,0.0,-1,0.0,0.0,0,0.0,0.2071
12465,0,0.2078,,-0.01,0.03,-0.04,-0,1,0,0.05,0.05,94,,,,,,,,,,,,,,,,,,,,,,,,,,,,,,,,,,,,,,,,,,,,,,,,,,,,,,,
12505,0,0.2084,,-0.01,0.03,-0.04,-0,1,0,0.05,0.05,93,,,,,,,,,,,,,,,,,,,,,,,,,,,,,,,,,,,,,,,,,,,,,,,,,,,,,,,
12525,0,0.2088,,,,,,,,,,,0,0,0,0,0,0,0,1,0,1,0,0,0,9,4,12,432,0,118,0,0,138,17,17,0,0,0,0,0,0,0,0,0,0,0,0,0,0,0,0,0.0,0.0,0.0,0.0,0,0,0.0,0,0.0,-1,0.0,,0,0.0,0.2088
12545,0,0.2091,,-0.01,0.03,-0.04,-0,1,-0,0.05,0.05,93,,,,,,,,,,,,,,,,,,,,,,,,,,,,,,,,,,,,,,,,,,,,,,,,,,,,,,,
12585,0,0.2098,,-0.01,0.03,-0.04,-0,1,-0,0.05,0.05,93,,,,,,,,,,,,,,,,,,,,,,,,,,,,,,,,,,,,,,,,,,,,,,,,,,,,,,,
12625,0,0.2104,12.13,-0.01,0.03,-0.04,-0,1,-0,0.05,0.05,92,0,0,0,0,0,0,0,1,0,1,0,0,0,9,4,12,432,0,118,0,0,138,17,17,0,0,0,0,0,0,0,0,0,0,0,0,0,0,0,0,0.0,0.0,0.0,0.0,0,0,0.0,0,0.0,-1,0.0,0.0,0,0.0,0.2104
12665,0,0.2111,,-0.01,0.03,-0.04,-0,1,0,0.05,0.05,91,,,,,,,,,,,,,,,,,,,,,,,,,,,,,,,,,,,,,,,,,,,,,,,,,,,,,,,
12705,0,0.2118,,-0.01,0.03,-0.04,-0,1,0,0.05,0.05,91,,,,,,,,,,,,,,,,,,,,,,,,,,,,,,,,,,,,,,,,,,,,,,,,,,,,,,,
12725,0,0.2121,,,,,,,,,,,0,0,0,0,0,0,0,1,0,1,0,0,0,9,4,12,432,0,118,0,0,138,17,17,0,0,0,0,0,0,0,0,0,0,0,0,0,0,0,0,0.0,0.0,0.0,0.0,0,0,0.0,0,0.0,-1,0.0,,0,0.0,0.2121
12745,0,0.2124,,-0.01,0.03,-0.04,-0,1,0,0.05,0.05,91,,,,,,,,,,,,,,,,,,,,,,,,,,,,,,,,,,,,,,,,,,,,,,,,,,,,,,,
12785,0,0.2131,,-0.01,0.03,-0.04,-0,1,0,0.05,0.05,92,,,,,,,,,,,,,,,,,,,,,,,,,,,,,,,,,,,,,,,,,,,,,,,,,,,,,,,
12825,0,0.2138,,-0.01,0.03,-0.04,-0,1,0,0.05,0.05,94,0,0,0,0,0,0,0,1,0,1,0,0,0,9,4,12,432,0,118,0,0,138,18,18,0,0,0,0,0,0,0,0,0,0,0,0,0,0,0,0,0.0,0.0,0.0,0.0,0,0,0.0,0,0.0,-1,0.0,0.0,0,0.0,0.2138
12865,0,0.2144,,-0.01,0.03,-0.04,-0,1,0,0.05,0.05,94,,,,,,,,,,,,,,,,,,,,,,,,,,,,,,,,,,,,,,,,,,,,,,,,,,,,,,,
12905,0,0.2151,,-0.01,0.03,-0.04,-0,1,0,0.05,0.05,95,,,,,,,,,,,,,,,,,,,,,,,,,,,,,,,,,,,,,,,,,,,,,,,,,,,,,,,
12925,0,0.2154,,,,,,,,,,,0,0,0,0,0,0,0,1,0,1,0,0,0,9,4,12,432,0,118,0,0,138,18,18,0,0,0,0,0,0,0,0,0,0,0,0,0,0,0,0,0.0,0.0,0.0,0.0,0,0,0.0,0,0.0,-1,0.0,,0,0.0,0.2154
12945,0,0.2158,,-0.01,0.03,-0.04,-0,1,0,0.05,0.05,95,,,,,,,,,,,,,,,,,,,,,,,,,,,,,,,,,,,,,,,,,,,,,,,,,,,,,,,
12985,0,0.2164,,-0.01,0.03,-0.04,-0,1,0,0.05,0.05,94,,,,,,,,,,,,,,,,,,,,,,,,,,,,,,,,,,,,,,,,,,,,,,,,,,,,,,,
13025,0,0.2171,,-0.01,0.03,-0.04,-0,1,0,0.05,0.05,94,0,0,0,0,0,0,0,1,0,1,0,0,0,9,4,12,432,0,118,0,0,138,18,18,0,0,0,0,0,0,0,0,0,0,0,0,0,0,0,0,0.0,0.0,0.0,0.0,0,0,0.0,0,0.0,-1,0.0,0.0,0,0.0,0.2171
13065,0,0.2178,,-0.01,0.03,-0.04,-0,1,0,0.05,0.05,94,,,,,,,,,,,,,,,,,,,,,,,,,,,,,,,,,,,,,,,,,,,,,,,,,,,,,,,
13105,0,0.2184,,-0.01,0.03,-0.04,-0,1,0,0.05,0.05,93,,,,,,,,,,,,,,,,,,,,,,,,,,,,,,,,,,,,,,,,,,,,,,,,,,,,,,,
13125,0,0.2188,,,,,,,,,,,0,0,0,0,0,0,0,1,0,1,0,0,0,9,4,12,432,0,118,0,0,138,18,18,0,0,0,0,0,0,0,0,0,0,0,0,0,0,0,0,0.0,0.0,0.0,0.0,0,0,0.0,0,0.0,-1,0.0,,0,0.0,0.2188
13145,0,0.2191,,-0.01,0.03,-0.04,-0,1,0,0.05,0.05,93,,,,,,,,,,,,,,,,,,,,,,,,,,,,,,,,,,,,,,,,,,,,,,,,,,,,,,,
13185,0,0.2198,,-0.01,0.03,-0.04,-0,1,0,0.05,0.05,92,,,,,,,,,,,,,,,,,,,,,,,,,,,,,,,,,,,,,,,,,,,,,,,,,,,,,,,
13225,0,0.2204,,-0.01,0.03,-0.04,-0,1,0,0.05,0.05,92,0,0,0,0,0,0,0,1,0,1,0,0,0,9,4,12,432,0,118,0,0,138,18,18,0,0,0,0,0,0,0,0,0,0,0,0,0,0,0,0,0.0,0.0,0.0,0.0,0,0,0.0,0,0.0,-1,0.0,0.0,0,0.0,0.2204
13265,0,0.2211,,-0.01,0.03,-0.04,-0,1,0,0.05,0.05,92,,,,,,,,,,,,,,,,,,,,,,,,,,,,,,,,,,,,,,,,,,,,,,,,,,,,,,,
13305,0,0.2218,,-0.01,0.03,-0.04,-0,1,0,0.05,0.05,93,,,,,,,,,,,,,,,,,,,,,,,,,,,,,,,,,,,,,,,,,,,,,,,,,,,,,,,
13325,0,0.2221,,,,,,,,,,,0,0,0,0,0,0,0,1,0,1,0,0,0,9,4,12,432,0,118,0,0,138,18,18,0,0,0,0,0,0,0,0,0,0,0,0,0,0,0,0,0.0,0.0,0.0,0.0,0,0,0.0,0,0.0,-1,0.0,,0,0.0,0.2221
13345,0,0.2224,,-0.01,0.03,-0.04,-0,1,0,0.05,0.05,92,,,,,,,,,,,,,,,,,,,,,,,,,,,,,,,,,,,,,,,,,,,,,,,,,,,,,,,
13385,0,0.2231,,-0.01,0.03,-0.04,-0,1,0,0.05,0.05,92,,,,,,,,,,,,,,,,,,,,,,,,,,,,,,,,,,,,,,,,,,,,,,,,,,,,,,,
13425,0,0.2238,,-0.01,0.03,-0.04,-0,1,0,0.05,0.05,92,0,0,0,0,0,0,0,1,0,1,0,0,0,9,4,12,432,0,118,0,0,138,18,18,0,0,0,0,0,0,0,0,0,0,0,0,0,0,0,0,0.0,0.0,0.0,0.0,0,0,0.0,0,0.0,-1,0.0,0.0,0,0.0,0.2238
13465,0,0.2244,,-0.01,0.03,-0.04,-0,1,0,0.05,0.05,93,,,,,,,,,,,,,,,,,,,,,,,,,,,,,,,,,,,,,,,,,,,,,,,,,,,,,,,
13505,0,0.2251,,-0.01,0.03,-0.04,-0,1,0,0.05,0.05,92,,,,,,,,,,,,,,,,,,,,,,,,,,,,,,,,,,,,,,,,,,,,,,,,,,,,,,,
13525,0,0.2254,,,,,,,,,,,0,0,0,0,0,0,0,1,0,1,0,0,0,9,4,12,432,0,118,0,0,138,18,18,0,0,0,0,0,0,0,0,0,0,0,0,0,0,0,0,0.0,0.0,0.0,0.0,0,0,0.0,0,0.0,-1,0.0,,0,0.0,0.2254
13545,0,0.2258,,-0.01,0.03,-0.04,-0,1,0,0.05,0.05,92,,,,,,,,,,,,,,,,,,,,,,,,,,,,,,,,,,,,,,,,,,,,,,,,,,,,,,,
13585,0,0.2264,,-0.01,0.03,-0.04,-0,1,0,0.05,0.05,91,,,,,,,,,,,,,,,,,,,,,,,,,,,,,,,,,,,,,,,,,,,,,,,,,,,,,,,
13625,0,0.2271,12.14,-0.01,0.03,-0.04,-0,1,0,0.05,0.05,93,0,0,0,0,0,0,0,1,0,1,0,0,0,9,4,12,432,0,118,0,0,138,18,18,0,0,0,0,0,0,0,0,0,0,0,0,0,0,0,0,0.0,0.0,0.0,0.0,0,0,0.0,0,0.0,-1,0.0,0.0,0,0.0,0.2271
13665,0,0.2278,,-0.01,0.03,-0.04,-0,1,-0,0.05,0.05,93,,,,,,,,,,,,,,,,,,,,,,,,,,,,,,,,,,,,,,,,,,,,,,,,,,,,,,,
13705,0,0.2284,,-0.01,0.03,-0.04,-0,1,0,0.05,0.05,94,,,,,,,,,,,,,,,,,,,,,,,,,,,,,,,,,,,,,,,,,,,,,,,,,,,,,,,
13725,0,0.2288,,,,,,,,,,,0,0,0,0,0,0,0,1,0,1,0,0,0,9,4,12,432,0,118,0,0,138,18,18,0,0,0,0,0,0,0,0,0,0,0,0,0,0,0,0,0.0,0.0,0.0,0.0,0,0,0.0,0,0.0,-1,0.0,,0,0.0,0.2288
13745,0,0.2291,,-0.01,0.03,-0.04,-0,1,0,0.05,0.05,93,,,,,,,,,,,,,,,,,,,,,,,,,,,,,,,,,,,,,,,,,,,,,,,,,,,,,,,
13785,0,0.2298,,-0.01,0.03,-0.04,-0,1,0,0.05,0.05,93,,,,,,,,,,,,,,,,,,,,,,,,,,,,,,,,,,,,,,,,,,,,,,,,,,,,,,,
13825,0,0.2304,,-0.01,0.03,-0.04,-0,1,0,0.05,0.05,94,0,0,0,0,0,0,0,1,0,1,0,0,0,9,4,12,432,0,118,0,0,138,18,18,0,0,0,0,0,0,0,0,0,0,0,0,0,0,0,0,0.0,0.0,0.0,0.0,0,0,0.0,0,0.0,-1,0.0,0.0,0,0.0,0.2304
13865,0,0.2311,,-0.01,0.03,-0.04,-0,1,0,0.05,0.05,94,,,,,,,,,,,,,,,,,,,,,,,,,,,,,,,,,,,,,,,,,,,,,,,,,,,,,,,
13905,0,0.2318,,-0.01,0.03,-0.04,-0,1,0,0.05,0.05,94,,,,,,,,,,,,,,,,,,,,,,,,,,,,,,,,,,,,,,,,,,,,,,,,,,,,,,,
13925,0,0.2321,,,,,,,,,,,0,0,0,0,0,0,0,1,0,1,0,0,0,9,4,12,432,0,118,0,0,138,18,18,0,0,0,0,0,0,0,0,0,0,0,0,0,0,0,0,0.0,0.0,0.0,0.0,0,0,0.0,0,0.0,-1,0.0,,0,0.0,0.2321
13945,0,0.2324,,-0.01,0.03,-0.04,-0,1,-0,0.05,0.05,93,,,,,,,,,,,,,,,,,,,,,,,,,,,,,,,,,,,,,,,,,,,,,,,,,,,,,,,
13985,0,0.2331,,-0.01,0.03,-0.04,-0,1,-0,0.05,0.05,93,,,,,,,,,,,,,,,,,,,,,,,,,,,,,,,,,,,,,,,,,,,,,,,,,,,,,,,
14025,0,0.2338,,-0.01,0.03,-0.04,-0,1,0,0.05,0.05,94,0,0,0,0,0,0,0,1,0,1,0,0,0,9,4,12,432,0,118,0,0,138,18,18,0,0,0,0,0,0,0,0,0,0,0,0,0,0,0,0,0.0,0.0,0.0,0.0,0,0,0.0,0,0.0,-1,0.0,0.0,0,0.0,0.2338
14065,0,0.2344,,-0.01,0.03,-0.04,-0,1,-0,0.05,0.05,93,,,,,,,,,,,,,,,,,,,,,,,,,,,,,,,,,,,,,,,,,,,,,,,,,,,,,,,
14105,0,0.2351,,-0.01,0.03,-0.04,-0,1,0,0.05,0.05,92,,,,,,,,,,,,,,,,,,,,,,,,,,,,,,,,,,,,,,,,,,,,,,,,,,,,,,,
14125,0,0.2354,,,,,,,,,,,0,0,0,0,0,0,0,1,0,1,0,0,0,9,4,12,432,0,118,0,0,138,18,18,0,0,0,0,0,0,0,0,0,0,0,0,0,0,0,0,0.0,0.0,0.0,0.0,0,0,0.0,0,0.0,-1,0.0,,0,0.0,0.2354
14145,0,0.2358,,-0.01,0.03,-0.04,-0,1,0,0.05,0.05,94,,,,,,,,,,,,,,,,,,,,,,,,,,,,,,,,,,,,,,,,,,,,,,,,,,,,,,,
14185,0,0.2364,,-0.01,0.03,-0.04,0,1,0,0.05,0.05,94,,,,,,,,,,,,,,,,,,,,,,,,,,,,,,,,,,,,,,,,,,,,,,,,,,,,,,,
14225,0,0.2371,,-0.01,0.03,-0.04,-0,1,-0,0.05,0.05,93,0,0,0,0,0,0,0,1,0,1,0,0,0,9,4,12,432,0,118,0,0,138,18,18,0,0,0,0,0,0,0,0,0,0,0,0,0,0,0,0,0.0,0.0,0.0,0.0,0,0,0.0,0,0.0,-1,0.0,0.0,0,0.0,0.2371
14265,0,0.2378,,-0.01,0.03,-0.04,-0,1,-0,0.05,0.05,93,,,,,,,,,,,,,,,,,,,,,,,,,,,,,,,,,,,,,,,,,,,,,,,,,,,,,,,
14305,0,0.2384,,-0.01,0.03,-0.04,-0,1,-0,0.05,0.05,94,,,,,,,,,,,,,,,,,,,,,,,,,,,,,,,,,,,,,,,,,,,,,,,,,,,,,,,
14325,0,0.2388,,,,,,,,,,,0,0,0,0,0,0,0,1,0,1,0,0,0,9,4,12,432,0,118,0,0,138,18,18,0,0,0,0,0,0,0,0,0,0,0,0,0,0,0,0,0.0,0.0,0.0,0.0,0,0,0.0,0,0.0,-1,0.0,,0,0.0,0.2388
14345,0,0.2391,,-0.01,0.03,-0.04,-0,1,-0,0.05,0.05,92,,,,,,,,,,,,,,,,,,,,,,,,,,,,,,,,,,,,,,,,,,,,,,,,,,,,,,,
14385,0,0.2398,,-0.01,0.03,-0.04,-0,1,-0,0.05,0.05,94,,,,,,,,,,,,,,,,,,,,,,,,,,,,,,,,,,,,,,,,,,,,,,,,,,,,,,,
14425,0,0.2404,,-0.01,0.03,-0.04,-0,1,-0,0.05,0.05,94,0,0,0,0,0,0,0,1,0,1,0,0,0,9,4,12,432,0,118,0,0,138,18,18,0,0,0,0,0,0,0,0,0,0,0,0,0,0,0,0,0.0,0.0,0.0,0.0,0,0,0.0,0,0.0,-1,0.0,0.0,0,0.0,0.2404
14465,0,0.2411,,-0.01,0.03,-0.04,-0,1,0,0.05,0.05,94,,,,,,,,,,,,,,,,,,,,,,,,,,,,,,,,,,,,,,,,,,,,,,,,,,,,,,,
14505,0,0.2418,,-0.01,0.03,-0.04,-0,1,-0,0.05,0.05,94,,,,,,,,,,,,,,,,,,,,,,,,,,,,,,,,,,,,,,,,,,,,,,,,,,,,,,,
14525,0,0.2421,,,,,,,,,,,0,0,0,0,0,0,0,1,0,1,0,0,0,9,4,12,432,0,118,0,0,138,18,18,0,0,0,0,0,0,0,0,0,0,0,0,0,0,0,0,0.0,0.0,0.0,0.0,0,0,0.0,0,0.0,-1,0.0,,0,0.0,0.2421
14545,0,0.2424,,-0.01,0.03,-0.04,-0,1,0,0.05,0.05,94,,,,,,,,,,,,,,,,,,,,,,,,,,,,,,,,,,,,,,,,,,,,,,,,,,,,,,,
14585,0,0.2431,,-0.01,0.03,-0.04,-0,1,0,0.05,0.05,94,,,,,,,,,,,,,,,,,,,,,,,,,,,,,,,,,,,,,,,,,,,,,,,,,,,,,,,
14625,0,0.2438,12.09,-0.01,0.03,-0.04,-0,1,0,0.05,0.05,91,0,0,0,0,0,0,0,1,0,1,0,0,0,9,4,12,432,0,118,0,0,138,18,18,0,0,0,0,0,0,0,0,0,0,0,0,0,0,0,0,0.0,0.0,0.0,0.0,0,0,0.0,0,0.0,-1,0.0,0.0,0,0.0,0.2438
14665,0,0.2444,,-0.01,0.03,-0.04,-0,1,0,0.05,0.05,92,,,,,,,,,,,,,,,,,,,,,,,,,,,,,,,,,,,,,,,,,,,,,,,,,,,,,,,
14705,0,0.2451,,-0.01,0.03,-0.04,-0,1,0,0.05,0.05,87,,,,,,,,,,,,,,,,,,,,,,,,,,,,,,,,,,,,,,,,,,,,,,,,,,,,,,,
14725,0,0.2454,,,,,,,,,,,0,0,0,0,0,0,0,1,0,1,0,0,0,9,4,12,432,0,118,0,0,138,18,18,0,0,0,0,0,0,0,0,0,0,0,0,0,0,0,0,0.0,0.0,0.0,0.0,0,0,0.0,0,0.0,-1,0.0,,0,0.0,0.2454
14745,0,0.2458,,-0.01,0.03,-0.04,-0,1,-0,0.05,0.05,87,,,,,,,,,,,,,,,,,,,,,,,,,,,,,,,,,,,,,,,,,,,,,,,,,,,,,,,
14785,0,0.2464,,-0.01,0.03,-0.04,-0,1,-0,0.05,0.05,86,,,,,,,,,,,,,,,,,,,,,,,,,,,,,,,,,,,,,,,,,,,,,,,,,,,,,,,
14825,0,0.2471,,-0.01,0.03,-0.04,-0,1,0,0.05,0.05,87,0,0,0,0,0,0,0,1,0,1,0,0,0,9,4,12,432,0,118,0,0,138,18,18,0,0,0,0,0,0,0,0,0,0,0,0,0,0,0,0,0.0,0.0,0.0,0.0,0,0,0.0,0,0.0,-1,0.0,0.0,0,0.0,0.2471
14865,0,0.2478,,-0.01,0.03,-0.04,-0,1,0,0.05,0.05,88,,,,,,,,,,,,,,,,,,,,,,,,,,,,,,,,,,,,,,,,,,,,,,,,,,,,,,,
14905,0,0.2484,,-0.01,0.03,-0.04,-0,1,0,0.05,0.05,89,,,,,,,,,,,,,,,,,,,,,,,,,,,,,,,,,,,,,,,,,,,,,,,,,,,,,,,
14925,0,0.2488,,,,,,,,,,,0,0,0,0,0,0,0,1,0,1,0,0,0,9,4,12,432,0,118,0,0,138,18,18,0,0,0,0,0,0,0,0,0,0,0,0,0,0,0,0,0.0,0.0,0.0,0.0,0,0,0.0,0,0.0,-1,0.0,,0,0.0,0.2488
14945,0,0.2491,,-0.01,0.03,-0.04,-0,1,-0,0.05,0.05,90,,,,,,,,,,,,,,,,,,,,,,,,,,,,,,,,,,,,,,,,,,,,,,,,,,,,,,,
14985,0,0.2498,,-0.01,0.03,-0.04,-0,1,0,0.05,0.05,91,,,,,,,,,,,,,,,,,,,,,,,,,,,,,,,,,,,,,,,,,,,,,,,,,,,,,,,
15025,0,0.2504,,-0.01,0.03,-0.04,-0,1,0,0.05,0.05,91,0,0,0,0,0,0,0,1,0,1,0,0,0,9,4,12,432,0,118,0,0,138,18,18,0,0,0,0,0,0,0,0,0,0,0,0,0,0,0,0,0.0,0.0,0.0,0.0,0,0,0.0,0,0.0,-1,0.0,0.0,0,0.0,0.2504
15065,0,0.2511,,-0.01,0.03,-0.04,-0,1,0,0.05,0.05,91,,,,,,,,,,,,,,,,,,,,,,,,,,,,,,,,,,,,,,,,,,,,,,,,,,,,,,,
15105,0,0.2518,,-0.01,0.03,-0.04,-0,1,0,0.05,0.05,91,,,,,,,,,,,,,,,,,,,,,,,,,,,,,,,,,,,,,,,,,,,,,,,,,,,,,,,
15125,0,0.2521,,,,,,,,,,,0,0,0,0,0,0,0,1,0,1,0,0,0,9,4,12,432,0,118,0,0,138,18,18,0,0,0,0,0,0,0,0,0,0,0,0,0,0,0,0,0.0,0.0,0.0,0.0,0,0,0.0,0,0.0,-1,0.0,,0,0.0,0.2521
15145,0,0.2524,,-0.01,0.03,-0.04,-0,1,0,0.05,0.05,88,,,,,,,,,,,,,,,,,,,,,,,,,,,,,,,,,,,,,,,,,,,,,,,,,,,,,,,
15185,0,0.2531,,-0.01,0.03,-0.04,-0,1,0,0.05,0.05,88,,,,,,,,,,,,,,,,,,,,,,,,,,,,,,,,,,,,,,,,,,,,,,,,,,,,,,,
15225,0,0.2538,,-0.01,0.03,-0.04,-0,1,0,0.05,0.05,89,0,0,0,0,0,0,0,1,0,0,0,0,0,9,0,12,425,0,58,-6,0,138,0,0,0,0,0,0,0,0,0,0,0,0,0,0,0,0,0,0,0.0,0.0,0.0,0.0,0,0,0.0,0,0.0,-1,0.0,0.0,0,0.0,0.2538
15265,0,0.2544,,-0.01,0.03,-0.04,-0,1,0,0.05,0.05,89,,,,,,,,,,,,,,,,,,,,,,,,,,,,,,,,,,,,,,,,,,,,,,,,,,,,,,,
15305,0,0.2551,,-0.01,0.03,-0.04,-0,0,0,0.05,0.05,90,,,,,,,,,,,,,,,,,,,,,,,,,,,,,,,,,,,,,,,,,,,,,,,,,,,,,,,
15325,0,0.2554,,,,,,,,,,,0,1,0,0,0,0,0,1,0,1,0,0,0,9,3,12,432,0,83,-3,0,138,2,2,0,0,0,0,0,0,0,0,0,0,0,0,0,0,0,0,0.0,0.0,0.0,0.0,0,0,0.0,0,0.0,-1,0.0,,0,0.0,0.2554
15345,0,0.2558,,-0.01,0.03,-0.04,-0,1,0,0.05,0.05,90,,,,,,,,,,,,,,,,,,,,,,,,,,,,,,,,,,,,,,,,,,,,,,,,,,,,,,,
15385,0,0.2564,,-0.01,0.03,-0.04,-0,1,-0,0.05,0.05,90,,,,,,,,,,,,,,,,,,,,,,,,,,,,,,,,,,,,,,,,,,,,,,,,,,,,,,,
15425,0,0.2571,,-0.01,0.03,-0.04,-0,1,0,0.05,0.05,93,0,1,0,0,0,0,0,1,1,1,0,0,0,6,5,12,432,0,19,-4,0,138,2,2,0,0,0,0,0,0,0,0,0,0,0,0,0,0,0,0,0.0,0.0,0.0,0.0,0,0,0.0,0,0.0,-1,0.0,0.0,0,0.0,0.2571
15465,0,0.2578,,-0.01,0.03,-0.04,-0,1,-0,0.05,0.05,92,,,,,,,,,,,,,,,,,,,,,,,,,,,,,,,,,,,,,,,,,,,,,,,,,,,,,,,
15505,0,0.2584,,-0.01,0.03,-0.04,0,1,-0,0.05,0.05,93,,,,,,,,,,,,,,,,,,,,,,,,,,,,,,,,,,,,,,,,,,,,,,,,,,,,,,,
15525,0,0.2588,,,,,,,,,,,0,1,0,0,0,0,0,1,1,1,0,0,0,6,5,12,432,0,-17,-2,0,138,2,2,0,0,0,0,0,0,0,0,0,0,0,0,0,0,0,0,0.0,0.0,0.0,0.0,0,0,0.0,0,0.0,-1,0.0,,0,0.0,0.2588
15545,0,0.2591,,-0.01,0.03,-0.04,-0,1,-0,0.05,0.05,92,,,,,,,,,,,,,,,,,,,,,,,,,,,,,,,,,,,,,,,,,,,,,,,,,,,,,,,
15585,0,0.2598,,-0.01,0.03,-0.04,-0,1,-0,0.05,0.05,92,,,,,,,,,,,,,,,,,,,,,,,,,,,,,,,,,,,,,,,,,,,,,,,,,,,,,,,
15625,0,0.2604,12.09,-0.01,0.03,-0.04,-0,1,-0,0.05,0.05,91,0,1,0,0,0,0,0,1,1,1,0,0,0,8,6,12,432,0,-29,-1,0,138,2,2,0,0,0,0,0,0,0,0,0,0,0,0,0,0,0,0,0.0,0.0,0.0,0.0,0,0,0.0,0,0.0,-1,0.0,0.0,0,0.0,0.2604
15665,0,0.2611,,-0.01,0.03,-0.04,-0,1,-0,0.05,0.05,92,,,,,,,,,,,,,,,,,,,,,,,,,,,,,,,,,,,,,,,,,,,,,,,,,,,,,,,
15705,0,0.2618,,-0.01,0.03,-0.04,-0,1,0,0.05,0.05,91,,,,,,,,,,,,,,,,,,,,,,,,,,,,,,,,,,,,,,,,,,,,,,,,,,,,,,,
15725,0,0.2621,,,,,,,,,,,0,1,0,0,0,0,0,1,1,1,0,0,0,5,5,12,432,0,-15,0,0,138,2,2,0,0,0,0,0,0,0,0,0,0,0,0,0,0,0,0,0.0,0.0,0.0,0.0,0,0,0.0,0,0.0,-1,0.0,,0,0.0,0.2621
15745,0,0.2624,,-0.01,0.03,-0.04,-0,1,0,0.05,0.05,93,,,,,,,,,,,,,,,,,,,,,,,,,,,,,,,,,,,,,,,,,,,,,,,,,,,,,,,
15785,0,0.2631,,-0.01,0.03,-0.04,-0,1,-0,0.05,0.05,93,,,,,,,,,,,,,,,,,,,,,,,,,,,,,,,,,,,,,,,,,,,,,,,,,,,,,,,
15825,0,0.2637,,-0.01,0.03,-0.04,-0,1,-0,0.05,0.05,91,0,1,0,0,0,0,0,1,1,1,0,0,0,6,5,12,432,0,-37,0,0,138,2,2,0,0,0,0,0,0,0,0,0,0,0,0,0,0,0,0,0.0,0.0,0.0,0.0,0,0,0.0,0,0.0,-1,0.0,0.0,0,0.0,0.2637
15865,0,0.2644,,-0.01,0.03,-0.04,-0,1,0,0.05,0.05,92,,,,,,,,,,,,,,,,,,,,,,,,,,,,,,,,,,,,,,,,,,,,,,,,,,,,,,,
15905,0,0.2651,,-0.01,0.03,-0.04,-0,1,0,0.05,0.05,92,,,,,,,,,,,,,,,,,,,,,,,,,,,,,,,,,,,,,,,,,,,,,,,,,,,,,,,
15925,0,0.2654,,,,,,,,,,,0,1,0,0,0,0,0,1,1,1,0,0,0,7,5,12,432,0,-48,0,0,138,2,2,0,0,0,0,0,0,0,0,0,0,0,0,0,0,0,0,0.0,0.0,0.0,0.0,0,0,0.0,0,0.0,-1,0.0,,0,0.0,0.2654
15945,0,0.2658,,-0.01,0.03,-0.04,-0,1,-0,0.05,0.05,93,,,,,,,,,,,,,,,,,,,,,,,,,,,,,,,,,,,,,,,,,,,,,,,,,,,,,,,
15985,0,0.2664,,-0.01,0.03,-0.04,-0,1,-0,0.05,0.05,93,,,,,,,,,,,,,,,,,,,,,,,,,,,,,,,,,,,,,,,,,,,,,,,,,,,,,,,
16025,0,0.2671,,-0.01,0.03,-0.04,-0,1,-0,0.05,0.05,93,0,1,0,0,0,0,0,1,1,1,0,0,0,8,6,12,432,0,-54,0,0,138,2,2,0,0,0,0,0,0,0,0,0,0,0,0,0,0,0,0,0.0,0.0,0.0,0.0,0,0,0.0,0,0.0,-1,0.0,0.0,0,0.0,0.2671
16065,0,0.2678,,-0.01,0.03,-0.04,-0,1,0,0.05,0.05,93,,,,,,,,,,,,,,,,,,,,,,,,,,,,,,,,,,,,,,,,,,,,,,,,,,,,,,,
16105,0,0.2684,,-0.01,0.03,-0.04,-0,1,0,0.05,0.05,93,,,,,,,,,,,,,,,,,,,,,,,,,,,,,,,,,,,,,,,,,,,,,,,,,,,,,,,
16125,0,0.2688,,,,,,,,,,,0,1,0,0,0,0,0,1,1,1,0,0,0,8,6,12,432,0,-56,0,0,138,2,2,0,0,0,0,0,0,0,0,0,0,0,0,0,0,0,0,0.0,0.0,0.0,0.0,0,0,0.0,0,0.0,-1,0.0,,0,0.0,0.2688
16145,0,0.2691,,-0.01,0.03,-0.04,-0,1,0,0.05,0.05,94,,,,,,,,,,,,,,,,,,,,,,,,,,,,,,,,,,,,,,,,,,,,,,,,,,,,,,,
16185,0,0.2698,,-0.01,0.03,-0.04,-0,1,0,0.05,0.05,95,,,,,,,,,,,,,,,,,,,,,,,,,,,,,,,,,,,,,,,,,,,,,,,,,,,,,,,
16225,0,0.2704,,-0.01,0.03,-0.04,-0,1,0,0.05,0.05,97,0,1,0,0,0,0,0,1,1,1,0,0,0,8,6,12,432,0,-58,0,0,138,2,2,0,0,0,0,0,0,0,0,0,0,0,0,0,0,0,0,0.0,0.0,0.0,0.0,0,0,0.0,0,0.0,-1,0.0,0.0,0,0.0,0.2704
16265,0,0.2711,,-0.01,0.03,-0.04,-0,0,-0,0.05,0.05,97,,,,,,,,,,,,,,,,,,,,,,,,,,,,,,,,,,,,,,,,,,,,,,,,,,,,,,,
16305,0,0.2718,,-0.01,0.03,-0.04,-0,1,0,0.05,0.05,96,,,,,,,,,,,,,,,,,,,,,,,,,,,,,,,,,,,,,,,,,,,,,,,,,,,,,,,
16325,0,0.2721,,,,,,,,,,,0,1,0,0,0,0,0,1,1,1,0,0,0,8,6,12,432,0,-59,0,0,138,2,2,0,0,0,0,0,0,0,0,0,0,0,0,0,0,0,0,0.0,0.0,0.0,0.0,0,0,0.0,0,0.0,-1,0.0,,0,0.0,0.2721
16345,0,0.2724,,-0.01,0.03,-0.04,-0,1,0,0.05,0.05,95,,,,,,,,,,,,,,,,,,,,,,,,,,,,,,,,,,,,,,,,,,,,,,,,,,,,,,,
16385,0,0.2731,,-0.01,0.03,-0.04,-0,1,0,0.05,0.05,94,,,,,,,,,,,,,,,,,,,,,,,,,,,,,,,,,,,,,,,,,,,,,,,,,,,,,,,
16425,0,0.2738,,-0.01,0.03,-0.04,-0,1,0,0.05,0.05,95,0,1,0,0,0,0,0,1,1,1,0,0,0,8,6,12,432,0,-59,0,0,138,2,2,0,0,0,0,0,0,0,0,0,0,0,0,0,0,0,0,0.0,0.0,0.0,0.0,0,0,0.0,0,0.0,-1,0.0,0.0,0,0.0,0.2738
16465,0,0.2744,,-0.01,0.03,-0.04,-0,1,0,0.05,0.05,94,,,,,,,,,,,,,,,,,,,,,,,,,,,,,,,,,,,,,,,,,,,,,,,,,,,,,,,
16505,0,0.2751,,-0.01,0.03,-0.04,-0,1,0,0.05,0.05,94,,,,,,,,,,,,,,,,,,,,,,,,,,,,,,,,,,,,,,,,,,,,,,,,,,,,,,,
16525,0,0.2754,,,,,,,,,,,0,1,0,0,0,0,0,1,1,1,0,0,0,8,6,12,432,0,-59,0,0,138,3,3,0,0,0,0,0,0,0,0,0,0,0,0,0,0,0,0,0.0,0.0,0.0,0.0,0,0,0.0,0,0.0,-1,0.0,,0,0.0,0.2754
16545,0,0.2758,,-0.01,0.03,-0.04,-0,1,0,0.05,0.05,93,,,,,,,,,,,,,,,,,,,,,,,,,,,,,,,,,,,,,,,,,,,,,,,,,,,,,,,
16585,0,0.2764,,-0.01,0.03,-0.04,-0,1,0,0.05,0.05,93,,,,,,,,,,,,,,,,,,,,,,,,,,,,,,,,,,,,,,,,,,,,,,,,,,,,,,,
